~VERSION INFORMATION
 VERS.                 2.0:   CWLS LOG ASCII STANDARD - VERSION 2.0
 WRAP.                  NO:   ONE LINE PER DEPTH STEP
~WELL INFORMATION BLOCK
#MNEM.UNIT    DATA                         DESCRIPTION OF MNEMONIC
#---------  ---------------------------    -----------------------
 STRT.M           105.60          : START DEPTH
 STOP.M           184.20          : STOP DEPTH
 STEP.M             0.10          : STEP VALUE
 NULL.           -999.125         : NULL VALUE
 COMP.       SUNCOR ENERGY RESOURCES PARTNERSHIP: COMPANY
 WELL.       SUNCOR LEWIS 1-33-92-8             : WELL
 FLD .       NOT AVAILABLE                      : FIELD
 LOC.        1AA013309208W400                   : LOCATION
 PROV.                                          : PROVINCE
 SRVC.       AGAT LABORATORIES                  : SERVICE COMPANY
 DATE.       18/01/2016                         : DATE
 UWI .       1AA013309208W400                   : UNIQUE WELL ID
 WNUM.       RC25771                            : WORK ORDER NUMBER
 FRM .       MCMURRAY                           : FORMATION
 REC .M      72.80                              : RECOVERY
 INT .M      105.60-184.20                      : CORED INTERVAL
 DFLD.       WATER BASED MUD                    : DRILLING FLUID
 KB  .       0                                  : KB ELEVATION
 GRD .       0                                  : GRD ELEVATION
~CURVE INFORMATION BLOCK
 DEPT.M                  :    1        DEPTH
 TOP.INTERVAL            :    2        SAMPLE TOP DEPTH
 BOTTOM.INTERVAL         :    3        SAMPLE BOTTOM DEPTH
 SPLTH.M                 :    4        SAMPLE LENGTH
 REPTH.M                 :    5        REP THICKNESS
 INT_WOS.grams           :    6        INITIAL WEIGHT OF SAMPLE
 PV_SO.V/V               :    7        OIL SATURATION
 PV_SW.V/V               :    8        WATER SATURATION
 BMF_SO.W/W              :    9        BULK MASS FRACTION OIL SATURATION
 BMF_SW.W/W              :    10       BULK MASS FRACTION WATER SATURATION
 BMF_MIN.W/W             :    11       BULK MASS FRACTION MINERAL
 CUM_SUM.W/W             :    12       CUMLATED SUMMARY
 CALC_PHI.V/V            :    13       CALCULATED POROSITY
 SMPNO.TXT               :    14       SAMPLE NUMBER
 DESC.TXT                :    15       SAMPLE DESCRIPTION
~A    DEPT       TOP    BOTTOM     SPLTH     REPTH   INT_WOS     PV_SO     PV_SW    BMF_SO    BMF_SW   BMF_MIN   CUM_SUM  CALC_PHI     SMPNO      DESC
# ...
    147.20    146.95    147.35  -999.125     0.400   101.300     0.212     0.788     0.033     0.123     0.842     0.998     0.329       106 no_description
    147.30    146.95    147.35  -999.125     0.400   101.300     0.212     0.788     0.033     0.123     0.842     0.998     0.329       106 no_description
    147.40    147.35    147.60  -999.125     0.250   102.270     0.283     0.717     0.044     0.112     0.840     0.996     0.329       107 no_description
    147.50    147.35    147.60  -999.125     0.250   102.270     0.283     0.717     0.044     0.112     0.840     0.996     0.329       107 no_description
    147.60    147.35    147.60  -999.125     0.250   102.270     0.283     0.717     0.044     0.112     0.840     0.996     0.329       107 no_description
    147.70    147.60    147.85  -999.125     0.250   102.780     0.301     0.699     0.047     0.110     0.840     0.997     0.332       108 no_description
    147.80    147.60    147.85  -999.125     0.250   102.780     0.301     0.699     0.047     0.110     0.840     0.997     0.332       108 no_description
    147.90    147.85    148.10  -999.125     0.250   101.680     0.642     0.358     0.116     0.064     0.816     0.996     0.369       109 no_description
    148.00    147.85    148.10  -999.125     0.250   101.680     0.642     0.358     0.116     0.064     0.816     0.996     0.369       109 no_description
    148.10    147.85    148.10  -999.125     0.250   101.680     0.642     0.358     0.116     0.064     0.816     0.996     0.369       109 no_description
    148.20    148.10    148.50  -999.125     0.400   101.560     0.762     0.238     0.139     0.043     0.814     0.996     0.372       110 no_description
    148.30    148.10    148.50  -999.125     0.400   101.560     0.762     0.238     0.139     0.043     0.814     0.996     0.372       110 no_description
    148.40    148.10    148.50  -999.125     0.400   101.560     0.762     0.238     0.139     0.043     0.814     0.996     0.372       110 no_description
    148.50    148.10    148.50  -999.125     0.400   101.560     0.762     0.238     0.139     0.043     0.814     0.996     0.372       110 no_description
    148.60    148.50    148.85  -999.125     0.350   101.480     0.779     0.221     0.142     0.040     0.813     0.995     0.373       111 no_description
    148.70    148.50    148.85  -999.125     0.350   101.480     0.779     0.221     0.142     0.040     0.813     0.995     0.373       111 no_description
    148.80    148.50    148.85  -999.125     0.350   101.480     0.779     0.221     0.142     0.040     0.813     0.995     0.373       111 no_description
    148.90    148.85    149.20  -999.125     0.350   101.720     0.561     0.439     0.086     0.067     0.845     0.998     0.324       112 no_description
    149.00    148.85    149.20  -999.125     0.350   101.720     0.561     0.439     0.086     0.067     0.845     0.998     0.324       112 no_description
    149.10    148.85    149.20  -999.125     0.350   101.720     0.561     0.439     0.086     0.067     0.845     0.998     0.324       112 no_description
    149.20    148.85    149.20  -999.125     0.350   101.720     0.561     0.439     0.086     0.067     0.845     0.998     0.324       112 no_description
    149.30    149.20    149.60  -999.125     0.400   102.160     0.709     0.291     0.113     0.046     0.838     0.997     0.336       113 no_description
    149.40    149.20    149.60  -999.125     0.400   102.160     0.709     0.291     0.113     0.046     0.838     0.997     0.336       113 no_description
    149.50    149.20    149.60  -999.125     0.400   102.160     0.709     0.291     0.113     0.046     0.838     0.997     0.336       113 no_description
    149.60    149.20    149.60  -999.125     0.400   102.160     0.709     0.291     0.113     0.046     0.838     0.997     0.336       113 no_description
    149.70    149.60    149.95  -999.125     0.350   102.740     0.824     0.176     0.135     0.029     0.832     0.996     0.343       114 no_description
    149.80    149.60    149.95  -999.125     0.350   102.740     0.824     0.176     0.135     0.029     0.832     0.996     0.343       114 no_description
    149.90    149.60    149.95  -999.125     0.350   102.740     0.824     0.176     0.135     0.029     0.832     0.996     0.343       114 no_description
    150.00    149.95    150.35  -999.125     0.400   101.030     0.766     0.234     0.125     0.038     0.833     0.996     0.342       115 no_description
    150.10    149.95    150.35  -999.125     0.400   101.030     0.766     0.234     0.125     0.038     0.833     0.996     0.342       115 no_description
    150.20    149.95    150.35  -999.125     0.400   101.030     0.766     0.234     0.125     0.038     0.833     0.996     0.342       115 no_description
    150.30    149.95    150.35  -999.125     0.400   101.030     0.766     0.234     0.125     0.038     0.833     0.996     0.342       115 no_description
    150.40    150.35    150.65  -999.125     0.300   101.960     0.657     0.343     0.107     0.056     0.835     0.998     0.340       116 no_description
    150.50    150.35    150.65  -999.125     0.300   101.960     0.657     0.343     0.107     0.056     0.835     0.998     0.340       116 no_description
    150.60    150.35    150.65  -999.125     0.300   101.960     0.657     0.343     0.107     0.056     0.835     0.998     0.340       116 no_description
    150.70    150.65    150.95  -999.125     0.300   102.040     0.522     0.478     0.083     0.076     0.838     0.997     0.335       117 no_description
    150.80    150.65    150.95  -999.125     0.300   102.040     0.522     0.478     0.083     0.076     0.838     0.997     0.335       117 no_description
    150.90    150.65    150.95  -999.125     0.300   102.040     0.522     0.478     0.083     0.076     0.838     0.997     0.335       117 no_description
    151.00    150.95    151.30  -999.125     0.350   102.010     0.738     0.262     0.125     0.045     0.827     0.997     0.352       118 no_description
    151.10    150.95    151.30  -999.125     0.350   102.010     0.738     0.262     0.125     0.045     0.827     0.997     0.352       118 no_description
    151.20    150.95    151.30  -999.125     0.350   102.010     0.738     0.262     0.125     0.045     0.827     0.997     0.352       118 no_description
    151.30    150.95    151.30  -999.125     0.350   102.010     0.738     0.262     0.125     0.045     0.827     0.997     0.352       118 no_description
    151.40    151.30    151.65  -999.125     0.350   101.740     0.781     0.219     0.119     0.033     0.844     0.996     0.324       119 no_description
    151.50    151.30    151.65  -999.125     0.350   101.740     0.781     0.219     0.119     0.033     0.844     0.996     0.324       119 no_description
    151.60    151.30    151.65  -999.125     0.350   101.740     0.781     0.219     0.119     0.033     0.844     0.996     0.324       119 no_description
    151.70    151.65    151.95  -999.125     0.300   102.330     0.847     0.153     0.111     0.020     0.866     0.997     0.286       120 no_description
    151.80    151.65    151.95  -999.125     0.300   102.330     0.847     0.153     0.111     0.020     0.866     0.997     0.286       120 no_description
    151.90    151.65    151.95  -999.125     0.300   102.330     0.847     0.153     0.111     0.020     0.866     0.997     0.286       120 no_description
    152.00    151.95    152.25  -999.125     0.300   102.660     0.815     0.185     0.123     0.028     0.844     0.995     0.321       121 no_description
    152.10    151.95    152.25  -999.125     0.300   102.660     0.815     0.185     0.123     0.028     0.844     0.995     0.321       121 no_description
    152.20    151.95    152.25  -999.125     0.300   102.660     0.815     0.185     0.123     0.028     0.844     0.995     0.321       121 no_description
    152.30    152.25    152.50  -999.125     0.250   101.210     0.725     0.275     0.097     0.037     0.862     0.996     0.292       122 no_description
