~VERSION INFORMATION
 VERS.                 2.0:   CWLS LOG ASCII STANDARD - VERSION 2.0
 WRAP.                  NO:   ONE LINE PER DEPTH STEP
~WELL INFORMATION BLOCK
#MNEM.UNIT    DATA                         DESCRIPTION OF MNEMONIC
#---------  ---------------------------    -----------------------
 STRT.M           105.60          : START DEPTH
 STOP.M           184.20          : STOP DEPTH
 STEP.M             0.10          : STEP VALUE
 NULL.           -999.125         : NULL VALUE
 COMP.       SUNCOR ENERGY RESOURCES PARTNERSHIP: COMPANY
 WELL.       SUNCOR LEWIS 1-33-92-8             : WELL
 FLD .       NOT AVAILABLE                      : FIELD
 LOC.        1AA013309208W400                   : LOCATION
 PROV.                                          : PROVINCE
 SRVC.       AGAT LABORATORIES                  : SERVICE COMPANY
 DATE.       18/01/2016                         : DATE
 UWI .       1AA013309208W400                   : UNIQUE WELL ID
 WNUM.       RC25771                            : WORK ORDER NUMBER
 FRM .       MCMURRAY                           : FORMATION
 REC .M      72.80                              : RECOVERY
 INT .M      105.60-184.20                      : CORED INTERVAL
 DFLD.       WATER BASED MUD                    : DRILLING FLUID
 KB  .       0                                  : KB ELEVATION
 GRD .       0                                  : GRD ELEVATION
~CURVE INFORMATION BLOCK
 DEPT.M                  :    1        DEPTH
 TOP.INTERVAL            :    2        SAMPLE TOP DEPTH
 BOTTOM.INTERVAL         :    3        SAMPLE BOTTOM DEPTH
 SPLTH.M                 :    4        SAMPLE LENGTH
 REPTH.M                 :    5        REP THICKNESS
 INT_WOS.grams           :    6        INITIAL WEIGHT OF SAMPLE
 PV_SO.V/V               :    7        OIL SATURATION
 PV_SW.V/V               :    8        WATER SATURATION
 BMF_SO.W/W              :    9        BULK MASS FRACTION OIL SATURATION
 BMF_SW.W/W              :    10       BULK MASS FRACTION WATER SATURATION
 BMF_MIN.W/W             :    11       BULK MASS FRACTION MINERAL
 CUM_SUM.W/W             :    12       CUMLATED SUMMARY
 CALC_PHI.V/V            :    13       CALCULATED POROSITY
 SMPNO.TXT               :    14       SAMPLE NUMBER
 DESC.TXT                :    15       SAMPLE DESCRIPTION
~A    DEPT       TOP    BOTTOM     SPLTH     REPTH   INT_WOS     PV_SO     PV_SW    BMF_SO    BMF_SW   BMF_MIN   CUM_SUM  CALC_PHI     SMPNO      DESC
# ...
    110.80    110.20    112.20  -999.125  -999.125  -999.125  -999.125  -999.125  -999.125  -999.125  -999.125  -999.125  -999.125        NA no_description
    110.90    110.20    112.20  -999.125  -999.125  -999.125  -999.125  -999.125  -999.125  -999.125  -999.125  -999.125  -999.125        NA no_description
    111.00    110.20    112.20  -999.125  -999.125  -999.125  -999.125  -999.125  -999.125  -999.125  -999.125  -999.125  -999.125        NA no_description
    111.10    110.20    112.20  -999.125  -999.125  -999.125  -999.125  -999.125  -999.125  -999.125  -999.125  -999.125  -999.125        NA no_description
    111.20    110.20    112.20  -999.125  -999.125  -999.125  -999.125  -999.125  -999.125  -999.125  -999.125  -999.125  -999.125        NA no_description
    111.30    110.20    112.20  -999.125  -999.125  -999.125  -999.125  -999.125  -999.125  -999.125  -999.125  -999.125  -999.125        NA no_description
    111.40    110.20    112.20  -999.125  -999.125  -999.125  -999.125  -999.125  -999.125  -999.125  -999.125  -999.125  -999.125        NA no_description
    111.50    110.20    112.20  -999.125  -999.125  -999.125  -999.125  -999.125  -999.125  -999.125  -999.125  -999.125  -999.125        NA no_description
    111.60    110.20    112.20  -999.125  -999.125  -999.125  -999.125  -999.125  -999.125  -999.125  -999.125  -999.125  -999.125        NA no_description
    111.70    110.20    112.20  -999.125  -999.125  -999.125  -999.125  -999.125  -999.125  -999.125  -999.125  -999.125  -999.125        NA no_description
    111.80    110.20    112.20  -999.125  -999.125  -999.125  -999.125  -999.125  -999.125  -999.125  -999.125  -999.125  -999.125        NA no_description
    111.90    110.20    112.20  -999.125  -999.125  -999.125  -999.125  -999.125  -999.125  -999.125  -999.125  -999.125  -999.125        NA no_description
    112.00    110.20    112.20  -999.125  -999.125  -999.125  -999.125  -999.125  -999.125  -999.125  -999.125  -999.125  -999.125        NA no_description
    112.10    110.20    112.20  -999.125  -999.125  -999.125  -999.125  -999.125  -999.125  -999.125  -999.125  -999.125  -999.125        NA no_description
    112.20    110.20    112.20  -999.125  -999.125  -999.125  -999.125  -999.125  -999.125  -999.125  -999.125  -999.125  -999.125        NA no_description
    112.30    112.25    113.50  -999.125  -999.125  -999.125  -999.125  -999.125  -999.125  -999.125  -999.125  -999.125  -999.125        NA no_description
    112.40    112.25    113.50  -999.125  -999.125  -999.125  -999.125  -999.125  -999.125  -999.125  -999.125  -999.125  -999.125        NA no_description
    112.50    112.25    113.50  -999.125  -999.125  -999.125  -999.125  -999.125  -999.125  -999.125  -999.125  -999.125  -999.125        NA no_description
    112.60    112.25    113.50  -999.125  -999.125  -999.125  -999.125  -999.125  -999.125  -999.125  -999.125  -999.125  -999.125        NA no_description
    112.70    112.25    113.50  -999.125  -999.125  -999.125  -999.125  -999.125  -999.125  -999.125  -999.125  -999.125  -999.125        NA no_description
    112.80    112.25    113.50  -999.125  -999.125  -999.125  -999.125  -999.125  -999.125  -999.125  -999.125  -999.125  -999.125        NA no_description
    112.90    112.25    113.50  -999.125  -999.125  -999.125  -999.125  -999.125  -999.125  -999.125  -999.125  -999.125  -999.125        NA no_description
    113.00    112.25    113.50  -999.125  -999.125  -999.125  -999.125  -999.125  -999.125  -999.125  -999.125  -999.125  -999.125        NA no_description
    113.10    112.25    113.50  -999.125  -999.125  -999.125  -999.125  -999.125  -999.125  -999.125  -999.125  -999.125  -999.125        NA no_description
    113.20    112.25    113.50  -999.125  -999.125  -999.125  -999.125  -999.125  -999.125  -999.125  -999.125  -999.125  -999.125        NA no_description
    113.30    112.25    113.50  -999.125  -999.125  -999.125  -999.125  -999.125  -999.125  -999.125  -999.125  -999.125  -999.125        NA no_description
    113.40    112.25    113.50  -999.125  -999.125  -999.125  -999.125  -999.125  -999.125  -999.125  -999.125  -999.125  -999.125        NA no_description
    113.50    112.25    113.50  -999.125  -999.125  -999.125  -999.125  -999.125  -999.125  -999.125  -999.125  -999.125  -999.125        NA no_description
    113.60    113.50    113.80  -999.125     0.300   101.600     0.108     0.892     0.016     0.133     0.846     0.995     0.318         1 no_description
    113.70    113.50    113.80  -999.125     0.300   101.600     0.108     0.892     0.016     0.133     0.846     0.995     0.318         1 no_description
    113.80    113.50    113.80  -999.125     0.300   101.600     0.108     0.892     0.016     0.133     0.846     0.995     0.318         1 no_description
    113.90    113.80    114.15  -999.125     0.350   102.260     0.124     0.876     0.021     0.149     0.827     0.997     0.353         2 no_description
    114.00    113.80    114.15  -999.125     0.350   102.260     0.124     0.876     0.021     0.149     0.827     0.997     0.353         2 no_description
    114.10    113.80    114.15  -999.125     0.350   102.260     0.124     0.876     0.021     0.149     0.827     0.997     0.353         2 no_description
    114.20    114.15    114.50  -999.125     0.350   101.670     0.212     0.788     0.030     0.113     0.852     0.995     0.309         3 no_description
    114.30    114.15    114.50  -999.125     0.350   101.670     0.212     0.788     0.030     0.113     0.852     0.995     0.309         3 no_description
    114.40    114.15    114.50  -999.125     0.350   101.670     0.212     0.788     0.030     0.113     0.852     0.995     0.309         3 no_description
    114.50    114.15    114.50  -999.125     0.350   101.670     0.212     0.788     0.030     0.113     0.852     0.995     0.309         3 no_description
    114.60    114.50    114.85  -999.125     0.350   101.800     0.289     0.711     0.048     0.117     0.832     0.997     0.345         4 no_description
    114.70    114.50    114.85  -999.125     0.350   101.800     0.289     0.711     0.048     0.117     0.832     0.997     0.345         4 no_description
    114.80    114.50    114.85  -999.125     0.350   101.800     0.289     0.711     0.048     0.117     0.832     0.997     0.345         4 no_description
    114.90    114.85    115.15  -999.125     0.300   102.060     0.318     0.682     0.058     0.123     0.816     0.997     0.370         5 no_description
    115.00    114.85    115.15  -999.125     0.300   102.060     0.318     0.682     0.058     0.123     0.816     0.997     0.370         5 no_description
    115.10    114.85    115.15  -999.125     0.300   102.060     0.318     0.682     0.058     0.123     0.816     0.997     0.370         5 no_description
    115.20    115.15    115.45  -999.125     0.300   102.530     0.242     0.758     0.046     0.145     0.805     0.996     0.387         6 no_description
    115.30    115.15    115.45  -999.125     0.300   102.530     0.242     0.758     0.046     0.145     0.805     0.996     0.387         6 no_description
    115.40    115.15    115.45  -999.125     0.300   102.530     0.242     0.758     0.046     0.145     0.805     0.996     0.387         6 no_description
    115.50    115.45    115.75  -999.125     0.300   102.450     0.280     0.720     0.046     0.117     0.834     0.997     0.341         7 no_description
    115.60    115.45    115.75  -999.125     0.300   102.450     0.280     0.720     0.046     0.117     0.834     0.997     0.341         7 no_description
    115.70    115.45    115.75  -999.125     0.300   102.450     0.280     0.720     0.046     0.117     0.834     0.997     0.341         7 no_description
    115.80    115.75    116.05  -999.125     0.300   102.370     0.703     0.297     0.129     0.054     0.813     0.996     0.374         8 no_description
    115.90    115.75    116.05  -999.125     0.300   102.370     0.703     0.297     0.129     0.054     0.813     0.996     0.374         8 no_description
