~VERSION INFORMATION
 VERS.                 2.0:   CWLS LOG ASCII STANDARD - VERSION 2.0
 WRAP.                  NO:   ONE LINE PER DEPTH STEP
~WELL INFORMATION BLOCK
#MNEM.UNIT    DATA                         DESCRIPTION OF MNEMONIC
#---------  ---------------------------    -----------------------
 STRT.M           105.60          : START DEPTH
 STOP.M           184.20          : STOP DEPTH
 STEP.M             0.10          : STEP VALUE
 NULL.           -999.125         : NULL VALUE
 COMP.       SUNCOR ENERGY RESOURCES PARTNERSHIP: COMPANY
 WELL.       SUNCOR LEWIS 1-33-92-8             : WELL
 FLD .       NOT AVAILABLE                      : FIELD
 LOC.        1AA013309208W400                   : LOCATION
 PROV.                                          : PROVINCE
 SRVC.       AGAT LABORATORIES                  : SERVICE COMPANY
 DATE.       18/01/2016                         : DATE
 UWI .       1AA013309208W400                   : UNIQUE WELL ID
 WNUM.       RC25771                            : WORK ORDER NUMBER
 FRM .       MCMURRAY                           : FORMATION
 REC .M      72.80                              : RECOVERY
 INT .M      105.60-184.20                      : CORED INTERVAL
 DFLD.       WATER BASED MUD                    : DRILLING FLUID
 KB  .       0                                  : KB ELEVATION
 GRD .       0                                  : GRD ELEVATION
~CURVE INFORMATION BLOCK
 DEPT.M                  :    1        DEPTH
 TOP.INTERVAL            :    2        SAMPLE TOP DEPTH
 BOTTOM.INTERVAL         :    3        SAMPLE BOTTOM DEPTH
 SPLTH.M                 :    4        SAMPLE LENGTH
 REPTH.M                 :    5        REP THICKNESS
 INT_WOS.grams           :    6        INITIAL WEIGHT OF SAMPLE
 PV_SO.V/V               :    7        OIL SATURATION
 PV_SW.V/V               :    8        WATER SATURATION
 BMF_SO.W/W              :    9        BULK MASS FRACTION OIL SATURATION
 BMF_SW.W/W              :    10       BULK MASS FRACTION WATER SATURATION
 BMF_MIN.W/W             :    11       BULK MASS FRACTION MINERAL
 CUM_SUM.W/W             :    12       CUMLATED SUMMARY
 CALC_PHI.V/V            :    13       CALCULATED POROSITY
 SMPNO.TXT               :    14       SAMPLE NUMBER
 DESC.TXT                :    15       SAMPLE DESCRIPTION
~A    DEPT       TOP    BOTTOM     SPLTH     REPTH   INT_WOS     PV_SO     PV_SW    BMF_SO    BMF_SW   BMF_MIN   CUM_SUM  CALC_PHI     SMPNO      DESC
# ...
    142.00    141.70    142.05  -999.125     0.350   103.440     0.748     0.252     0.150     0.050     0.797     0.997     0.400        90 no_description
    142.10    142.05    142.10  -999.125  -999.125  -999.125  -999.125  -999.125  -999.125  -999.125  -999.125  -999.125  -999.125        LC no_description
    142.20    142.10    142.45  -999.125     0.350   103.290     0.700     0.300     0.141     0.060     0.799     1.000     0.400        91 no_description
    142.30    142.10    142.45  -999.125     0.350   103.290     0.700     0.300     0.141     0.060     0.799     1.000     0.400        91 no_description
    142.40    142.10    142.45  -999.125     0.350   103.290     0.700     0.300     0.141     0.060     0.799     1.000     0.400        91 no_description
    142.50    142.45    142.85  -999.125     0.400   101.780     0.749     0.251     0.147     0.049     0.802     0.998     0.393        92 no_description
    142.60    142.45    142.85  -999.125     0.400   101.780     0.749     0.251     0.147     0.049     0.802     0.998     0.393        92 no_description
    142.70    142.45    142.85  -999.125     0.400   101.780     0.749     0.251     0.147     0.049     0.802     0.998     0.393        92 no_description
    142.80    142.45    142.85  -999.125     0.400   101.780     0.749     0.251     0.147     0.049     0.802     0.998     0.393        92 no_description
    142.90    142.85    143.25  -999.125     0.400   101.810     0.566     0.434     0.111     0.085     0.801     0.997     0.394        93 no_description
    143.00    142.85    143.25  -999.125     0.400   101.810     0.566     0.434     0.111     0.085     0.801     0.997     0.394        93 no_description
    143.10    142.85    143.25  -999.125     0.400   101.810     0.566     0.434     0.111     0.085     0.801     0.997     0.394        93 no_description
    143.20    142.85    143.25  -999.125     0.400   101.810     0.566     0.434     0.111     0.085     0.801     0.997     0.394        93 no_description
    143.30    143.25    143.60  -999.125     0.350   102.300     0.210     0.790     0.029     0.110     0.857     0.996     0.302        94 no_description
    143.40    143.25    143.60  -999.125     0.350   102.300     0.210     0.790     0.029     0.110     0.857     0.996     0.302        94 no_description
    143.50    143.25    143.60  -999.125     0.350   102.300     0.210     0.790     0.029     0.110     0.857     0.996     0.302        94 no_description
    143.60    143.25    143.60  -999.125     0.350   102.300     0.210     0.790     0.029     0.110     0.857     0.996     0.302        94 no_description
    143.70    143.60    143.90  -999.125     0.300   102.350     0.252     0.748     0.035     0.105     0.857     0.997     0.303        95 no_description
    143.80    143.60    143.90  -999.125     0.300   102.350     0.252     0.748     0.035     0.105     0.857     0.997     0.303        95 no_description
    143.90    143.60    143.90  -999.125     0.300   102.350     0.252     0.748     0.035     0.105     0.857     0.997     0.303        95 no_description
    144.00    143.90    144.15  -999.125     0.250   103.290     0.232     0.768     0.030     0.098     0.867     0.995     0.281        96 no_description
    144.10    143.90    144.15  -999.125     0.250   103.290     0.232     0.768     0.030     0.098     0.867     0.995     0.281        96 no_description
    144.20    144.15    144.40  -999.125     0.250   102.790     0.271     0.729     0.044     0.118     0.837     0.999     0.340        97 no_description
    144.30    144.15    144.40  -999.125     0.250   102.790     0.271     0.729     0.044     0.118     0.837     0.999     0.340        97 no_description
    144.40    144.15    144.40  -999.125     0.250   102.790     0.271     0.729     0.044     0.118     0.837     0.999     0.340        97 no_description
    144.50    144.40    144.75  -999.125     0.350   102.360     0.419     0.581     0.066     0.091     0.838     0.995     0.332        98 no_description
    144.60    144.40    144.75  -999.125     0.350   102.360     0.419     0.581     0.066     0.091     0.838     0.995     0.332        98 no_description
    144.70    144.40    144.75  -999.125     0.350   102.360     0.419     0.581     0.066     0.091     0.838     0.995     0.332        98 no_description
    144.80    144.75    145.10  -999.125     0.350   101.720     0.390     0.610     0.063     0.098     0.834     0.995     0.339        99 no_description
    144.90    144.75    145.10  -999.125     0.350   101.720     0.390     0.610     0.063     0.098     0.834     0.995     0.339        99 no_description
    145.00    144.75    145.10  -999.125     0.350   101.720     0.390     0.610     0.063     0.098     0.834     0.995     0.339        99 no_description
    145.10    144.75    145.10  -999.125     0.350   101.720     0.390     0.610     0.063     0.098     0.834     0.995     0.339        99 no_description
    145.20    145.10    145.40  -999.125     0.300   102.120     0.448     0.552     0.074     0.091     0.832     0.997     0.345       100 no_description
    145.30    145.10    145.40  -999.125     0.300   102.120     0.448     0.552     0.074     0.091     0.832     0.997     0.345       100 no_description
    145.40    145.10    145.40  -999.125     0.300   102.120     0.448     0.552     0.074     0.091     0.832     0.997     0.345       100 no_description
    145.50    145.40    145.75  -999.125     0.350   101.440     0.722     0.278     0.142     0.055     0.799     0.996     0.395       101 no_description
    145.60    145.40    145.75  -999.125     0.350   101.440     0.722     0.278     0.142     0.055     0.799     0.996     0.395       101 no_description
    145.70    145.40    145.75  -999.125     0.350   101.440     0.722     0.278     0.142     0.055     0.799     0.996     0.395       101 no_description
    145.80    145.75    146.10  -999.125     0.350   101.780     0.712     0.288     0.142     0.057     0.797     0.996     0.398       102 no_description
    145.90    145.75    146.10  -999.125     0.350   101.780     0.712     0.288     0.142     0.057     0.797     0.996     0.398       102 no_description
    146.00    145.75    146.10  -999.125     0.350   101.780     0.712     0.288     0.142     0.057     0.797     0.996     0.398       102 no_description
    146.10    145.75    146.10  -999.125     0.350   101.780     0.712     0.288     0.142     0.057     0.797     0.996     0.398       102 no_description
    146.20    146.10    146.35  -999.125     0.250   102.260     0.254     0.746     0.048     0.140     0.809     0.997     0.381       103 no_description
    146.30    146.10    146.35  -999.125     0.250   102.260     0.254     0.746     0.048     0.140     0.809     0.997     0.381       103 no_description
    146.40    146.35    146.60  -999.125     0.250   102.470     0.287     0.713     0.047     0.117     0.832     0.996     0.342       104 no_description
    146.50    146.35    146.60  -999.125     0.250   102.470     0.287     0.713     0.047     0.117     0.832     0.996     0.342       104 no_description
    146.60    146.35    146.60  -999.125     0.250   102.470     0.287     0.713     0.047     0.117     0.832     0.996     0.342       104 no_description
    146.70    146.60    146.95  -999.125     0.350   101.650     0.154     0.846     0.026     0.144     0.826     0.996     0.354       105 no_description
    146.80    146.60    146.95  -999.125     0.350   101.650     0.154     0.846     0.026     0.144     0.826     0.996     0.354       105 no_description
    146.90    146.60    146.95  -999.125     0.350   101.650     0.154     0.846     0.026     0.144     0.826     0.996     0.354       105 no_description
    147.00    146.95    147.35  -999.125     0.400   101.300     0.212     0.788     0.033     0.123     0.842     0.998     0.329       106 no_description
    147.10    146.95    147.35  -999.125     0.400   101.300     0.212     0.788     0.033     0.123     0.842     0.998     0.329       106 no_description
