~VERSION INFORMATION
 VERS.                 2.0:   CWLS LOG ASCII STANDARD - VERSION 2.0
 WRAP.                  NO:   ONE LINE PER DEPTH STEP
~WELL INFORMATION BLOCK
#MNEM.UNIT    DATA                         DESCRIPTION OF MNEMONIC
#---------  ---------------------------    -----------------------
 STRT.M           105.60          : START DEPTH
 STOP.M           184.20          : STOP DEPTH
 STEP.M             0.10          : STEP VALUE
 NULL.           -999.125         : NULL VALUE
 COMP.       SUNCOR ENERGY RESOURCES PARTNERSHIP: COMPANY
 WELL.       SUNCOR LEWIS 1-33-92-8             : WELL
 FLD .       NOT AVAILABLE                      : FIELD
 LOC.        1AA013309208W400                   : LOCATION
 PROV.                                          : PROVINCE
 SRVC.       AGAT LABORATORIES                  : SERVICE COMPANY
 DATE.       18/01/2016                         : DATE
 UWI .       1AA013309208W400                   : UNIQUE WELL ID
 WNUM.       RC25771                            : WORK ORDER NUMBER
 FRM .       MCMURRAY                           : FORMATION
 REC .M      72.80                              : RECOVERY
 INT .M      105.60-184.20                      : CORED INTERVAL
 DFLD.       WATER BASED MUD                    : DRILLING FLUID
 KB  .       0                                  : KB ELEVATION
 GRD .       0                                  : GRD ELEVATION
~CURVE INFORMATION BLOCK
 DEPT.M                  :    1        DEPTH
 TOP.INTERVAL            :    2        SAMPLE TOP DEPTH
 BOTTOM.INTERVAL         :    3        SAMPLE BOTTOM DEPTH
 SPLTH.M                 :    4        SAMPLE LENGTH
 REPTH.M                 :    5        REP THICKNESS
 INT_WOS.grams           :    6        INITIAL WEIGHT OF SAMPLE
 PV_SO.V/V               :    7        OIL SATURATION
 PV_SW.V/V               :    8        WATER SATURATION
 BMF_SO.W/W              :    9        BULK MASS FRACTION OIL SATURATION
 BMF_SW.W/W              :    10       BULK MASS FRACTION WATER SATURATION
 BMF_MIN.W/W             :    11       BULK MASS FRACTION MINERAL
 CUM_SUM.W/W             :    12       CUMLATED SUMMARY
 CALC_PHI.V/V            :    13       CALCULATED POROSITY
 SMPNO.TXT               :    14       SAMPLE NUMBER
 DESC.TXT                :    15       SAMPLE DESCRIPTION
~A    DEPT       TOP    BOTTOM     SPLTH     REPTH   INT_WOS     PV_SO     PV_SW    BMF_SO    BMF_SW   BMF_MIN   CUM_SUM  CALC_PHI     SMPNO      DESC
# ...
    116.00    115.75    116.05  -999.125     0.300   102.370     0.703     0.297     0.129     0.054     0.813     0.996     0.374         8 no_description
    116.10    116.05    116.35  -999.125     0.300   101.820     0.773     0.227     0.138     0.041     0.818     0.997     0.367         9 no_description
    116.20    116.05    116.35  -999.125     0.300   101.820     0.773     0.227     0.138     0.041     0.818     0.997     0.367         9 no_description
    116.30    116.05    116.35  -999.125     0.300   101.820     0.773     0.227     0.138     0.041     0.818     0.997     0.367         9 no_description
    116.40    116.35    116.65  -999.125     0.300   102.450     0.632     0.368     0.112     0.065     0.818     0.995     0.366        10 no_description
    116.50    116.35    116.65  -999.125     0.300   102.450     0.632     0.368     0.112     0.065     0.818     0.995     0.366        10 no_description
    116.60    116.35    116.65  -999.125     0.300   102.450     0.632     0.368     0.112     0.065     0.818     0.995     0.366        10 no_description
    116.70    116.65    116.90  -999.125     0.250   101.900     0.816     0.184     0.143     0.032     0.820     0.995     0.362        11 no_description
    116.80    116.65    116.90  -999.125     0.250   101.900     0.816     0.184     0.143     0.032     0.820     0.995     0.362        11 no_description
    116.90    116.65    116.90  -999.125     0.250   101.900     0.816     0.184     0.143     0.032     0.820     0.995     0.362        11 no_description
    117.00    116.90    117.20  -999.125     0.300   102.200     0.761     0.239     0.130     0.041     0.825     0.996     0.355        12 no_description
    117.10    116.90    117.20  -999.125     0.300   102.200     0.761     0.239     0.130     0.041     0.825     0.996     0.355        12 no_description
    117.20    116.90    117.20  -999.125     0.300   102.200     0.761     0.239     0.130     0.041     0.825     0.996     0.355        12 no_description
    117.30    117.20    117.45  -999.125     0.250   101.960     0.596     0.404     0.082     0.056     0.859     0.997     0.298        13 no_description
    117.40    117.20    117.45  -999.125     0.250   101.960     0.596     0.404     0.082     0.056     0.859     0.997     0.298        13 no_description
    117.50    117.45    117.75  -999.125     0.300   101.150     0.496     0.504     0.080     0.081     0.838     0.999     0.338        14 no_description
    117.60    117.45    117.75  -999.125     0.300   101.150     0.496     0.504     0.080     0.081     0.838     0.999     0.338        14 no_description
    117.70    117.45    117.75  -999.125     0.300   101.150     0.496     0.504     0.080     0.081     0.838     0.999     0.338        14 no_description
    117.80    117.75    118.05  -999.125     0.300   103.330     0.810     0.190     0.138     0.032     0.829     0.999     0.352        15 no_description
    117.90    117.75    118.05  -999.125     0.300   103.330     0.810     0.190     0.138     0.032     0.829     0.999     0.352        15 no_description
    118.00    117.75    118.05  -999.125     0.300   103.330     0.810     0.190     0.138     0.032     0.829     0.999     0.352        15 no_description
    118.10    118.05    118.35  -999.125     0.300   103.060     0.667     0.333     0.124     0.062     0.810     0.996     0.378        16 no_description
    118.20    118.05    118.35  -999.125     0.300   103.060     0.667     0.333     0.124     0.062     0.810     0.996     0.378        16 no_description
    118.30    118.05    118.35  -999.125     0.300   103.060     0.667     0.333     0.124     0.062     0.810     0.996     0.378        16 no_description
    118.40    118.35    118.75  -999.125     0.400   102.230     0.685     0.315     0.096     0.044     0.856     0.996     0.302        17 no_description
    118.50    118.35    118.75  -999.125     0.400   102.230     0.685     0.315     0.096     0.044     0.856     0.996     0.302        17 no_description
    118.60    118.35    118.75  -999.125     0.400   102.230     0.685     0.315     0.096     0.044     0.856     0.996     0.302        17 no_description
    118.70    118.35    118.75  -999.125     0.400   102.230     0.685     0.315     0.096     0.044     0.856     0.996     0.302        17 no_description
    118.80    118.75    119.10  -999.125     0.350   102.620     0.788     0.212     0.117     0.032     0.848     0.997     0.318        18 no_description
    118.90    118.75    119.10  -999.125     0.350   102.620     0.788     0.212     0.117     0.032     0.848     0.997     0.318        18 no_description
    119.00    118.75    119.10  -999.125     0.350   102.620     0.788     0.212     0.117     0.032     0.848     0.997     0.318        18 no_description
    119.10    118.75    119.10  -999.125     0.350   102.620     0.788     0.212     0.117     0.032     0.848     0.997     0.318        18 no_description
    119.20    119.10    119.50  -999.125     0.400   102.850     0.661     0.339     0.087     0.045     0.865     0.997     0.287        19 no_description
    119.30    119.10    119.50  -999.125     0.400   102.850     0.661     0.339     0.087     0.045     0.865     0.997     0.287        19 no_description
    119.40    119.10    119.50  -999.125     0.400   102.850     0.661     0.339     0.087     0.045     0.865     0.997     0.287        19 no_description
    119.50    119.10    119.50  -999.125     0.400   102.850     0.661     0.339     0.087     0.045     0.865     0.997     0.287        19 no_description
    119.60    119.50    119.85  -999.125     0.350   101.240     0.695     0.305     0.099     0.043     0.854     0.996     0.306        20 no_description
    119.70    119.50    119.85  -999.125     0.350   101.240     0.695     0.305     0.099     0.043     0.854     0.996     0.306        20 no_description
    119.80    119.50    119.85  -999.125     0.350   101.240     0.695     0.305     0.099     0.043     0.854     0.996     0.306        20 no_description
    119.90    119.85    120.25  -999.125     0.400   101.850     0.413     0.587     0.049     0.070     0.877     0.996     0.264        21 no_description
    120.00    119.85    120.25  -999.125     0.400   101.850     0.413     0.587     0.049     0.070     0.877     0.996     0.264        21 no_description
    120.10    119.85    120.25  -999.125     0.400   101.850     0.413     0.587     0.049     0.070     0.877     0.996     0.264        21 no_description
    120.20    119.85    120.25  -999.125     0.400   101.850     0.413     0.587     0.049     0.070     0.877     0.996     0.264        21 no_description
    120.30    120.25    120.60  -999.125     0.350   102.520     0.355     0.645     0.036     0.066     0.895     0.997     0.232        22 no_description
    120.40    120.25    120.60  -999.125     0.350   102.520     0.355     0.645     0.036     0.066     0.895     0.997     0.232        22 no_description
    120.50    120.25    120.60  -999.125     0.350   102.520     0.355     0.645     0.036     0.066     0.895     0.997     0.232        22 no_description
    120.60    120.25    120.60  -999.125     0.350   102.520     0.355     0.645     0.036     0.066     0.895     0.997     0.232        22 no_description
    120.70    120.60    120.80  -999.125     0.200   102.640     0.220     0.780     0.025     0.090     0.881     0.996     0.257        23 no_description
    120.80    120.60    120.80  -999.125     0.200   102.640     0.220     0.780     0.025     0.090     0.881     0.996     0.257        23 no_description
    120.90    120.80    121.10  -999.125     0.300   102.670     0.411     0.589     0.047     0.067     0.881     0.995     0.256        24 no_description
    121.00    120.80    121.10  -999.125     0.300   102.670     0.411     0.589     0.047     0.067     0.881     0.995     0.256        24 no_description
    121.10    120.80    121.10  -999.125     0.300   102.670     0.411     0.589     0.047     0.067     0.881     0.995     0.256        24 no_description
