~VERSION INFORMATION
 VERS.                 2.0:   CWLS LOG ASCII STANDARD - VERSION 2.0
 WRAP.                  NO:   ONE LINE PER DEPTH STEP
~WELL INFORMATION BLOCK
#MNEM.UNIT    DATA                         DESCRIPTION OF MNEMONIC
#---------  ---------------------------    -----------------------
 STRT.M           105.60          : START DEPTH
 STOP.M           184.20          : STOP DEPTH
 STEP.M             0.10          : STEP VALUE
 NULL.           -999.125         : NULL VALUE
 COMP.       SUNCOR ENERGY RESOURCES PARTNERSHIP: COMPANY
 WELL.       SUNCOR LEWIS 1-33-92-8             : WELL
 FLD .       NOT AVAILABLE                      : FIELD
 LOC.        1AA013309208W400                   : LOCATION
 PROV.                                          : PROVINCE
 SRVC.       AGAT LABORATORIES                  : SERVICE COMPANY
 DATE.       18/01/2016                         : DATE
 UWI .       1AA013309208W400                   : UNIQUE WELL ID
 WNUM.       RC25771                            : WORK ORDER NUMBER
 FRM .       MCMURRAY                           : FORMATION
 REC .M      72.80                              : RECOVERY
 INT .M      105.60-184.20                      : CORED INTERVAL
 DFLD.       WATER BASED MUD                    : DRILLING FLUID
 KB  .       0                                  : KB ELEVATION
 GRD .       0                                  : GRD ELEVATION
~CURVE INFORMATION BLOCK
 DEPT.M                  :    1        DEPTH
 TOP.INTERVAL            :    2        SAMPLE TOP DEPTH
 BOTTOM.INTERVAL         :    3        SAMPLE BOTTOM DEPTH
 SPLTH.M                 :    4        SAMPLE LENGTH
 REPTH.M                 :    5        REP THICKNESS
 INT_WOS.grams           :    6        INITIAL WEIGHT OF SAMPLE
 PV_SO.V/V               :    7        OIL SATURATION
 PV_SW.V/V               :    8        WATER SATURATION
 BMF_SO.W/W              :    9        BULK MASS FRACTION OIL SATURATION
 BMF_SW.W/W              :    10       BULK MASS FRACTION WATER SATURATION
 BMF_MIN.W/W             :    11       BULK MASS FRACTION MINERAL
 CUM_SUM.W/W             :    12       CUMLATED SUMMARY
 CALC_PHI.V/V            :    13       CALCULATED POROSITY
 SMPNO.TXT               :    14       SAMPLE NUMBER
 DESC.TXT                :    15       SAMPLE DESCRIPTION
~A    DEPT       TOP    BOTTOM     SPLTH     REPTH   INT_WOS     PV_SO     PV_SW    BMF_SO    BMF_SW   BMF_MIN   CUM_SUM  CALC_PHI     SMPNO      DESC
# ...
    131.60    131.50    131.85  -999.125     0.350   101.660     0.422     0.578     0.067     0.092     0.836     0.995     0.336        58 no_description
    131.70    131.50    131.85  -999.125     0.350   101.660     0.422     0.578     0.067     0.092     0.836     0.995     0.336        58 no_description
    131.80    131.50    131.85  -999.125     0.350   101.660     0.422     0.578     0.067     0.092     0.836     0.995     0.336        58 no_description
    131.90    131.85    132.10  -999.125     0.250   102.040     0.663     0.337     0.116     0.059     0.821     0.996     0.362        59 no_description
    132.00    131.85    132.10  -999.125     0.250   102.040     0.663     0.337     0.116     0.059     0.821     0.996     0.362        59 no_description
    132.10    131.85    132.10  -999.125     0.250   102.040     0.663     0.337     0.116     0.059     0.821     0.996     0.362        59 no_description
    132.20    132.10    132.35  -999.125     0.250   101.690     0.513     0.487     0.088     0.083     0.826     0.997     0.354        60 no_description
    132.30    132.10    132.35  -999.125     0.250   101.690     0.513     0.487     0.088     0.083     0.826     0.997     0.354        60 no_description
    132.40    132.35    132.60  -999.125     0.250   102.400     0.434     0.566     0.059     0.077     0.859     0.995     0.296        61 no_description
    132.50    132.35    132.60  -999.125     0.250   102.400     0.434     0.566     0.059     0.077     0.859     0.995     0.296        61 no_description
    132.60    132.35    132.60  -999.125     0.250   102.400     0.434     0.566     0.059     0.077     0.859     0.995     0.296        61 no_description
    132.70    132.60    132.90  -999.125     0.300   101.490     0.698     0.302     0.121     0.053     0.825     0.999     0.358        62 no_description
    132.80    132.60    132.90  -999.125     0.300   101.490     0.698     0.302     0.121     0.053     0.825     0.999     0.358        62 no_description
    132.90    132.60    132.90  -999.125     0.300   101.490     0.698     0.302     0.121     0.053     0.825     0.999     0.358        62 no_description
    133.00    132.90    133.20  -999.125     0.300   101.950     0.672     0.328     0.114     0.056     0.830     1.000     0.351        63 no_description
    133.10    132.90    133.20  -999.125     0.300   101.950     0.672     0.328     0.114     0.056     0.830     1.000     0.351        63 no_description
    133.20    132.90    133.20  -999.125     0.300   101.950     0.672     0.328     0.114     0.056     0.830     1.000     0.351        63 no_description
    133.30    133.20    133.60  -999.125     0.400   102.550     0.741     0.259     0.131     0.046     0.822     0.999     0.363        64 no_description
    133.40    133.20    133.60  -999.125     0.400   102.550     0.741     0.259     0.131     0.046     0.822     0.999     0.363        64 no_description
    133.50    133.20    133.60  -999.125     0.400   102.550     0.741     0.259     0.131     0.046     0.822     0.999     0.363        64 no_description
    133.60    133.20    133.60  -999.125     0.400   102.550     0.741     0.259     0.131     0.046     0.822     0.999     0.363        64 no_description
    133.70    133.60    133.95  -999.125     0.350   101.970     0.720     0.280     0.122     0.047     0.830     0.999     0.351        65 no_description
    133.80    133.60    133.95  -999.125     0.350   101.970     0.720     0.280     0.122     0.047     0.830     0.999     0.351        65 no_description
    133.90    133.60    133.95  -999.125     0.350   101.970     0.720     0.280     0.122     0.047     0.830     0.999     0.351        65 no_description
    134.00    133.95    134.35  -999.125     0.400   102.430     0.809     0.191     0.137     0.033     0.828     0.998     0.352        66 no_description
    134.10    133.95    134.35  -999.125     0.400   102.430     0.809     0.191     0.137     0.033     0.828     0.998     0.352        66 no_description
    134.20    133.95    134.35  -999.125     0.400   102.430     0.809     0.191     0.137     0.033     0.828     0.998     0.352        66 no_description
    134.30    133.95    134.35  -999.125     0.400   102.430     0.809     0.191     0.137     0.033     0.828     0.998     0.352        66 no_description
    134.40    134.35    134.70  -999.125     0.350   101.290     0.652     0.348     0.113     0.061     0.822     0.996     0.359        67 no_description
    134.50    134.35    134.70  -999.125     0.350   101.290     0.652     0.348     0.113     0.061     0.822     0.996     0.359        67 no_description
    134.60    134.35    134.70  -999.125     0.350   101.290     0.652     0.348     0.113     0.061     0.822     0.996     0.359        67 no_description
    134.70    134.35    134.70  -999.125     0.350   101.290     0.652     0.348     0.113     0.061     0.822     0.996     0.359        67 no_description
    134.80    134.70    135.05  -999.125     0.350   101.020     0.792     0.208     0.131     0.034     0.830     0.995     0.346        68 no_description
    134.90    134.70    135.05  -999.125     0.350   101.020     0.792     0.208     0.131     0.034     0.830     0.995     0.346        68 no_description
    135.00    134.70    135.05  -999.125     0.350   101.020     0.792     0.208     0.131     0.034     0.830     0.995     0.346        68 no_description
    135.10    135.05    135.40  -999.125     0.350   102.880     0.814     0.186     0.140     0.032     0.826     0.998     0.355        69 no_description
    135.20    135.05    135.40  -999.125     0.350   102.880     0.814     0.186     0.140     0.032     0.826     0.998     0.355        69 no_description
    135.30    135.05    135.40  -999.125     0.350   102.880     0.814     0.186     0.140     0.032     0.826     0.998     0.355        69 no_description
    135.40    135.05    135.40  -999.125     0.350   102.880     0.814     0.186     0.140     0.032     0.826     0.998     0.355        69 no_description
    135.50    135.40    135.80  -999.125     0.400   101.740     0.558     0.442     0.096     0.076     0.825     0.997     0.357        70 no_description
    135.60    135.40    135.80  -999.125     0.400   101.740     0.558     0.442     0.096     0.076     0.825     0.997     0.357        70 no_description
    135.70    135.40    135.80  -999.125     0.400   101.740     0.558     0.442     0.096     0.076     0.825     0.997     0.357        70 no_description
    135.80    135.40    135.80  -999.125     0.400   101.740     0.558     0.442     0.096     0.076     0.825     0.997     0.357        70 no_description
    135.90    135.80    136.15  -999.125     0.350   101.610     0.219     0.781     0.035     0.126     0.834     0.995     0.339        71 no_description
    136.00    135.80    136.15  -999.125     0.350   101.610     0.219     0.781     0.035     0.126     0.834     0.995     0.339        71 no_description
    136.10    135.80    136.15  -999.125     0.350   101.610     0.219     0.781     0.035     0.126     0.834     0.995     0.339        71 no_description
    136.20    136.15    136.40  -999.125     0.250   102.370     0.185     0.815     0.025     0.110     0.861     0.996     0.294        72 no_description
    136.30    136.15    136.40  -999.125     0.250   102.370     0.185     0.815     0.025     0.110     0.861     0.996     0.294        72 no_description
    136.40    136.15    136.40  -999.125     0.250   102.370     0.185     0.815     0.025     0.110     0.861     0.996     0.294        72 no_description
    136.50    136.40    136.65  -999.125     0.250   101.560     0.427     0.573     0.062     0.083     0.850     0.995     0.311        73 no_description
    136.60    136.40    136.65  -999.125     0.250   101.560     0.427     0.573     0.062     0.083     0.850     0.995     0.311        73 no_description
    136.70    136.65    136.90  -999.125     0.250   101.320     0.414     0.586     0.061     0.087     0.847     0.995     0.317        74 no_description
