~VERSION INFORMATION
 VERS.                 2.0:   CWLS LOG ASCII STANDARD - VERSION 2.0
 WRAP.                  NO:   ONE LINE PER DEPTH STEP
~WELL INFORMATION BLOCK
#MNEM.UNIT    DATA                         DESCRIPTION OF MNEMONIC
#---------  ---------------------------    -----------------------
 STRT.M           105.60          : START DEPTH
 STOP.M           184.20          : STOP DEPTH
 STEP.M             0.10          : STEP VALUE
 NULL.           -999.125         : NULL VALUE
 COMP.       SUNCOR ENERGY RESOURCES PARTNERSHIP: COMPANY
 WELL.       SUNCOR LEWIS 1-33-92-8             : WELL
 FLD .       NOT AVAILABLE                      : FIELD
 LOC.        1AA013309208W400                   : LOCATION
 PROV.                                          : PROVINCE
 SRVC.       AGAT LABORATORIES                  : SERVICE COMPANY
 DATE.       18/01/2016                         : DATE
 UWI .       1AA013309208W400                   : UNIQUE WELL ID
 WNUM.       RC25771                            : WORK ORDER NUMBER
 FRM .       MCMURRAY                           : FORMATION
 REC .M      72.80                              : RECOVERY
 INT .M      105.60-184.20                      : CORED INTERVAL
 DFLD.       WATER BASED MUD                    : DRILLING FLUID
 KB  .       0                                  : KB ELEVATION
 GRD .       0                                  : GRD ELEVATION
~CURVE INFORMATION BLOCK
 DEPT.M                  :    1        DEPTH
 TOP.INTERVAL            :    2        SAMPLE TOP DEPTH
 BOTTOM.INTERVAL         :    3        SAMPLE BOTTOM DEPTH
 SPLTH.M                 :    4        SAMPLE LENGTH
 REPTH.M                 :    5        REP THICKNESS
 INT_WOS.grams           :    6        INITIAL WEIGHT OF SAMPLE
 PV_SO.V/V               :    7        OIL SATURATION
 PV_SW.V/V               :    8        WATER SATURATION
 BMF_SO.W/W              :    9        BULK MASS FRACTION OIL SATURATION
 BMF_SW.W/W              :    10       BULK MASS FRACTION WATER SATURATION
 BMF_MIN.W/W             :    11       BULK MASS FRACTION MINERAL
 CUM_SUM.W/W             :    12       CUMLATED SUMMARY
 CALC_PHI.V/V            :    13       CALCULATED POROSITY
 SMPNO.TXT               :    14       SAMPLE NUMBER
 DESC.TXT                :    15       SAMPLE DESCRIPTION
~A    DEPT       TOP    BOTTOM     SPLTH     REPTH   INT_WOS     PV_SO     PV_SW    BMF_SO    BMF_SW   BMF_MIN   CUM_SUM  CALC_PHI     SMPNO      DESC
# ...
    121.20    121.10    121.45  -999.125     0.350   101.640     0.389     0.611     0.050     0.079     0.868     0.997     0.283        25 no_description
    121.30    121.10    121.45  -999.125     0.350   101.640     0.389     0.611     0.050     0.079     0.868     0.997     0.283        25 no_description
    121.40    121.10    121.45  -999.125     0.350   101.640     0.389     0.611     0.050     0.079     0.868     0.997     0.283        25 no_description
    121.50    121.45    121.75  -999.125     0.300   102.340     0.306     0.694     0.031     0.070     0.896     0.997     0.230        26 no_description
    121.60    121.45    121.75  -999.125     0.300   102.340     0.306     0.694     0.031     0.070     0.896     0.997     0.230        26 no_description
    121.70    121.45    121.75  -999.125     0.300   102.340     0.306     0.694     0.031     0.070     0.896     0.997     0.230        26 no_description
    121.80    121.75    122.10  -999.125     0.350   104.290     0.319     0.681     0.035     0.074     0.886     0.995     0.245        27 no_description
    121.90    121.75    122.10  -999.125     0.350   104.290     0.319     0.681     0.035     0.074     0.886     0.995     0.245        27 no_description
    122.00    121.75    122.10  -999.125     0.350   104.290     0.319     0.681     0.035     0.074     0.886     0.995     0.245        27 no_description
    122.10    121.75    122.10  -999.125     0.350   104.290     0.319     0.681     0.035     0.074     0.886     0.995     0.245        27 no_description
    122.20    122.10    122.45  -999.125     0.350   103.340     0.337     0.663     0.036     0.072     0.889     0.997     0.243        28 no_description
    122.30    122.10    122.45  -999.125     0.350   103.340     0.337     0.663     0.036     0.072     0.889     0.997     0.243        28 no_description
    122.40    122.10    122.45  -999.125     0.350   103.340     0.337     0.663     0.036     0.072     0.889     0.997     0.243        28 no_description
    122.50    122.45    122.85  -999.125     0.400   100.510     0.377     0.623     0.043     0.071     0.881     0.995     0.255        29 no_description
    122.60    122.45    122.85  -999.125     0.400   100.510     0.377     0.623     0.043     0.071     0.881     0.995     0.255        29 no_description
    122.70    122.45    122.85  -999.125     0.400   100.510     0.377     0.623     0.043     0.071     0.881     0.995     0.255        29 no_description
    122.80    122.45    122.85  -999.125     0.400   100.510     0.377     0.623     0.043     0.071     0.881     0.995     0.255        29 no_description
    122.90    122.85    123.20  -999.125     0.350   102.940     0.372     0.628     0.058     0.098     0.841     0.997     0.329        30 no_description
    123.00    122.85    123.20  -999.125     0.350   102.940     0.372     0.628     0.058     0.098     0.841     0.997     0.329        30 no_description
    123.10    122.85    123.20  -999.125     0.350   102.940     0.372     0.628     0.058     0.098     0.841     0.997     0.329        30 no_description
    123.20    122.85    123.20  -999.125     0.350   102.940     0.372     0.628     0.058     0.098     0.841     0.997     0.329        30 no_description
    123.30    123.20    123.55  -999.125     0.350   101.370     0.529     0.471     0.060     0.053     0.883     0.996     0.253        31 no_description
    123.40    123.20    123.55  -999.125     0.350   101.370     0.529     0.471     0.060     0.053     0.883     0.996     0.253        31 no_description
    123.50    123.20    123.55  -999.125     0.350   101.370     0.529     0.471     0.060     0.053     0.883     0.996     0.253        31 no_description
    123.60    123.55    123.80  -999.125     0.250   101.790     0.522     0.478     0.072     0.066     0.860     0.998     0.298        32 no_description
    123.70    123.55    123.80  -999.125     0.250   101.790     0.522     0.478     0.072     0.066     0.860     0.998     0.298        32 no_description
    123.80    123.55    123.80  -999.125     0.250   101.790     0.522     0.478     0.072     0.066     0.860     0.998     0.298        32 no_description
    123.90    123.80    124.05  -999.125     0.250   101.560     0.628     0.372     0.091     0.054     0.850     0.995     0.312        33 no_description
    124.00    123.80    124.05  -999.125     0.250   101.560     0.628     0.372     0.091     0.054     0.850     0.995     0.312        33 no_description
    124.10    124.05    124.30  -999.125     0.250   102.240     0.446     0.554     0.068     0.084     0.845     0.997     0.323        34 no_description
    124.20    124.05    124.30  -999.125     0.250   102.240     0.446     0.554     0.068     0.084     0.845     0.997     0.323        34 no_description
    124.30    124.05    124.30  -999.125     0.250   102.240     0.446     0.554     0.068     0.084     0.845     0.997     0.323        34 no_description
    124.40    124.30    124.65  -999.125     0.350   103.030     0.488     0.512     0.079     0.083     0.834     0.996     0.340        35 no_description
    124.50    124.30    124.65  -999.125     0.350   103.030     0.488     0.512     0.079     0.083     0.834     0.996     0.340        35 no_description
    124.60    124.30    124.65  -999.125     0.350   103.030     0.488     0.512     0.079     0.083     0.834     0.996     0.340        35 no_description
    124.70    124.65    125.05  -999.125     0.400   103.730     0.702     0.298     0.111     0.047     0.837     0.995     0.334        36 no_description
    124.80    124.65    125.05  -999.125     0.400   103.730     0.702     0.298     0.111     0.047     0.837     0.995     0.334        36 no_description
    124.90    124.65    125.05  -999.125     0.400   103.730     0.702     0.298     0.111     0.047     0.837     0.995     0.334        36 no_description
    125.00    124.65    125.05  -999.125     0.400   103.730     0.702     0.298     0.111     0.047     0.837     0.995     0.334        36 no_description
    125.10    125.05    125.40  -999.125     0.350   103.460     0.729     0.271     0.111     0.041     0.843     0.995     0.324        37 no_description
    125.20    125.05    125.40  -999.125     0.350   103.460     0.729     0.271     0.111     0.041     0.843     0.995     0.324        37 no_description
    125.30    125.05    125.40  -999.125     0.350   103.460     0.729     0.271     0.111     0.041     0.843     0.995     0.324        37 no_description
    125.40    125.05    125.40  -999.125     0.350   103.460     0.729     0.271     0.111     0.041     0.843     0.995     0.324        37 no_description
    125.50    125.40    125.75  -999.125     0.350   102.860     0.644     0.356     0.095     0.053     0.849     0.997     0.316        38 no_description
    125.60    125.40    125.75  -999.125     0.350   102.860     0.644     0.356     0.095     0.053     0.849     0.997     0.316        38 no_description
    125.70    125.40    125.75  -999.125     0.350   102.860     0.644     0.356     0.095     0.053     0.849     0.997     0.316        38 no_description
    125.80    125.75    126.00  -999.125     0.250   100.970     0.325     0.675     0.044     0.091     0.861     0.996     0.294        39 no_description
    125.90    125.75    126.00  -999.125     0.250   100.970     0.325     0.675     0.044     0.091     0.861     0.996     0.294        39 no_description
    126.00    125.75    126.00  -999.125     0.250   100.970     0.325     0.675     0.044     0.091     0.861     0.996     0.294        39 no_description
    126.10    126.00    126.25  -999.125     0.250   104.330     0.228     0.772     0.028     0.093     0.876     0.997     0.268        40 no_description
    126.20    126.00    126.25  -999.125     0.250   104.330     0.228     0.772     0.028     0.093     0.876     0.997     0.268        40 no_description
    126.30    126.25    126.50  -999.125     0.250   101.540     0.328     0.672     0.047     0.096     0.853     0.996     0.308        41 no_description
