~VERSION INFORMATION
 VERS.                 2.0:   CWLS LOG ASCII STANDARD - VERSION 2.0
 WRAP.                  NO:   ONE LINE PER DEPTH STEP
~WELL INFORMATION BLOCK
#MNEM.UNIT    DATA                         DESCRIPTION OF MNEMONIC
#---------  ---------------------------    -----------------------
 STRT.M           105.60          : START DEPTH
 STOP.M           184.20          : STOP DEPTH
 STEP.M             0.10          : STEP VALUE
 NULL.           -999.125         : NULL VALUE
 COMP.       SUNCOR ENERGY RESOURCES PARTNERSHIP: COMPANY
 WELL.       SUNCOR LEWIS 1-33-92-8             : WELL
 FLD .       NOT AVAILABLE                      : FIELD
 LOC.        1AA013309208W400                   : LOCATION
 PROV.                                          : PROVINCE
 SRVC.       AGAT LABORATORIES                  : SERVICE COMPANY
 DATE.       18/01/2016                         : DATE
 UWI .       1AA013309208W400                   : UNIQUE WELL ID
 WNUM.       RC25771                            : WORK ORDER NUMBER
 FRM .       MCMURRAY                           : FORMATION
 REC .M      72.80                              : RECOVERY
 INT .M      105.60-184.20                      : CORED INTERVAL
 DFLD.       WATER BASED MUD                    : DRILLING FLUID
 KB  .       0                                  : KB ELEVATION
 GRD .       0                                  : GRD ELEVATION
~CURVE INFORMATION BLOCK
 DEPT.M                  :    1        DEPTH
 TOP.INTERVAL            :    2        SAMPLE TOP DEPTH
 BOTTOM.INTERVAL         :    3        SAMPLE BOTTOM DEPTH
 SPLTH.M                 :    4        SAMPLE LENGTH
 REPTH.M                 :    5        REP THICKNESS
 INT_WOS.grams           :    6        INITIAL WEIGHT OF SAMPLE
 PV_SO.V/V               :    7        OIL SATURATION
 PV_SW.V/V               :    8        WATER SATURATION
 BMF_SO.W/W              :    9        BULK MASS FRACTION OIL SATURATION
 BMF_SW.W/W              :    10       BULK MASS FRACTION WATER SATURATION
 BMF_MIN.W/W             :    11       BULK MASS FRACTION MINERAL
 CUM_SUM.W/W             :    12       CUMLATED SUMMARY
 CALC_PHI.V/V            :    13       CALCULATED POROSITY
 SMPNO.TXT               :    14       SAMPLE NUMBER
 DESC.TXT                :    15       SAMPLE DESCRIPTION
~A    DEPT       TOP    BOTTOM     SPLTH     REPTH   INT_WOS     PV_SO     PV_SW    BMF_SO    BMF_SW   BMF_MIN   CUM_SUM  CALC_PHI     SMPNO      DESC
# ...
    126.40    126.25    126.50  -999.125     0.250   101.540     0.328     0.672     0.047     0.096     0.853     0.996     0.308        41 no_description
    126.50    126.25    126.50  -999.125     0.250   101.540     0.328     0.672     0.047     0.096     0.853     0.996     0.308        41 no_description
    126.60    126.50    126.80  -999.125     0.300   101.780     0.290     0.710     0.040     0.097     0.858     0.995     0.297        42 no_description
    126.70    126.50    126.80  -999.125     0.300   101.780     0.290     0.710     0.040     0.097     0.858     0.995     0.297        42 no_description
    126.80    126.50    126.80  -999.125     0.300   101.780     0.290     0.710     0.040     0.097     0.858     0.995     0.297        42 no_description
    126.90    126.80    127.15  -999.125     0.350   100.170     0.194     0.806     0.022     0.092     0.882     0.996     0.256        43 no_description
    127.00    126.80    127.15  -999.125     0.350   100.170     0.194     0.806     0.022     0.092     0.882     0.996     0.256        43 no_description
    127.10    126.80    127.15  -999.125     0.350   100.170     0.194     0.806     0.022     0.092     0.882     0.996     0.256        43 no_description
    127.20    127.15    127.45  -999.125     0.300   100.980     0.222     0.778     0.031     0.108     0.857     0.996     0.300        44 no_description
    127.30    127.15    127.45  -999.125     0.300   100.980     0.222     0.778     0.031     0.108     0.857     0.996     0.300        44 no_description
    127.40    127.15    127.45  -999.125     0.300   100.980     0.222     0.778     0.031     0.108     0.857     0.996     0.300        44 no_description
    127.50    127.45    127.70  -999.125     0.250   102.650     0.207     0.793     0.025     0.096     0.876     0.997     0.268        45 no_description
    127.60    127.45    127.70  -999.125     0.250   102.650     0.207     0.793     0.025     0.096     0.876     0.997     0.268        45 no_description
    127.70    127.45    127.70  -999.125     0.250   102.650     0.207     0.793     0.025     0.096     0.876     0.997     0.268        45 no_description
    127.80    127.70    127.90  -999.125     0.200   100.760     0.204     0.796     0.026     0.102     0.869     0.997     0.280        46 no_description
    127.90    127.70    127.90  -999.125     0.200   100.760     0.204     0.796     0.026     0.102     0.869     0.997     0.280        46 no_description
    128.00    127.90    128.05  -999.125  -999.125  -999.125  -999.125  -999.125  -999.125  -999.125  -999.125  -999.125  -999.125        NA no_description
    128.10    128.05    128.30  -999.125     0.250   103.240     0.273     0.727     0.041     0.109     0.847     0.997     0.320        47 no_description
    128.20    128.05    128.30  -999.125     0.250   103.240     0.273     0.727     0.041     0.109     0.847     0.997     0.320        47 no_description
    128.30    128.05    128.30  -999.125     0.250   103.240     0.273     0.727     0.041     0.109     0.847     0.997     0.320        47 no_description
    128.40    128.30    128.55  -999.125     0.250   101.170     0.379     0.621     0.049     0.079     0.871     0.999     0.280        48 no_description
    128.50    128.30    128.55  -999.125     0.250   101.170     0.379     0.621     0.049     0.079     0.871     0.999     0.280        48 no_description
    128.60    128.55    128.90  -999.125     0.350   102.460     0.586     0.414     0.098     0.069     0.830     0.997     0.347        49 no_description
    128.70    128.55    128.90  -999.125     0.350   102.460     0.586     0.414     0.098     0.069     0.830     0.997     0.347        49 no_description
    128.80    128.55    128.90  -999.125     0.350   102.460     0.586     0.414     0.098     0.069     0.830     0.997     0.347        49 no_description
    128.90    128.55    128.90  -999.125     0.350   102.460     0.586     0.414     0.098     0.069     0.830     0.997     0.347        49 no_description
    129.00    128.90    129.20  -999.125     0.300   101.680     0.604     0.396     0.090     0.059     0.847     0.996     0.317        50 no_description
    129.10    128.90    129.20  -999.125     0.300   101.680     0.604     0.396     0.090     0.059     0.847     0.996     0.317        50 no_description
    129.20    128.90    129.20  -999.125     0.300   101.680     0.604     0.396     0.090     0.059     0.847     0.996     0.317        50 no_description
    129.30    129.20    129.50  -999.125     0.300   101.770     0.347     0.653     0.056     0.105     0.835     0.996     0.338        51 no_description
    129.40    129.20    129.50  -999.125     0.300   101.770     0.347     0.653     0.056     0.105     0.835     0.996     0.338        51 no_description
    129.50    129.20    129.50  -999.125     0.300   101.770     0.347     0.653     0.056     0.105     0.835     0.996     0.338        51 no_description
    129.60    129.50    129.80  -999.125     0.300   102.310     0.464     0.536     0.073     0.084     0.839     0.996     0.331        52 no_description
    129.70    129.50    129.80  -999.125     0.300   102.310     0.464     0.536     0.073     0.084     0.839     0.996     0.331        52 no_description
    129.80    129.50    129.80  -999.125     0.300   102.310     0.464     0.536     0.073     0.084     0.839     0.996     0.331        52 no_description
    129.90    129.80    130.20  -999.125     0.400   101.830     0.323     0.677     0.043     0.089     0.864     0.996     0.288        53 no_description
    130.00    129.80    130.20  -999.125     0.400   101.830     0.323     0.677     0.043     0.089     0.864     0.996     0.288        53 no_description
    130.10    129.80    130.20  -999.125     0.400   101.830     0.323     0.677     0.043     0.089     0.864     0.996     0.288        53 no_description
    130.20    129.80    130.20  -999.125     0.400   101.830     0.323     0.677     0.043     0.089     0.864     0.996     0.288        53 no_description
    130.30    130.20    130.40  -999.125  -999.125  -999.125  -999.125  -999.125  -999.125  -999.125  -999.125  -999.125  -999.125        NA no_description
    130.40    130.20    130.40  -999.125  -999.125  -999.125  -999.125  -999.125  -999.125  -999.125  -999.125  -999.125  -999.125        NA no_description
    130.50    130.40    130.60  -999.125     0.200   102.140     0.543     0.457     0.075     0.063     0.858     0.996     0.297        54 no_description
    130.60    130.40    130.60  -999.125     0.200   102.140     0.543     0.457     0.075     0.063     0.858     0.996     0.297        54 no_description
    130.70    130.60    130.95  -999.125     0.350   102.960     0.686     0.314     0.115     0.053     0.830     0.998     0.348        55 no_description
    130.80    130.60    130.95  -999.125     0.350   102.960     0.686     0.314     0.115     0.053     0.830     0.998     0.348        55 no_description
    130.90    130.60    130.95  -999.125     0.350   102.960     0.686     0.314     0.115     0.053     0.830     0.998     0.348        55 no_description
    131.00    130.95    131.20  -999.125     0.250   102.060     0.724     0.276     0.120     0.046     0.834     1.000     0.344        56 no_description
    131.10    130.95    131.20  -999.125     0.250   102.060     0.724     0.276     0.120     0.046     0.834     1.000     0.344        56 no_description
    131.20    130.95    131.20  -999.125     0.250   102.060     0.724     0.276     0.120     0.046     0.834     1.000     0.344        56 no_description
    131.30    131.20    131.50  -999.125     0.300   102.860     0.751     0.249     0.128     0.042     0.829     0.999     0.352        57 no_description
    131.40    131.20    131.50  -999.125     0.300   102.860     0.751     0.249     0.128     0.042     0.829     0.999     0.352        57 no_description
    131.50    131.20    131.50  -999.125     0.300   102.860     0.751     0.249     0.128     0.042     0.829     0.999     0.352        57 no_description
