~VERSION INFORMATION
 VERS.                 2.0:   CWLS LOG ASCII STANDARD - VERSION 2.0
 WRAP.                  NO:   ONE LINE PER DEPTH STEP
~WELL INFORMATION BLOCK
#MNEM.UNIT    DATA                         DESCRIPTION OF MNEMONIC
#---------  ---------------------------    -----------------------
 STRT.M           105.60          : START DEPTH
 STOP.M           184.20          : STOP DEPTH
 STEP.M             0.10          : STEP VALUE
 NULL.           -999.125         : NULL VALUE
 COMP.       SUNCOR ENERGY RESOURCES PARTNERSHIP: COMPANY
 WELL.       SUNCOR LEWIS 1-33-92-8             : WELL
 FLD .       NOT AVAILABLE                      : FIELD
 LOC.        1AA013309208W400                   : LOCATION
 PROV.                                          : PROVINCE
 SRVC.       AGAT LABORATORIES                  : SERVICE COMPANY
 DATE.       18/01/2016                         : DATE
 UWI .       1AA013309208W400                   : UNIQUE WELL ID
 WNUM.       RC25771                            : WORK ORDER NUMBER
 FRM .       MCMURRAY                           : FORMATION
 REC .M      72.80                              : RECOVERY
 INT .M      105.60-184.20                      : CORED INTERVAL
 DFLD.       WATER BASED MUD                    : DRILLING FLUID
 KB  .       0                                  : KB ELEVATION
 GRD .       0                                  : GRD ELEVATION
~CURVE INFORMATION BLOCK
 DEPT.M                  :    1        DEPTH
 TOP.INTERVAL            :    2        SAMPLE TOP DEPTH
 BOTTOM.INTERVAL         :    3        SAMPLE BOTTOM DEPTH
 SPLTH.M                 :    4        SAMPLE LENGTH
 REPTH.M                 :    5        REP THICKNESS
 INT_WOS.grams           :    6        INITIAL WEIGHT OF SAMPLE
 PV_SO.V/V               :    7        OIL SATURATION
 PV_SW.V/V               :    8        WATER SATURATION
 BMF_SO.W/W              :    9        BULK MASS FRACTION OIL SATURATION
 BMF_SW.W/W              :    10       BULK MASS FRACTION WATER SATURATION
 BMF_MIN.W/W             :    11       BULK MASS FRACTION MINERAL
 CUM_SUM.W/W             :    12       CUMLATED SUMMARY
 CALC_PHI.V/V            :    13       CALCULATED POROSITY
 SMPNO.TXT               :    14       SAMPLE NUMBER
 DESC.TXT                :    15       SAMPLE DESCRIPTION
~A    DEPT       TOP    BOTTOM     SPLTH     REPTH   INT_WOS     PV_SO     PV_SW    BMF_SO    BMF_SW   BMF_MIN   CUM_SUM  CALC_PHI     SMPNO      DESC
# ...
    136.80    136.65    136.90  -999.125     0.250   101.320     0.414     0.586     0.061     0.087     0.847     0.995     0.317        74 no_description
    136.90    136.65    136.90  -999.125     0.250   101.320     0.414     0.586     0.061     0.087     0.847     0.995     0.317        74 no_description
    137.00    136.90    137.30  -999.125     0.400   102.420     0.738     0.262     0.129     0.046     0.824     0.999     0.360        75 no_description
    137.10    136.90    137.30  -999.125     0.400   102.420     0.738     0.262     0.129     0.046     0.824     0.999     0.360        75 no_description
    137.20    136.90    137.30  -999.125     0.400   102.420     0.738     0.262     0.129     0.046     0.824     0.999     0.360        75 no_description
    137.30    136.90    137.30  -999.125     0.400   102.420     0.738     0.262     0.129     0.046     0.824     0.999     0.360        75 no_description
    137.40    137.30    137.65  -999.125     0.350   102.770     0.718     0.282     0.117     0.046     0.835     0.998     0.342        76 no_description
    137.50    137.30    137.65  -999.125     0.350   102.770     0.718     0.282     0.117     0.046     0.835     0.998     0.342        76 no_description
    137.60    137.30    137.65  -999.125     0.350   102.770     0.718     0.282     0.117     0.046     0.835     0.998     0.342        76 no_description
    137.70    137.65    137.95  -999.125     0.300   101.280     0.652     0.348     0.127     0.068     0.803     0.998     0.392        77 no_description
    137.80    137.65    137.95  -999.125     0.300   101.280     0.652     0.348     0.127     0.068     0.803     0.998     0.392        77 no_description
    137.90    137.65    137.95  -999.125     0.300   101.280     0.652     0.348     0.127     0.068     0.803     0.998     0.392        77 no_description
    138.00    137.95    138.25  -999.125     0.300   101.250     0.666     0.334     0.118     0.059     0.821     0.998     0.364        78 no_description
    138.10    137.95    138.25  -999.125     0.300   101.250     0.666     0.334     0.118     0.059     0.821     0.998     0.364        78 no_description
    138.20    137.95    138.25  -999.125     0.300   101.250     0.666     0.334     0.118     0.059     0.821     0.998     0.364        78 no_description
    138.30    138.25    138.60  -999.125     0.350   102.580     0.434     0.566     0.059     0.077     0.861     0.997     0.295        79 no_description
    138.40    138.25    138.60  -999.125     0.350   102.580     0.434     0.566     0.059     0.077     0.861     0.997     0.295        79 no_description
    138.50    138.25    138.60  -999.125     0.350   102.580     0.434     0.566     0.059     0.077     0.861     0.997     0.295        79 no_description
    138.60    138.25    138.60  -999.125     0.350   102.580     0.434     0.566     0.059     0.077     0.861     0.997     0.295        79 no_description
    138.70    138.60    138.95  -999.125     0.350   103.060     0.703     0.297     0.120     0.051     0.824     0.995     0.354        80 no_description
    138.80    138.60    138.95  -999.125     0.350   103.060     0.703     0.297     0.120     0.051     0.824     0.995     0.354        80 no_description
    138.90    138.60    138.95  -999.125     0.350   103.060     0.703     0.297     0.120     0.051     0.824     0.995     0.354        80 no_description
    139.00    138.95    139.20  -999.125     0.250   102.330     0.311     0.689     0.046     0.103     0.847     0.996     0.318        81 no_description
    139.10    138.95    139.20  -999.125     0.250   102.330     0.311     0.689     0.046     0.103     0.847     0.996     0.318        81 no_description
    139.20    138.95    139.20  -999.125     0.250   102.330     0.311     0.689     0.046     0.103     0.847     0.996     0.318        81 no_description
    139.30    139.20    139.50  -999.125     0.300   102.980     0.394     0.606     0.052     0.080     0.863     0.995     0.289        82 no_description
    139.40    139.20    139.50  -999.125     0.300   102.980     0.394     0.606     0.052     0.080     0.863     0.995     0.289        82 no_description
    139.50    139.20    139.50  -999.125     0.300   102.980     0.394     0.606     0.052     0.080     0.863     0.995     0.289        82 no_description
    139.60    139.50    139.70  -999.125     0.200   101.020     0.653     0.347     0.122     0.065     0.810     0.997     0.380        83 no_description
    139.70    139.50    139.70  -999.125     0.200   101.020     0.653     0.347     0.122     0.065     0.810     0.997     0.380        83 no_description
    139.80    139.70    139.95  -999.125     0.250   103.640     0.419     0.581     0.064     0.089     0.843     0.996     0.325        84 no_description
    139.90    139.70    139.95  -999.125     0.250   103.640     0.419     0.581     0.064     0.089     0.843     0.996     0.325        84 no_description
    140.00    139.95    140.30  -999.125     0.350   102.850     0.776     0.224     0.140     0.040     0.815     0.995     0.370        85 no_description
    140.10    139.95    140.30  -999.125     0.350   102.850     0.776     0.224     0.140     0.040     0.815     0.995     0.370        85 no_description
    140.20    139.95    140.30  -999.125     0.350   102.850     0.776     0.224     0.140     0.040     0.815     0.995     0.370        85 no_description
    140.30    139.95    140.30  -999.125     0.350   102.850     0.776     0.224     0.140     0.040     0.815     0.995     0.370        85 no_description
    140.40    140.30    140.60  -999.125     0.300   102.930     0.695     0.305     0.131     0.058     0.807     0.996     0.382        86 no_description
    140.50    140.30    140.60  -999.125     0.300   102.930     0.695     0.305     0.131     0.058     0.807     0.996     0.382        86 no_description
    140.60    140.30    140.60  -999.125     0.300   102.930     0.695     0.305     0.131     0.058     0.807     0.996     0.382        86 no_description
    140.70    140.60    140.95  -999.125     0.350   103.950     0.630     0.370     0.113     0.066     0.817     0.996     0.368        87 no_description
    140.80    140.60    140.95  -999.125     0.350   103.950     0.630     0.370     0.113     0.066     0.817     0.996     0.368        87 no_description
    140.90    140.60    140.95  -999.125     0.350   103.950     0.630     0.370     0.113     0.066     0.817     0.996     0.368        87 no_description
    141.00    140.95    141.35  -999.125     0.400   101.960     0.829     0.171     0.153     0.032     0.813     0.998     0.376        88 no_description
    141.10    140.95    141.35  -999.125     0.400   101.960     0.829     0.171     0.153     0.032     0.813     0.998     0.376        88 no_description
    141.20    140.95    141.35  -999.125     0.400   101.960     0.829     0.171     0.153     0.032     0.813     0.998     0.376        88 no_description
    141.30    140.95    141.35  -999.125     0.400   101.960     0.829     0.171     0.153     0.032     0.813     0.998     0.376        88 no_description
    141.40    141.35    141.70  -999.125     0.350   103.070     0.750     0.250     0.146     0.049     0.805     1.000     0.390        89 no_description
    141.50    141.35    141.70  -999.125     0.350   103.070     0.750     0.250     0.146     0.049     0.805     1.000     0.390        89 no_description
    141.60    141.35    141.70  -999.125     0.350   103.070     0.750     0.250     0.146     0.049     0.805     1.000     0.390        89 no_description
    141.70    141.35    141.70  -999.125     0.350   103.070     0.750     0.250     0.146     0.049     0.805     1.000     0.390        89 no_description
    141.80    141.70    142.05  -999.125     0.350   103.440     0.748     0.252     0.150     0.050     0.797     0.997     0.400        90 no_description
    141.90    141.70    142.05  -999.125     0.350   103.440     0.748     0.252     0.150     0.050     0.797     0.997     0.400        90 no_description
