~Version
 VERS              .         2                             : CWLS LOG ASCII STANDARD - VERSION 2.0
 WRAP              .         NO                            : ONE LINE PER DEPTH STEP
 DLM               .         SPACE                         : DELIMITING CHARACTER(SPACE TAB OR COMMA)
~Well Information
#_______________________________________________________________________________
#
#PARAMETER_NAME    .UNIT     VALUE                         : DESCRIPTION
#_______________________________________________________________________________
STRT               .m        56.74727                      : First reference value
STOP               .m        182.3879                      : Last reference value
STEP               .m        0                             : Step increment
NULL               .         -999.25                       : Missing value
WELL               .         SUNCOR LEWIS 7-22-92-8        : Well name
FILE-ID            .         00001_STAR_RPT                                                   : 
FLD                .         UNDEFINED                     : 
FILE-NUMBER        .         1                             : 
WELL-NAME          .         SUNCOR LEWIS 7-22-92-8        : 
FILE-SET-NUMBER    .         51                            : 
SRC_UNIT           .         meters                        : 
PRODUCER-CODE      .         150                           : 
SRC_NAME           .         /dat1a/SUNCOR2016/CA003953/star_rpt.xtf: 
FILE-TYPE          .         EXCHANGE                      : 
VERSION            .         Access-5.49                   : 
NAME-SPACE-VERSION .         1                             : 
COMP               .         SUNCOR ENERGY INC             : 
FILE-SET-NAME      .         BAKERH                        : 
COMPANY            .         SUNCOR ENERGY INC             : 
ABSE_FVAL          .         -999.25                       : 
WN                 .         SUNCOR LEWIS 7-22-92-8        : 
NAME-SPACE-NAME    .         BAKERH                        : 
FIELD-NAME         .         UNDEFINED                     : 
CREATION-TIME      .         2016/1/16 16_45               : 
SRC_FILE           .         star_rpt.xtf                  : 
PRODUCER-NAME      .         ATLAS                         : 
HLD                .         IN MAKING INTERPRETATIONS OF LOGS OUR EMPLOYEES WILL GIVE CUSTOMER <_techsia_sc_>THE BENEFIT OF THEIR BEST JUDGEMENT. BUT SINCE ALL INTERPRETATIONS <_techsia_sc_>ARE OPINIONS BASED ON INFERENCES FROM ELECTRICAL OR OTHER <_techsia_sc_>MEASUREMENTS, WE CANNOT, AND WE DO NOT GUARANTEE THE ACCURACY OR <_techsia_sc_>CORRECTNESS OF ANY INTERPRETATION. WE SHALL NOT BE LIABLE OR <_techsia_sc_>RESPONSIBLE FOR ANY LOSS, COST, DAMAGES, OR EXPENSES WHATSOEVER <_techsia_sc_>INCURRED OR SUSTAINED BY THE CUSTOMER RESULTING FROM ANY <_techsia_sc_>INTERPRETATION MADE BY ANY OF OUR EMPLOYEES.: 
PRODUCT            .         WFM/eclips                    : 
PROGRAMS           .         Data Export                   : 
UWI                .         1AA072209208W400              : 
CTRY               .         CA                            : Two letter Internet country code
COUNTRY            .         CANADA                        : 
PROVINCE           .         Alberta                       : 
LATI               .Deg      57.0175 N                     : 
LONG               .W        -111.419 W                    : 
EREF               .m        440.70                        : 
DREF               .m        438.50                        : 
LSD                .         07                            : 
SEC                .         22                            : 
TWP                .         092                           : 
RGE                .         08W4                          : 
SON                .         003953J                       : 
LICENSE            .         0477502                       : 
EKB                .m        440.70                        : 
EGL                .m        438.50                        : 
Completion_date    .         16-Jan-2016                   : 
LOC                .                                       : 
DATE               .                                       : 
SRVC               .                                       : 
GDAT               .                                       : 
PROV               .                                       : 
LIC                .                                       : 
STAT               .                                       : 
CNTY               .                                       : 
API                .                                       : 
~Parameter Information Block
#_______________________________________________________________________________
#
#PARAMETER_NAME    .UNIT     VALUE                         : DESCRIPTION
#_______________________________________________________________________________
SET                .         Dip_All                       : 
REAL_CREATION_DATE .         Tue Jan 19 2016-16_48_55      : 
TLFamily_TDEP      .         Measured Depth                : 
TLFamily_Type      .         Dip Classification            : 
TLFamily_Quality   .         Dip Quality                   : 
TLFamily_Azimuth   .         True Dip Azimuth              : 
TLFamily_Dip_TRU   .         True Dip Inclination          : 
~Curve Information
#_______________________________________________________________________________
#
#LOGNAME           .UNIT     LOG_ID                        : DESCRIPTION
#_______________________________________________________________________________
TDEP               .m                                      :  
Azimuth            .dega                                   :  
Dip_TRU            .dega                                   :  
Quality            .unitless                               :  
Type               .unitless                               :  
~Ascii
# ...
173.3188   346.8827   2.477161   20         "Discontinuity Boundary"
173.3666   346.0435   1.835818   20         Bedding   
173.4452   339.8084   1.619383   20         Bedding   
173.5219   348.6058   2.199913   20         Bedding   
173.5802   347.7813   3.472891   20         Bedding   
173.6645   354.8027   3.427923   20         Bedding   
173.7283   311.713    2.669985   20         Bedding   
173.7934   323.3314   1.095575   20         Bedding   
173.8748   327.3844   1.062069   20         Bedding   
173.9285   342.3864   2.254944   20         Bedding   
173.9868   341.7922   2.902739   20         Bedding   
174.0466   335.4107   3.133993   20         Bedding   
174.1494   181.8009   5.388325   20         "Discontinuity Boundary"
174.2108   328.2532   22.68878   20         "Cross Bedding"
174.2537   321.0966   23.27612   20         "Cross Bedding"
174.2875   315.9918   20.56361   20         "Cross Bedding"
174.3304   320.9225   19.45538   20         "Cross Bedding"
174.3627   322.229    17.14958   20         "Cross Bedding"
174.4225   318.0375   19.08171   20         "Cross Bedding"
174.4539   320.6685   17.98499   20         "Cross Bedding"
174.4809   315.8402   18.008     20         "Cross Bedding"
174.5069   326.2849   4.505507   20         "Discontinuity Boundary"
174.6234   302.9492   42.28503   20         "Deformed Bed Boundary"
174.7861   237.7077   38.33331   20         "Deformed Bed Boundary"
174.9118   249.3507   27.19252   20         "Deformed Bed Boundary"
175.0346   22.10065   38.01286   20         "Deformed Bed Boundary"
175.1174   58.34083   28.33386   20         "Deformed Bed Boundary"
175.1813   66.43117   18.96892   20         "Deformed Bed Boundary"
175.2493   63.45249   11.33419   20         "Deformed Bed Boundary"
175.2997   68.87843   16.72231   20         "Deformed Bed Boundary"
175.3434   71.19334   12.54988   20         "Deformed Bed Boundary"
175.389    160.0709   15.85627   20         "Discontinuity Boundary"
175.4853   308.2954   26.04088   20         Bedding   
175.5267   292.609    27.15055   20         Bedding   
175.5773   291.1634   25.61842   20         Bedding   
175.631    282.5829   28.15038   20         Bedding   
175.7      265.447    26.78055   20         Bedding   
175.7905   252.753    20.63814   20         Bedding   
175.8396   252.6553   23.89758   20         Bedding   
175.8749   244.0738   23.83604   20         Bedding   
175.9194   238.341    23.78903   20         Bedding   
175.993    248.2736   26.44235   20         Bedding   
176.0652   255.463    24.9059    20         Bedding   
176.1081   264.1014   22.24458   20         Bedding   
176.1496   237.0342   8.055437   20         "Discontinuity Boundary"
176.1956   237.8737   6.217917   20         Bedding   
176.2646   277.0685   5.100794   20         Bedding   
176.3061   282.2066   3.843575   20         Bedding   
176.372    314.3361   10.01283   20         Bedding   
176.461    207.2208   0.3468244  20         Bedding   
176.504    184.4397   0.05262809 20         Bedding   
176.5623   205.0961   1.047922   20         Bedding   
176.6252   218.624    1.172632   20         Bedding   
176.6989   321.3649   0.622736   20         Bedding   
176.7464   175.237    0.2438958  20         Bedding   
176.794    216.9177   1.185976   20         Bedding   
176.8599   182.1731   0.6875994  20         Bedding   
176.9413   350.0967   1.154611   20         Bedding   
177.018    347.9354   0.9647905  20         Bedding   
177.0778   167.7544   0.2546453  20         Bedding   
177.1454   19.19952   1.393912   20         Bedding   
177.1837   20.73021   1.380443   20         Bedding   
177.2482   6.151157   0.7894216  20         Bedding   
177.3203   34.10556   3.235864   20         Bedding   
177.354    26.68683   1.328588   20         Bedding   
177.3954   46.83161   4.409785   20         Bedding   
177.4552   14.47914   0.7134444  20         Bedding   
177.5074   234.7386   1.965181   20         Bedding   
177.555    236.9545   1.117527   20         Bedding   
177.6148   29.90145   2.75292    20         Bedding   
177.6654   32.65191   3.175218   20         Bedding   
177.7084   6.986872   0.7451791  20         Bedding   
177.7483   357.1763   2.171507   20         Bedding   
177.7867   191.5908   4.19187    20         Bedding   
177.8219   353.715    0.8502973  20         Bedding   
177.9048   191.9198   1.435921   20         Bedding   
177.9692   338.752    1.897187   20         Bedding   
178.0015   17.0537    2.016768   20         Bedding   
178.0552   197.0391   2.292903   20         Bedding   
178.095    349.4494   3.090302   20         Bedding   
178.1687   341.8902   1.660475   20         Bedding   
178.2193   332.3064   1.064915   20         Bedding   
178.2884   353.846    3.820324   20         Bedding   
178.3329   170.5007   0.2583378  20         Bedding   
178.3727   355.713    2.851398   20         Bedding   
178.4142   185.5729   0.2538595  20         Bedding   
178.4924   341.6959   1.654514   20         Bedding   
178.5799   12.67774   2.039371   20         Bedding   
178.6489   12.39138   2.086802   20         Bedding   
178.6965   187.1575   0.8782912  20         Bedding   
178.7394   125.2786   0.1335728  20         Bedding   
178.7717   354.1669   2.21375    20         Bedding   
178.8085   340.7812   1.00514    20         Bedding   
178.8744   359.7142   2.824695   20         Bedding   
178.9174   353.0794   1.57268    20         Bedding   
178.9542   2.499001   2.794634   20         Bedding   
179.0049   1.093848   1.500629   20         Bedding   
179.0831   168.8009   0.2748357  20         Bedding   
179.143    237.659    0.6095154  20         Bedding   
179.1905   354.9713   2.423021   20         Bedding   
179.2565   306.7335   3.83739    20         Bedding   
179.2903   309.8333   1.91634    20         Bedding   
179.3393   319.9622   1.861881   20         Bedding   
179.4176   196.6242   1.65578    20         Bedding   
179.456    210.5137   1.103942   20         Bedding   
179.525    351.7517   1.772393   20         Bedding   
179.5972   184.4964   1.358929   20         Bedding   
179.6324   171.7523   3.832007   20         Bedding   
179.6861   179.9811   1.324181   20         Bedding   
179.7275   175.3898   0.7164315  20         Bedding   
179.7751   184.5228   1.368569   20         Bedding   
179.838    179.3801   0.7220765  20         Bedding   
179.8779   195.4131   0.0934193  20         Bedding   
179.9316   186.4077   2.220956   20         Bedding   
179.9914   183.8602   3.254079   20         Bedding   
180.0512   191.1931   3.322696   20         Bedding   
180.1095   191.187    3.328506   20         Bedding   
180.1647   193.18     2.725125   20         Bedding   
180.2338   162.6086   3.091171   20         Bedding   
180.2844   173.0578   0.5363325  20         Bedding   
180.3397   150.0869   2.37924    20         Bedding   
180.3873   254.714    0.4435068  20         Bedding   
180.4287   225.6863   3.65838    20         Bedding   
180.5054   202.1783   1.517065   20         Bedding   
180.5667   179.3443   0.2979364  20         Bedding   
180.6296   133.646    0.1916697  20         Bedding   
180.7171   331.9594   2.377431   20         Bedding   
180.8061   294.9893   0.6388115  20         Bedding   
180.889    189.7436   0.3081629  20         Bedding   
180.9672   184.6592   0.3009577  20         Bedding   
181.0485   190.6444   0.3110315  20         Bedding   
181.1038   298.7733   1.300939   20         Bedding   
181.1463   333.8226   1.963841   20         Bedding   
181.205    227.0116   0.2106675  20         Bedding   
181.2679   163.8157   0.6653718  20         Bedding   
181.3148   317.7954   2.730291   20         Bedding   
181.3738   306.9987   3.984067   20         Bedding   
181.4332   324.0825   2.68194    20         Bedding   
181.4842   310.0929   1.200388   20         Bedding   
181.5349   341.7607   2.232408   20         Bedding   
181.5886   340.4097   2.241303   20         Bedding   
181.6499   331.6299   1.66655    20         Bedding   
