~Version
 VERS              .         2                             : CWLS LOG ASCII STANDARD - VERSION 2.0
 WRAP              .         NO                            : ONE LINE PER DEPTH STEP
 DLM               .         SPACE                         : DELIMITING CHARACTER(SPACE TAB OR COMMA)
~Well Information
#_______________________________________________________________________________
#
#PARAMETER_NAME    .UNIT     VALUE                         : DESCRIPTION
#_______________________________________________________________________________
STRT               .m        56.74727                      : First reference value
STOP               .m        182.3879                      : Last reference value
STEP               .m        0                             : Step increment
NULL               .         -999.25                       : Missing value
WELL               .         SUNCOR LEWIS 7-22-92-8        : Well name
FILE-ID            .         00001_STAR_RPT                                                   : 
FLD                .         UNDEFINED                     : 
FILE-NUMBER        .         1                             : 
WELL-NAME          .         SUNCOR LEWIS 7-22-92-8        : 
FILE-SET-NUMBER    .         51                            : 
SRC_UNIT           .         meters                        : 
PRODUCER-CODE      .         150                           : 
SRC_NAME           .         /dat1a/SUNCOR2016/CA003953/star_rpt.xtf: 
FILE-TYPE          .         EXCHANGE                      : 
VERSION            .         Access-5.49                   : 
NAME-SPACE-VERSION .         1                             : 
COMP               .         SUNCOR ENERGY INC             : 
FILE-SET-NAME      .         BAKERH                        : 
COMPANY            .         SUNCOR ENERGY INC             : 
ABSE_FVAL          .         -999.25                       : 
WN                 .         SUNCOR LEWIS 7-22-92-8        : 
NAME-SPACE-NAME    .         BAKERH                        : 
FIELD-NAME         .         UNDEFINED                     : 
CREATION-TIME      .         2016/1/16 16_45               : 
SRC_FILE           .         star_rpt.xtf                  : 
PRODUCER-NAME      .         ATLAS                         : 
HLD                .         IN MAKING INTERPRETATIONS OF LOGS OUR EMPLOYEES WILL GIVE CUSTOMER <_techsia_sc_>THE BENEFIT OF THEIR BEST JUDGEMENT. BUT SINCE ALL INTERPRETATIONS <_techsia_sc_>ARE OPINIONS BASED ON INFERENCES FROM ELECTRICAL OR OTHER <_techsia_sc_>MEASUREMENTS, WE CANNOT, AND WE DO NOT GUARANTEE THE ACCURACY OR <_techsia_sc_>CORRECTNESS OF ANY INTERPRETATION. WE SHALL NOT BE LIABLE OR <_techsia_sc_>RESPONSIBLE FOR ANY LOSS, COST, DAMAGES, OR EXPENSES WHATSOEVER <_techsia_sc_>INCURRED OR SUSTAINED BY THE CUSTOMER RESULTING FROM ANY <_techsia_sc_>INTERPRETATION MADE BY ANY OF OUR EMPLOYEES.: 
PRODUCT            .         WFM/eclips                    : 
PROGRAMS           .         Data Export                   : 
UWI                .         1AA072209208W400              : 
CTRY               .         CA                            : Two letter Internet country code
COUNTRY            .         CANADA                        : 
PROVINCE           .         Alberta                       : 
LATI               .Deg      57.0175 N                     : 
LONG               .W        -111.419 W                    : 
EREF               .m        440.70                        : 
DREF               .m        438.50                        : 
LSD                .         07                            : 
SEC                .         22                            : 
TWP                .         092                           : 
RGE                .         08W4                          : 
SON                .         003953J                       : 
LICENSE            .         0477502                       : 
EKB                .m        440.70                        : 
EGL                .m        438.50                        : 
Completion_date    .         16-Jan-2016                   : 
LOC                .                                       : 
DATE               .                                       : 
SRVC               .                                       : 
GDAT               .                                       : 
PROV               .                                       : 
LIC                .                                       : 
STAT               .                                       : 
CNTY               .                                       : 
API                .                                       : 
~Parameter Information Block
#_______________________________________________________________________________
#
#PARAMETER_NAME    .UNIT     VALUE                         : DESCRIPTION
#_______________________________________________________________________________
SET                .         Dip_All                       : 
REAL_CREATION_DATE .         Tue Jan 19 2016-16_48_55      : 
TLFamily_TDEP      .         Measured Depth                : 
TLFamily_Type      .         Dip Classification            : 
TLFamily_Quality   .         Dip Quality                   : 
TLFamily_Azimuth   .         True Dip Azimuth              : 
TLFamily_Dip_TRU   .         True Dip Inclination          : 
~Curve Information
#_______________________________________________________________________________
#
#LOGNAME           .UNIT     LOG_ID                        : DESCRIPTION
#_______________________________________________________________________________
TDEP               .m                                      :  
Azimuth            .dega                                   :  
Dip_TRU            .dega                                   :  
Quality            .unitless                               :  
Type               .unitless                               :  
~Ascii
# ...
105.6968   325.3184   4.128193   20         Bedding   
105.7494   327.3661   2.17884    20         Bedding   
105.8901   310.2946   3.65184    20         Bedding   
105.9365   128.0923   2.29059    20         Bedding   
105.9914   122.0492   5.167239   20         Bedding   
106.0321   133.7552   4.784996   20         Bedding   
106.1018   127.0597   6.61911    20         Bedding   
106.1672   143.7899   4.748126   20         Bedding   
106.246    129.5256   3.492262   20         Bedding   
106.3126   133.681    1.007131   20         Bedding   
106.3811   128.027    3.502425   20         Bedding   
106.4332   140.7189   2.253381   20         Bedding   
106.4762   129.1023   4.749576   20         Bedding   
106.5246   151.3136   4.726182   20         Bedding   
106.5835   137.5108   4.087328   20         Bedding   
106.6576   159.0458   2.19161    20         Bedding   
106.7278   142.8768   3.438786   20         Bedding   
106.7823   145.849    2.238309   20         Bedding   
106.8413   130.7065   1.607089   20         Bedding   
106.9154   110.8795   1.76554    20         Bedding   
106.9855   147.343    3.445568   20         Bedding   
107.0546   112.0076   3.033697   20         Bedding   
107.1174   151.0569   2.802651   20         Bedding   
107.2105   98.77473   2.469427   20         Bedding   
107.3015   147.3284   3.458185   20         Bedding   
107.383    107.3256   6.50342    20         Bedding   
107.4518   125.3434   6.089651   20         Bedding   
107.547    118.3608   2.9686     20         Bedding   
107.5929   180.0858   1.176109   20         Bedding   
107.7372   134.0497   0.9782801  20         Bedding   
107.807    14.89019   0.7413887  20         Bedding   
107.8845   146.5544   2.223773   20         Bedding   
107.9888   319.1676   1.761062   20         Bedding   
108.0356   3.02583    3.540314   20         Bedding   
108.0747   168.2399   0.6855812  20         Bedding   
108.1189   6.585262   1.367531   20         Bedding   
108.1759   19.66799   4.278791   20         Bedding   
108.2557   359.8281   6.739345   20         Bedding   
108.2935   15.95392   2.009828   20         Bedding   
108.3508   61.32667   0.2374576  20         Bedding   
108.4551   163.7148   0.6764929  20         Bedding   
108.5318   194.7223   2.513954   20         Bedding   
108.6136   18.3155    8.294533   20         Bedding   
108.7159   15.27967   4.454485   20         Bedding   
108.797    356.5281   2.585786   20         Bedding   
108.8908   179.5356   1.903794   20         Bedding   
109.0013   182.9838   4.659081   20         Bedding   
109.0817   11.68728   4.513108   20         Bedding   
109.2038   353.9587   6.704262   20         Bedding   
109.2774   178.2412   4.033938   20         Bedding   
109.4308   357.1725   5.047719   20         Bedding   
109.5098   6.143694   2.244342   20         Bedding   
109.6088   5.430496   2.547524   20         Bedding   
109.7131   15.54612   1.918047   20         Bedding   
109.7634   23.47541   4.529981   20         Bedding   
109.8091   157.3567   0.5768306  20         Bedding   
109.8603   11.37538   4.44316    20         Bedding   
109.8859   343.069    2.537602   20         Bedding   
109.94     17.11407   0.339181   20         Bedding   
109.9892   187.1631   1.898558   20         Bedding   
110.0252   136.2131   4.521266   20         Bedding   
110.0935   183.349    2.766184   20         Bedding   
110.1686   19.11683   0.3401265  20         Bedding   
110.2162   202.1938   3.388377   20         Bedding   
110.2954   181.3682   4.091875   20         Bedding   
110.3697   191.0695   1.447994   20         Bedding   
110.4242   351.0144   0.2288217  20         Bedding   
110.5231   0.205997   2.967389   20         Bedding   
110.5884   11.08691   1.016735   20         Bedding   
110.6243   163.5742   5.768106   20         Bedding   
110.684    192.3803   7.847497   20         Bedding   
110.7532   206.9369   2.701329   20         Bedding   
110.8129   186.5971   4.33564    20         Bedding   
110.8483   200.988    1.436116   20         Bedding   
110.9465   132.5071   14.07698   20         "Deformed Bed Boundary"
110.9986   151.9989   27.73105   20         "Deformed Bed Boundary"
111.1183   156.5704   45.0069    20         "Deformed Bed Boundary"
111.2472   162.0056   18.62241   20         "Deformed Bed Boundary"
111.3147   157.103    10.33435   20         Bedding   
111.3491   157.8118   12.83134   20         Bedding   
111.3914   181.7598   6.53551    20         Bedding   
111.4619   210.3172   9.610342   20         Bedding   
111.5478   201.2683   7.130808   20         Bedding   
111.5969   199.9049   10.22971   20         Bedding   
111.6491   201.3945   10.8412    20         Bedding   
111.6941   187.4772   9.700038   20         Bedding   
111.7473   197.8655   4.624918   20         Bedding   
111.8354   211.2231   9.427327   20         Bedding   
111.9068   239.0535   4.63099    20         Bedding   
111.9456   197.6327   12.99397   20         Bedding   
111.9927   202.7257   7.754787   20         Bedding   
112.0848   182.0969   10.6676    20         Bedding   
112.186    198.0408   6.520037   20         Bedding   
112.2566   17.95849   8.855629   20         Bedding   
112.3916   16.7497    4.239104   20         Bedding   
112.4806   31.85044   4.87894    20         Bedding   
112.6646   74.21631   8.179043   20         Bedding   
112.7567   69.74969   3.157667   20         Bedding   
112.8006   11.46781   0.7066752  20         Bedding   
112.8549   187.2745   4.428939   20         Bedding   
112.9294   2.660063   1.319328   20         Bedding   
112.9929   332.2409   3.956788   20         Bedding   
113.0728   341.3652   4.420048   20         Bedding   
113.1402   125.5901   1.700436   20         Bedding   
113.2292   19.32491   5.865052   20         Bedding   
113.3151   18.43791   5.087419   20         Bedding   
113.4071   353.2119   5.423987   20         Bedding   
113.4746   0.9768139  1.865917   20         Bedding   
113.5391   172.7448   1.314554   20         Bedding   
113.6127   171.5323   9.095837   20         Bedding   
113.689    148.2516   2.340457   20         Bedding   
113.7446   167.827    3.24582    20         Bedding   
113.7826   141.3792   5.178246   20         Bedding   
113.8459   166.1544   2.21087    20         Bedding   
113.9052   335.2492   2.097053   20         Bedding   
113.9901   353.3771   5.399755   20         Bedding   
114.0515   348.748    3.708585   20         Bedding   
114.0923   336.2056   2.73184    20         Bedding   
114.1619   178.7002   8.246664   20         Bedding   
114.2478   188.4509   5.314285   20         Bedding   
114.2969   189.2545   10.29177   20         Bedding   
114.3687   345.7272   1.849267   20         Bedding   
114.4196   358.5757   4.333783   20         Bedding   
114.4601   8.264236   3.841211   20         Bedding   
114.5301   1.436238   3.743441   20         Bedding   
114.6068   347.454    3.689746   20         Bedding   
114.6472   358.0988   2.524912   20         Bedding   
114.6804   344.6334   6.197966   20         Bedding   
114.7449   344.155    8.067324   20         Bedding   
114.8124   7.15579    6.295981   20         Bedding   
114.8951   1.77803    1.742655   20         Bedding   
114.9285   315.534    20.63304   20         "Cross Bedding"
114.958    308.3531   21.8772    20         "Cross Bedding"
115.0025   305.4506   21.86601   20         "Cross Bedding"
115.0408   272.5919   3.858109   20         Bedding   
115.0761   259.3306   3.190677   20         Bedding   
115.1406   213.4361   19.45624   20         "Cross Bedding"
115.1866   204.6826   23.82941   20         "Cross Bedding"
115.2357   203.2255   24.87948   20         "Cross Bedding"
115.2863   216.389    26.93351   20         "Cross Bedding"
115.3354   226.6112   24.39753   20         "Cross Bedding"
115.3645   222.233    25.43911   20         "Cross Bedding"
115.4075   220.7749   26.45372   20         "Cross Bedding"
115.455    197.41     23.35363   20         "Cross Bedding"
