~VERSION INFORMATION
VERS .             3.00                          :CWLS LOG ASCII STANDARD - VERSION 2.0
WRAP .             NO                            :ONE LINE PER DEPTH STEP
DLM  .             SPACE                         :Delimiter
PROD .             Schlumberger Technology Corp. :LAS Producer
SOURCE.            Techlog                       :DATA SOURCE
#--------------------------------------------------
~WELL INFORMATION
#MNEM.UNIT    DATA                                                :DESCRIPTION
#----.-----   -----------------------                              -----------------------------
 STRT.M            105.37                                  :START DEPTH
 STOP.M            254.58                                  :STOP DEPTH
 STEP.M            0.00000                                 :STEP
NULL .             -999.25                                 :NULL VALUE
COMP .             SUNCOR ENERGY INC.                      :COMPANY
WELL .             SUNCOR LEWIS 6-34-91-8                  :WELL NAME
FLD  .             LEWIS                                   :FIELD NAME
LOC  .             6-34-091-08W4                           :FIELD LOCATION
PROV .             ALBERTA                                 :PROVINCE
SRVC .             Schlumberger                            :SERVICE COMPANY
DATE .             23-Feb-2014                             :LOG DATE
UWI  .             1AA063409108W400                        :UNIQUE WELL ID
LIC  .             0464072                                 :License Number
SON  .                                                     :Service Order Number
CTRY .             CA                                      :Country
LATI .deg          56.9345                                 :LATITUDE (N=+ S=-) (from LATD)
LONG .deg          -111.205                                :LONGITUDE (from LOND)
GDAT .                                                     :
~PARAMETER INFORMATION
#MNEM.UNIT    VALUE                                               :DESCRIPTION
#----.----    ---------------                                     :-------------------
SGOR .                                                     :
MVIS .                                                     :
MDEC .                                                     :
SEABDEPTH.                                                 :
TOWN .                                                     :
RUN-NUMBER.                                                :
NAME-SPACE-NAME.                                           :
KPER .                                                     :
TLLAB.                                                     :
TD_CALI_OFFSET.                                            :
EGL  .m            445.00                                  :
DC_TRIM.                                                   :
SEXP_HILT.                                                 :
TD   .                                                     :
DATE .             23-Feb-2014                             :
DATF .                                                     :
DATT .                                                     :
WN   .                                                     :
FL1  .                                                     :
FL2  .                                                     :
LOGSEQ.                                                    :
DMAG_CORR_ON.                                              :
OVERIDE_LOCB.                                              :
LOG_START_TIME.                                            :
LOND .deg          -111.21                                 :
LMF  .             KB                                      :
OVERIDE_LOCG.                                              :
GVIS .                                                     :
FLD  .             LEWIS                                   :
FVEL .                                                     :
PCODDRL.                                                   :
LATI .                                                     :
COMP .             .            :                          :
CREATION-TIME.                                             :
~CURVE INFORMATION
#MNEM.UNIT    VALUE          :DESCRIPTION
#----.----    ---------------  :-------------------
 DEPT.M                                          :Depth Channel (from TDEP)
Azim_APP.dega                                    :Dip Azimuth Appature {F}
Azim_TRU.dega                                    :Dip Azimuth {F}
HDev .deg                                        :Hole Deviation {F}
Dip_APP.dega                                     :Dipp Apperture {F}
Dip_TRU.dega                                     :Dip True Dip {F}
HAzi .deg                                        :Hole Azimuth {F}
Type .                                           :Dip Type {S}
~ASCII   DEPT     Azim_APP     Azim_TRU         HDev      Dip_APP      Dip_TRU         HAzi         Type
    105.37000    196.88000    193.59000      0.45000      4.65000      4.29000    230.35000 "Bed Boundary"
    105.82000    256.37000    257.77000      0.44000      8.27000      7.88000    230.53000 "Bed Boundary"
    106.06000    208.66000    206.39000      0.44000      4.43000      4.02000    229.66000 "Bed Boundary"
    106.34000    240.46000    241.23000      0.44000      7.43000      6.99000    228.16000 "Bed Boundary"
    106.59000    326.49000    332.08000      0.45000      4.40000      4.49000    226.90000 "Bed Boundary"
    106.91000    300.04000    303.72000      0.45000      6.76000      6.65000    225.95000 "Bed Boundary"
    107.21000    227.82000    228.08000      0.45000      4.01000      3.56000    225.78000 "Bed Boundary"
    107.47000     17.45000     19.35000      0.45000      6.05000      6.45000    225.72000 "Bed Boundary"
    107.77000     36.25000     36.74000      0.46000      7.98000      8.44000    225.34000 "Bed Boundary"
    108.18000    271.07000    273.74000      0.48000      7.80000      7.48000    224.44000 "Bed Boundary"
    108.49000    319.62000    322.46000      0.49000      9.75000      9.81000    224.02000 "Bed Boundary"
    108.90000    329.69000    333.50000      0.50000      7.12000      7.27000    224.29000 "Bed Boundary"
    109.22000      0.08000      4.53000      0.50000      4.20000      4.57000    224.79000 "Bed Boundary"
    109.51000     13.00000     18.31000      0.50000      2.42000      2.86000    224.94000 "Bed Boundary"
    109.83000    322.66000    326.92000      0.50000      6.49000      6.58000    224.58000 "Bed Boundary"
    110.08000    340.60000    343.91000      0.49000      7.34000      7.58000    223.86000 "Bed Boundary"
    110.37000    340.27000    345.12000      0.49000      4.87000      5.12000    222.66000 "Bed Boundary"
    110.63000    333.12000    336.26000      0.49000      8.03000      8.22000    221.59000 "Bed Boundary"
    111.05000    320.21000    322.54000      0.49000     11.50000     11.59000    220.77000 "Bed Boundary"
    111.41000    324.69000    327.95000      0.48000      8.08000      8.20000    221.68000 "Bed Boundary"
    111.74000    300.94000    302.43000      0.48000     17.58000     17.49000    223.14000 "Nodular Event"
    112.33000     94.82000     92.06000      0.48000      6.98000      7.31000    227.22000 "Nodular Event"
    112.71000    207.63000    205.51000      0.48000      5.16000      4.71000    228.78000 "Bed Boundary"
    113.07000    219.54000    218.77000      0.49000      6.74000      6.26000    229.48000 "Bed Boundary"
    113.36000    199.10000    195.71000      0.49000      4.61000      4.20000    229.93000 "Bed Boundary"
    113.57000     61.57000     60.74000      0.49000      6.00000      6.47000    230.34000 "Bed Boundary"
    114.00000    285.52000    294.45000      0.49000      2.81000      2.56000    231.42000 "Bed Boundary"
    114.37000    238.81000    239.18000      0.50000      9.23000      8.73000    232.25000 "Nodular Event"
    114.61000    121.88000    118.29000      0.51000      7.31000      7.50000    232.57000 "Nodular Event"
    114.80000     78.80000     76.61000      0.51000      5.41000      5.88000    232.83000 "Bed Boundary"
    115.12000    210.09000    208.60000      0.53000      8.44000      7.95000    233.21000 "Bed Boundary"
    115.44000    239.86000    241.07000      0.55000      3.29000      2.74000    233.74000 "Bed Boundary"
    115.72000    254.85000    258.67000      0.55000      3.40000      2.89000    234.43000 "Bed Boundary"
    116.00000    237.19000    237.51000      0.56000      4.17000      3.61000    235.12000 "Bed Boundary"
    116.41000    196.44000    191.04000      0.56000      4.18000      3.76000    235.71000 "Bed Boundary"
    116.81000    187.08000    178.11000      0.56000      3.03000      2.69000    235.83000 "Bed Boundary"
    116.93000    316.78000    317.43000      0.56000     40.39000     40.31000    235.84000 "Disc. Conductive Fracture"
    117.06000    273.37000    273.70000      0.56000     45.33000     44.88000    235.89000 "Disc. Conductive Fracture"
    117.31000    230.11000    229.64000      0.55000      7.31000      6.77000    235.97000 "Bed Boundary"
    117.78000    215.00000    212.72000      0.54000      5.24000      4.75000    235.63000 "Bed Boundary"
    118.02000    244.92000    245.55000      0.53000      8.46000      7.94000    235.35000 "Bed Boundary"
    118.39000    220.05000    218.81000      0.53000      6.80000      6.29000    235.03000 "Bed Boundary"
    118.69000    190.53000    186.74000      0.52000      5.91000      5.55000    234.99000 "Bed Boundary"
    119.02000    204.92000    202.54000      0.52000      6.67000      6.22000    234.94000 "Bed Boundary"
    119.34000    162.50000    152.24000      0.51000      2.84000      2.73000    234.57000 "Bed Boundary"
    119.79000    219.85000    218.98000      0.50000      8.44000      7.95000    233.78000 "Bed Boundary"
    120.19000    199.48000    196.33000      0.49000      5.34000      4.93000    232.95000 "Bed Boundary"
    120.47000     33.87000     33.89000      0.49000     82.54000     83.00000    232.51000 "Disc. Conductive Fracture"
    120.51000    209.24000    206.87000      0.49000      5.07000      4.63000    232.46000 "Bed Boundary"
    120.76000    151.32000    150.96000      0.48000     52.34000     52.26000    232.07000 "Disc. Conductive Fracture"
    120.76000    200.25000    197.93000      0.48000      6.65000      6.25000    232.06000 "Bed Boundary"
    120.99000    170.51000    170.27000      0.48000     60.19000     59.96000    231.57000 "Disc. Conductive Fracture"
    121.10000     67.20000     65.97000      0.47000      5.62000      6.07000    231.29000 "Bed Boundary"
    121.37000    281.17000    282.56000      0.47000     15.14000     14.84000    230.16000 "Bed Boundary"
    121.73000     47.01000     47.09000      0.47000      8.23000      8.70000    228.42000 "Bed Boundary"
    122.12000    239.86000    241.13000      0.47000      5.25000      4.80000    226.76000 "Bed Boundary"
    122.52000    249.14000    251.04000      0.46000      5.98000      5.55000    225.81000 "Bed Boundary"
    122.79000    268.48000    268.73000      0.45000     51.57000     51.24000    225.03000 "Disc. Conductive Fracture"
    122.80000    252.68000    254.32000      0.45000      7.72000      7.32000    225.01000 "Bed Boundary"
    123.14000    205.87000    204.41000      0.44000      5.76000      5.35000    224.07000 "Bed Boundary"
    123.45000    175.64000    171.89000      0.43000      5.09000      4.82000    223.56000 "Bed Boundary"
    123.74000    207.01000    204.44000      0.42000      3.10000      2.70000    223.82000 "Bed Boundary"
    124.01000    207.11000    205.06000      0.42000      3.93000      3.54000    224.78000 "Bed Boundary"
    124.29000    211.71000    210.41000      0.42000      4.94000      4.53000    226.05000 "Bed Boundary"
    124.76000     42.24000     42.57000      0.42000      6.44000      6.85000    227.61000 "Nodular Event"
    125.05000    241.92000    242.67000      0.41000      7.73000      7.32000    228.44000 "Nodular Event"
    125.42000    276.28000    281.43000      0.41000      3.59000      3.32000    229.68000 "Bed Boundary"
    125.43000    183.33000    183.09000      0.41000     51.12000     50.84000    229.71000 "Disc. Conductive Fracture"
    125.62000     66.89000     66.79000      0.41000     49.00000     49.39000    230.10000 "Disc. Conductive Fracture"
    126.02000     72.23000     71.24000      0.42000      8.46000      8.85000    230.51000 "Bed Boundary"
    126.33000     56.86000     56.18000      0.43000      3.62000      4.04000    230.42000 "Bed Boundary"
    126.79000    341.09000    343.55000      0.43000      9.23000      9.39000    230.39000 "Bed Boundary"
    127.00000     14.83000     17.44000      0.44000      5.19000      5.55000    230.38000 "Bed Boundary"
    127.38000     60.19000     59.48000      0.44000      5.76000      6.19000    230.14000 "Bed Boundary"
