~Version
 VERS              .         2                             : CWLS LOG ASCII STANDARD - VERSION 2.0
 WRAP              .         NO                            : ONE LINE PER DEPTH STEP
 DLM               .         SPACE                         : DELIMITING CHARACTER(SPACE TAB OR COMMA)
~Well Information
#_______________________________________________________________________________
#
#PARAMETER_NAME    .UNIT     VALUE                         : DESCRIPTION
#_______________________________________________________________________________
STRT               .m        56.74727                      : First reference value
STOP               .m        182.3879                      : Last reference value
STEP               .m        0                             : Step increment
NULL               .         -999.25                       : Missing value
WELL               .         SUNCOR LEWIS 7-22-92-8        : Well name
FILE-ID            .         00001_STAR_RPT                                                   : 
FLD                .         UNDEFINED                     : 
FILE-NUMBER        .         1                             : 
WELL-NAME          .         SUNCOR LEWIS 7-22-92-8        : 
FILE-SET-NUMBER    .         51                            : 
SRC_UNIT           .         meters                        : 
PRODUCER-CODE      .         150                           : 
SRC_NAME           .         /dat1a/SUNCOR2016/CA003953/star_rpt.xtf: 
FILE-TYPE          .         EXCHANGE                      : 
VERSION            .         Access-5.49                   : 
NAME-SPACE-VERSION .         1                             : 
COMP               .         SUNCOR ENERGY INC             : 
FILE-SET-NAME      .         BAKERH                        : 
COMPANY            .         SUNCOR ENERGY INC             : 
ABSE_FVAL          .         -999.25                       : 
WN                 .         SUNCOR LEWIS 7-22-92-8        : 
NAME-SPACE-NAME    .         BAKERH                        : 
FIELD-NAME         .         UNDEFINED                     : 
CREATION-TIME      .         2016/1/16 16_45               : 
SRC_FILE           .         star_rpt.xtf                  : 
PRODUCER-NAME      .         ATLAS                         : 
HLD                .         IN MAKING INTERPRETATIONS OF LOGS OUR EMPLOYEES WILL GIVE CUSTOMER <_techsia_sc_>THE BENEFIT OF THEIR BEST JUDGEMENT. BUT SINCE ALL INTERPRETATIONS <_techsia_sc_>ARE OPINIONS BASED ON INFERENCES FROM ELECTRICAL OR OTHER <_techsia_sc_>MEASUREMENTS, WE CANNOT, AND WE DO NOT GUARANTEE THE ACCURACY OR <_techsia_sc_>CORRECTNESS OF ANY INTERPRETATION. WE SHALL NOT BE LIABLE OR <_techsia_sc_>RESPONSIBLE FOR ANY LOSS, COST, DAMAGES, OR EXPENSES WHATSOEVER <_techsia_sc_>INCURRED OR SUSTAINED BY THE CUSTOMER RESULTING FROM ANY <_techsia_sc_>INTERPRETATION MADE BY ANY OF OUR EMPLOYEES.: 
PRODUCT            .         WFM/eclips                    : 
PROGRAMS           .         Data Export                   : 
UWI                .         1AA072209208W400              : 
CTRY               .         CA                            : Two letter Internet country code
COUNTRY            .         CANADA                        : 
PROVINCE           .         Alberta                       : 
LATI               .Deg      57.0175 N                     : 
LONG               .W        -111.419 W                    : 
EREF               .m        440.70                        : 
DREF               .m        438.50                        : 
LSD                .         07                            : 
SEC                .         22                            : 
TWP                .         092                           : 
RGE                .         08W4                          : 
SON                .         003953J                       : 
LICENSE            .         0477502                       : 
EKB                .m        440.70                        : 
EGL                .m        438.50                        : 
Completion_date    .         16-Jan-2016                   : 
LOC                .                                       : 
DATE               .                                       : 
SRVC               .                                       : 
GDAT               .                                       : 
PROV               .                                       : 
LIC                .                                       : 
STAT               .                                       : 
CNTY               .                                       : 
API                .                                       : 
~Parameter Information Block
#_______________________________________________________________________________
#
#PARAMETER_NAME    .UNIT     VALUE                         : DESCRIPTION
#_______________________________________________________________________________
SET                .         Dip_All                       : 
REAL_CREATION_DATE .         Tue Jan 19 2016-16_48_55      : 
TLFamily_TDEP      .         Measured Depth                : 
TLFamily_Type      .         Dip Classification            : 
TLFamily_Quality   .         Dip Quality                   : 
TLFamily_Azimuth   .         True Dip Azimuth              : 
TLFamily_Dip_TRU   .         True Dip Inclination          : 
~Curve Information
#_______________________________________________________________________________
#
#LOGNAME           .UNIT     LOG_ID                        : DESCRIPTION
#_______________________________________________________________________________
TDEP               .m                                      :  
Azimuth            .dega                                   :  
Dip_TRU            .dega                                   :  
Quality            .unitless                               :  
Type               .unitless                               :  
~Ascii
# ...
92.1516    160.4508   1.849928   20         Bedding   
92.26512   342.7072   1.634145   20         Bedding   
92.38171   354.1472   1.861805   20         Bedding   
92.46455   348.3191   4.325954   20         Bedding   
92.55967   6.165268   3.096093   20         Bedding   
92.64251   6.11229    2.480126   20         Bedding   
92.73762   16.3214    2.338523   20         Bedding   
92.82046   17.27321   3.710586   20         Bedding   
92.8941    359.6057   1.24615    20         Bedding   
93.00148   13.20037   3.702722   20         Bedding   
93.14875   154.8899   3.707605   20         Bedding   
93.25307   179.3484   7.572979   20         Bedding   
93.34818   176.2233   5.147256   20         Bedding   
93.48625   185.0735   0.8340765  20         Bedding   
93.57829   188.2983   0.8357919  20         Bedding   
93.72863   195.7108   3.330906   20         Bedding   
93.79306   197.1407   4.575161   20         Bedding   
93.9342    172.4559   2.713561   20         Bedding   
94.06613   178.282    1.460136   20         Bedding   
94.19806   183.6621   4.536584   20         Bedding   
94.31465   180.3658   1.450287   20         Bedding   
94.4159    180.4964   1.451123   20         Bedding   
94.53249   178.8516   5.176698   20         Bedding   
94.65522   174.2113   1.476963   20         Bedding   
94.79328   1.000099   1.622589   20         Bedding   
94.8976    356.378    2.457517   20         Bedding   
95.10624   343.0424   3.709758   20         Bedding   
95.22589   339.3097   2.466453   20         Bedding   
95.38237   341.5154   3.695363   20         Bedding   
95.49896   328.4731   0.227803   20         Bedding   
95.61862   359.2496   2.338523   20         Bedding   
95.80271   4.803964   1.233914   20         Bedding   
95.90089   337.7994   2.455762   20         Bedding   
96.01134   331.1911   6.103822   20         Bedding   
96.14941   349.3615   10.91725   20         Bedding   
96.29668   333.1206   3.66334    20         Bedding   
96.37646   320.77     3.642822   20         Bedding   
96.47464   343.882    6.728551   20         Bedding   
96.5452    338.5463   1.224012   20         Bedding   
96.64032   343.866    7.323535   20         Bedding   
96.78759   143.5441   2.447498   20         Bedding   
96.89804   161.2916   5.023685   20         Bedding   
97.0085    157.9874   0.2106379  20         Bedding   
97.10054   355.1797   1.014749   20         Bedding   
97.17111   170.1905   4.273118   20         Bedding   
97.26009   197.3741   5.078828   20         Bedding   
97.31532   191.3184   4.458503   20         Bedding   
97.39202   186.7733   5.33888    20         Bedding   
97.4994    181.6394   2.645539   20         Bedding   
97.55413   162.0765   3.937881   20         Bedding   
97.63747   160.4225   0.8110125  20         Bedding   
97.67675   162.1747   3.922796   20         Bedding   
97.72645   162.5533   6.289189   20         Bedding   
97.78056   167.0251   3.312439   20         Bedding   
97.83997   181.9246   5.066765   20         Bedding   
97.9136    173.0341   2.042078   20         Bedding   
97.99031   174.8658   2.681713   20         Bedding   
98.06541   173.1791   1.791351   20         Bedding   
98.13144   178.3759   3.950419   20         Bedding   
98.22655   171.5924   2.716588   20         Bedding   
98.36462   175.6314   2.084365   20         Bedding   
98.45197   139.1238   2.251302   20         Bedding   
98.52417   174.6776   2.736494   20         Bedding   
98.58913   158.272    0.9409651  20         Bedding   
98.64996   229.9452   5.267722   20         Bedding   
98.75735   225.5969   4.631402   20         Bedding   
98.92303   174.9305   0.6591854  20         Bedding   
99.02121   164.6611   4.017667   20         Bedding   
99.18689   148.9192   1.528594   20         Bedding   
99.28507   148.4209   4.689403   20         Bedding   
99.40166   149.1072   2.167308   20         Bedding   
99.53973   154.8548   0.8822917  20         Bedding   
99.63177   167.8353   4.635352   20         Bedding   
99.72688   354.7338   1.670319   20         Bedding   
99.82507   352.8916   3.150998   20         Bedding   
99.96246   325.6272   3.487029   20         Bedding   
100.0698   7.436547   1.055395   20         Bedding   
100.1588   178.8714   1.255356   20         Bedding   
100.2233   176.5021   0.6253631  20         Bedding   
100.2815   356.7511   0.196575   20         Bedding   
100.3705   1.862836   1.899792   20         Bedding   
100.4902   118.6067   0.1123925  20         Bedding   
100.6436   37.36625   15.49098   20         Bedding   
100.7786   24.59538   3.582093   20         Bedding   
100.9136   17.60925   3.847064   20         Bedding   
100.9872   17.54066   3.956788   20         Bedding   
101.1069   23.53383   3.821605   20         Bedding   
101.1775   27.60402   3.582093   20         Bedding   
101.2542   26.27177   2.839554   20         Bedding   
101.3554   22.11283   2.839554   20         Bedding   
101.4505   6.523232   3.209687   20         Bedding   
101.5671   30.21118   2.839554   20         Bedding   
101.6714   6.356135   3.582093   20         Bedding   
101.7512   27.4621    1.38149    20         Bedding   
101.831    19.13408   2.471684   20         Bedding   
101.923    22.16048   3.19719    20         Bedding   
101.9791   350.494    1.97777    20         Bedding   
102.0672   9.724185   3.210404   20         Bedding   
102.1562   11.04056   3.214246   20         Bedding   
102.2098   348.9633   3.203809   20         Bedding   
102.3035   24.94719   1.32204    20         Bedding   
102.3894   12.22344   3.215029   20         Bedding   
102.4968   134.3038   1.974402   20         Bedding   
102.6041   336.6872   3.769775   20         Bedding   
102.6747   339.2235   1.637801   20         Bedding   
102.7272   5.561481   1.985619   20         Bedding   
102.7974   18.93871   3.582093   20         Bedding   
102.8457   21.05594   1.984967   20         Bedding   
102.9079   24.66065   3.177337   20         Bedding   
103.003    25.97892   3.804585   20         Bedding   
103.0889   4.708117   3.23188    20         Bedding   
103.1503   1.818146   1.269207   20         Bedding   
103.2219   354.7264   1.954504   20         Bedding   
103.2883   12.34844   0.6513308  20         Bedding   
103.3743   15.69624   1.914485   20         Bedding   
103.4422   19.52483   0.9974681  20         Bedding   
103.5215   36.07051   1.912643   20         Bedding   
103.6271   177.5627   0.3686396  20         Bedding   
103.7056   6.068944   2.535193   20         Bedding   
103.813    7.942332   1.908844   20         Bedding   
103.9511   10.06657   1.282696   20         Bedding   
104.0095   9.024843   3.870575   20         Bedding   
104.0707   186.0732   0.4329096  20         Bedding   
104.1799   359.3714   4.747386   20         Bedding   
104.2485   336.0062   4.434719   20         Bedding   
104.3193   356.0633   1.897684   20         Bedding   
104.3878   8.114737   0.3537376  20         Bedding   
104.4696   9.758962   2.548592   20         Bedding   
104.5166   131.387    2.294296   20         Bedding   
104.5586   144.2271   1.958609   20         Bedding   
104.6184   135.6592   1.006556   20         Bedding   
104.6874   1.506554   1.680572   20         Bedding   
104.7611   177.6131   5.63997    20         Bedding   
104.8346   148.8743   4.120032   20         Bedding   
104.936    141.6221   5.330762   20         Bedding   
104.993    148.8768   4.124023   20         Bedding   
105.0372   150.3609   2.793843   20         Bedding   
105.1073   143.3123   3.50958    20         Bedding   
105.1569   135.6995   5.353384   20         Bedding   
105.2278   137.0932   1.641495   20         Bedding   
105.2734   148.7675   4.685078   20         Bedding   
105.3563   150.7083   5.929394   20         Bedding   
105.4107   136.2112   4.167648   20         Bedding   
105.4974   147.2013   2.804437   20         Bedding   
105.5803   142.4523   2.7953     20         Bedding   
105.658    99.65175   0.762385   20         Bedding   
