~Version
 VERS              .         2                             : CWLS LOG ASCII STANDARD - VERSION 2.0
 WRAP              .         NO                            : ONE LINE PER DEPTH STEP
 DLM               .         SPACE                         : DELIMITING CHARACTER(SPACE TAB OR COMMA)
~Well Information
#_______________________________________________________________________________
#
#PARAMETER_NAME    .UNIT     VALUE                         : DESCRIPTION
#_______________________________________________________________________________
STRT               .m        56.74727                      : First reference value
STOP               .m        182.3879                      : Last reference value
STEP               .m        0                             : Step increment
NULL               .         -999.25                       : Missing value
WELL               .         SUNCOR LEWIS 7-22-92-8        : Well name
FILE-ID            .         00001_STAR_RPT                                                   : 
FLD                .         UNDEFINED                     : 
FILE-NUMBER        .         1                             : 
WELL-NAME          .         SUNCOR LEWIS 7-22-92-8        : 
FILE-SET-NUMBER    .         51                            : 
SRC_UNIT           .         meters                        : 
PRODUCER-CODE      .         150                           : 
SRC_NAME           .         /dat1a/SUNCOR2016/CA003953/star_rpt.xtf: 
FILE-TYPE          .         EXCHANGE                      : 
VERSION            .         Access-5.49                   : 
NAME-SPACE-VERSION .         1                             : 
COMP               .         SUNCOR ENERGY INC             : 
FILE-SET-NAME      .         BAKERH                        : 
COMPANY            .         SUNCOR ENERGY INC             : 
ABSE_FVAL          .         -999.25                       : 
WN                 .         SUNCOR LEWIS 7-22-92-8        : 
NAME-SPACE-NAME    .         BAKERH                        : 
FIELD-NAME         .         UNDEFINED                     : 
CREATION-TIME      .         2016/1/16 16_45               : 
SRC_FILE           .         star_rpt.xtf                  : 
PRODUCER-NAME      .         ATLAS                         : 
HLD                .         IN MAKING INTERPRETATIONS OF LOGS OUR EMPLOYEES WILL GIVE CUSTOMER <_techsia_sc_>THE BENEFIT OF THEIR BEST JUDGEMENT. BUT SINCE ALL INTERPRETATIONS <_techsia_sc_>ARE OPINIONS BASED ON INFERENCES FROM ELECTRICAL OR OTHER <_techsia_sc_>MEASUREMENTS, WE CANNOT, AND WE DO NOT GUARANTEE THE ACCURACY OR <_techsia_sc_>CORRECTNESS OF ANY INTERPRETATION. WE SHALL NOT BE LIABLE OR <_techsia_sc_>RESPONSIBLE FOR ANY LOSS, COST, DAMAGES, OR EXPENSES WHATSOEVER <_techsia_sc_>INCURRED OR SUSTAINED BY THE CUSTOMER RESULTING FROM ANY <_techsia_sc_>INTERPRETATION MADE BY ANY OF OUR EMPLOYEES.: 
PRODUCT            .         WFM/eclips                    : 
PROGRAMS           .         Data Export                   : 
UWI                .         1AA072209208W400              : 
CTRY               .         CA                            : Two letter Internet country code
COUNTRY            .         CANADA                        : 
PROVINCE           .         Alberta                       : 
LATI               .Deg      57.0175 N                     : 
LONG               .W        -111.419 W                    : 
EREF               .m        440.70                        : 
DREF               .m        438.50                        : 
LSD                .         07                            : 
SEC                .         22                            : 
TWP                .         092                           : 
RGE                .         08W4                          : 
SON                .         003953J                       : 
LICENSE            .         0477502                       : 
EKB                .m        440.70                        : 
EGL                .m        438.50                        : 
Completion_date    .         16-Jan-2016                   : 
LOC                .                                       : 
DATE               .                                       : 
SRVC               .                                       : 
GDAT               .                                       : 
PROV               .                                       : 
LIC                .                                       : 
STAT               .                                       : 
CNTY               .                                       : 
API                .                                       : 
~Parameter Information Block
#_______________________________________________________________________________
#
#PARAMETER_NAME    .UNIT     VALUE                         : DESCRIPTION
#_______________________________________________________________________________
SET                .         Dip_All                       : 
REAL_CREATION_DATE .         Tue Jan 19 2016-16_48_55      : 
TLFamily_TDEP      .         Measured Depth                : 
TLFamily_Type      .         Dip Classification            : 
TLFamily_Quality   .         Dip Quality                   : 
TLFamily_Azimuth   .         True Dip Azimuth              : 
TLFamily_Dip_TRU   .         True Dip Inclination          : 
~Curve Information
#_______________________________________________________________________________
#
#LOGNAME           .UNIT     LOG_ID                        : DESCRIPTION
#_______________________________________________________________________________
TDEP               .m                                      :  
Azimuth            .dega                                   :  
Dip_TRU            .dega                                   :  
Quality            .unitless                               :  
Type               .unitless                               :  
~Ascii
# ...
115.5102   204.6754   20.06879   20         "Cross Bedding"
115.5701   204.679    20.63506   20         "Cross Bedding"
115.613    200.2565   17.83145   20         "Cross Bedding"
115.6728   210.4796   16.65911   20         "Cross Bedding"
115.7219   24.07351   4.813095   20         Bedding   
115.7526   34.47151   2.29716    20         Bedding   
115.8017   354.6302   17.53296   20         "Cross Bedding"
115.8906   13.3615    16.99775   20         "Cross Bedding"
115.9167   358.9573   16.97185   20         "Cross Bedding"
115.9673   20.44249   15.8589    20         "Cross Bedding"
116.0394   292.2573   22.91875   20         "Cross Bedding"
116.0686   290.87     20.72175   20         "Cross Bedding"
116.1115   290.797    23.97408   20         "Cross Bedding"
116.1667   290.7604   26.10526   20         "Cross Bedding"
116.2051   289.3656   22.98082   20         "Cross Bedding"
116.248    280.6217   24.03186   20         "Cross Bedding"
116.2895   279.1957   22.42364   20         "Cross Bedding"
116.3309   274.8093   23.4839    20         "Cross Bedding"
116.3754   273.3753   22.38979   20         "Cross Bedding"
116.4168   274.8117   23.45868   20         "Cross Bedding"
116.4705   283.5634   22.42107   20         "Cross Bedding"
116.5241   284.9977   23.53123   20         "Cross Bedding"
116.5594   290.795    24.08944   20         "Cross Bedding"
116.6054   276.2903   22.42237   20         "Cross Bedding"
116.676    358.5671   2.278647   20         "Discontinuity Boundary"
116.7205   356.0953   3.542868   20         Bedding   
116.7588   358.3851   4.807445   20         Bedding   
116.8217   339.9872   2.859551   20         Bedding   
116.8678   351.129    2.884116   20         Bedding   
116.8938   349.7555   2.8802     20         Bedding   
116.9567   359.8837   1.636903   20         Bedding   
116.9981   9.296567   0.9831633  20         Bedding   
117.038    190.7462   3.44871    20         Bedding   
117.0902   18.57342   0.5594874  20         Bedding   
117.1254   27.7787    0.3639058  20         "Discontinuity Boundary"
117.1574   254.7858   18.75078   20         "Cross Bedding"
117.1837   251.574    16.14238   20         "Cross Bedding"
117.2328   255.9462   16.15694   20         "Cross Bedding"
117.2681   255.8793   19.59668   20         "Cross Bedding"
117.3064   252.9913   17.88435   20         "Cross Bedding"
117.3617   245.6946   17.87125   20         "Cross Bedding"
117.4138   254.4322   18.4461    20         "Cross Bedding"
117.4414   257.3359   19.01345   20         "Cross Bedding"
117.4798   261.6859   20.14522   20         "Cross Bedding"
117.5243   263.1313   20.70827   20         "Cross Bedding"
117.5672   263.1791   17.88726   20         "Cross Bedding"
117.6255   264.6588   16.74143   20         "Cross Bedding"
117.673    313.9818   19.71413   20         "Cross Bedding"
117.719    319.6683   23.03235   20         "Cross Bedding"
117.7727   306.6069   20.26708   20         "Cross Bedding"
117.8157   316.8142   16.28366   20         "Cross Bedding"
117.8571   319.9471   9.676695   20         "Cross Bedding"
117.9046   311.0551   15.09168   20         "Cross Bedding"
117.9614   297.9501   17.9987    20         "Cross Bedding"
118.0105   295.0202   19.70614   20         "Cross Bedding"
118.0412   303.7182   19.72661   20         "Cross Bedding"
118.0626   308.1176   16.86217   20         "Cross Bedding"
118.0948   306.6693   16.84488   20         "Cross Bedding"
118.1301   310.991    18.00537   20         "Cross Bedding"
118.1715   303.7374   18.57006   20         "Cross Bedding"
118.2344   151.9156   9.77101    20         "Discontinuity Boundary"
118.3011   152.9489   5.762587   20         Bedding   
118.3587   34.41992   1.786897   20         Bedding   
118.4231   49.29866   1.581705   20         Bedding   
118.4952   2.355472   2.843605   20         Bedding   
118.5713   345.2594   2.405121   20         Bedding   
118.6541   340.6322   3.037769   20         Bedding   
118.7043   355.9041   1.244674   20         Bedding   
118.7615   336.9609   5.571505   20         Bedding   
118.8061   330.5752   3.080384   20         Bedding   
118.8505   333.717    6.780229   20         Bedding   
118.9026   281.3842   21.36784   20         "Cross Bedding"
118.9394   281.3678   22.82929   20         "Cross Bedding"
118.9761   283.4163   20.02046   20         "Cross Bedding"
119.0265   340.2434   1.199848   20         Bedding   
119.0493   59.43632   1.606076   20         Bedding   
119.095    165.4351   1.889874   20         Bedding   
119.1532   351.2521   2.718534   20         Bedding   
119.1844   174.2223   0.8592924  20         Bedding   
119.2248   355.2142   3.013153   20         Bedding   
119.2883   345.5675   0.8619465  20         Bedding   
119.3383   279.917    23.0755    20         "Cross Bedding"
119.3966   272.6251   20.9743    20         "Cross Bedding"
119.4334   247.9621   18.74893   20         "Cross Bedding"
119.4717   25.52941   1.618884   20         "Discontinuity Boundary"
119.5819   20.41735   2.469621   20         Bedding   
119.6328   23.31943   3.067513   20         Bedding   
119.6879   41.73713   5.006399   20         Bedding   
119.7525   33.63917   4.949247   20         Bedding   
119.8108   9.326814   3.697634   20         Bedding   
119.912    33.7816    6.196572   20         Bedding   
119.9913   319.1561   4.106048   20         Bedding   
120.0807   33.88581   8.055589   20         Bedding   
120.1347   22.20388   3.721035   20         Bedding   
120.1804   10.30967   4.322156   20         Bedding   
120.2469   342.2609   2.221381   20         Bedding   
120.2885   344.1568   3.050335   20         Bedding   
120.3539   335.486    3.579532   20         Bedding   
120.4091   307.7034   10.19333   20         Bedding   
120.4548   312.0057   8.739473   20         Bedding   
120.4942   316.9996   9.427473   20         Bedding   
120.5502   330.8875   6.021533   20         Bedding   
120.6106   318.1924   6.050194   20         Bedding   
120.6605   326.9355   6.074793   20         Bedding   
120.7006   308.1349   5.178888   20         Bedding   
120.7395   351.2403   2.444777   20         Bedding   
120.7865   291.1609   4.176494   20         "Discontinuity Boundary"
120.8356   303.0905   23.81115   20         "Cross Bedding"
120.8559   297.2181   19.81268   20         "Cross Bedding"
120.8908   293.0531   18.40926   20         "Cross Bedding"
120.9203   292.3155   22.27885   20         "Cross Bedding"
120.9429   293.0441   20.6206    20         "Cross Bedding"
120.9972   195.6304   0.2702104  20         "Discontinuity Boundary"
121.0841   141.9161   1.308592   20         Bedding   
121.1489   157.8836   2.222009   20         Bedding   
121.2037   161.0672   1.534616   20         Bedding   
121.262    163.6364   5.928246   20         Bedding   
121.3479   95.09891   18.55994   20         Bedding   
121.6394   236.2366   18.26452   20         Bedding   
121.6946   298.5994   30.86986   20         "Cross Bedding"
121.7376   294.2937   29.05187   20         "Cross Bedding"
121.8082   291.4037   24.56633   20         "Cross Bedding"
121.8665   184.234    2.193003   20         Bedding   
121.9119   185.4745   1.882739   20         Bedding   
121.98     288.5281   23.58121   20         "Cross Bedding"
122.0352   287.0758   25.24698   20         "Cross Bedding"
122.0782   285.6658   20.38212   20         "Cross Bedding"
122.118    188.9638   5.277547   20         "Discontinuity Boundary"
122.1613   181.8884   3.518132   20         Bedding   
122.2346   202.421    4.148324   20         Bedding   
122.2899   193.3341   5.419902   20         Bedding   
122.3484   1.074461   1.847764   20         Bedding   
122.388    195.3867   0.778335   20         Bedding   
122.4502   16.88455   1.458344   20         Bedding   
122.5138   8.905894   2.168465   20         Bedding   
122.5936   176.7865   13.38578   20         Bedding   
122.6622   212.7909   1.087503   20         Bedding   
122.7141   249.3955   4.747386   20         Bedding   
