~Version
 VERS              .         2                             : CWLS LOG ASCII STANDARD - VERSION 2.0
 WRAP              .         NO                            : ONE LINE PER DEPTH STEP
 DLM               .         SPACE                         : DELIMITING CHARACTER(SPACE TAB OR COMMA)
~Well Information
#_______________________________________________________________________________
#
#PARAMETER_NAME    .UNIT     VALUE                         : DESCRIPTION
#_______________________________________________________________________________
STRT               .m        56.74727                      : First reference value
STOP               .m        182.3879                      : Last reference value
STEP               .m        0                             : Step increment
NULL               .         -999.25                       : Missing value
WELL               .         SUNCOR LEWIS 7-22-92-8        : Well name
FILE-ID            .         00001_STAR_RPT                                                   : 
FLD                .         UNDEFINED                     : 
FILE-NUMBER        .         1                             : 
WELL-NAME          .         SUNCOR LEWIS 7-22-92-8        : 
FILE-SET-NUMBER    .         51                            : 
SRC_UNIT           .         meters                        : 
PRODUCER-CODE      .         150                           : 
SRC_NAME           .         /dat1a/SUNCOR2016/CA003953/star_rpt.xtf: 
FILE-TYPE          .         EXCHANGE                      : 
VERSION            .         Access-5.49                   : 
NAME-SPACE-VERSION .         1                             : 
COMP               .         SUNCOR ENERGY INC             : 
FILE-SET-NAME      .         BAKERH                        : 
COMPANY            .         SUNCOR ENERGY INC             : 
ABSE_FVAL          .         -999.25                       : 
WN                 .         SUNCOR LEWIS 7-22-92-8        : 
NAME-SPACE-NAME    .         BAKERH                        : 
FIELD-NAME         .         UNDEFINED                     : 
CREATION-TIME      .         2016/1/16 16_45               : 
SRC_FILE           .         star_rpt.xtf                  : 
PRODUCER-NAME      .         ATLAS                         : 
HLD                .         IN MAKING INTERPRETATIONS OF LOGS OUR EMPLOYEES WILL GIVE CUSTOMER <_techsia_sc_>THE BENEFIT OF THEIR BEST JUDGEMENT. BUT SINCE ALL INTERPRETATIONS <_techsia_sc_>ARE OPINIONS BASED ON INFERENCES FROM ELECTRICAL OR OTHER <_techsia_sc_>MEASUREMENTS, WE CANNOT, AND WE DO NOT GUARANTEE THE ACCURACY OR <_techsia_sc_>CORRECTNESS OF ANY INTERPRETATION. WE SHALL NOT BE LIABLE OR <_techsia_sc_>RESPONSIBLE FOR ANY LOSS, COST, DAMAGES, OR EXPENSES WHATSOEVER <_techsia_sc_>INCURRED OR SUSTAINED BY THE CUSTOMER RESULTING FROM ANY <_techsia_sc_>INTERPRETATION MADE BY ANY OF OUR EMPLOYEES.: 
PRODUCT            .         WFM/eclips                    : 
PROGRAMS           .         Data Export                   : 
UWI                .         1AA072209208W400              : 
CTRY               .         CA                            : Two letter Internet country code
COUNTRY            .         CANADA                        : 
PROVINCE           .         Alberta                       : 
LATI               .Deg      57.0175 N                     : 
LONG               .W        -111.419 W                    : 
EREF               .m        440.70                        : 
DREF               .m        438.50                        : 
LSD                .         07                            : 
SEC                .         22                            : 
TWP                .         092                           : 
RGE                .         08W4                          : 
SON                .         003953J                       : 
LICENSE            .         0477502                       : 
EKB                .m        440.70                        : 
EGL                .m        438.50                        : 
Completion_date    .         16-Jan-2016                   : 
LOC                .                                       : 
DATE               .                                       : 
SRVC               .                                       : 
GDAT               .                                       : 
PROV               .                                       : 
LIC                .                                       : 
STAT               .                                       : 
CNTY               .                                       : 
API                .                                       : 
~Parameter Information Block
#_______________________________________________________________________________
#
#PARAMETER_NAME    .UNIT     VALUE                         : DESCRIPTION
#_______________________________________________________________________________
SET                .         Dip_All                       : 
REAL_CREATION_DATE .         Tue Jan 19 2016-16_48_55      : 
TLFamily_TDEP      .         Measured Depth                : 
TLFamily_Type      .         Dip Classification            : 
TLFamily_Quality   .         Dip Quality                   : 
TLFamily_Azimuth   .         True Dip Azimuth              : 
TLFamily_Dip_TRU   .         True Dip Inclination          : 
~Curve Information
#_______________________________________________________________________________
#
#LOGNAME           .UNIT     LOG_ID                        : DESCRIPTION
#_______________________________________________________________________________
TDEP               .m                                      :  
Azimuth            .dega                                   :  
Dip_TRU            .dega                                   :  
Quality            .unitless                               :  
Type               .unitless                               :  
~Ascii
# ...
80.27217   333.1886   3.073221   20         Bedding   
80.40104   161.6247   6.341381   20         Bedding   
80.49615   167.3801   4.056083   20         Bedding   
80.57285   350.2764   1.606288   20         Bedding   
80.67104   336.42     2.443659   20         Bedding   
80.77229   331.7311   3.694603   20         Bedding   
80.86127   337.9448   2.443229   20         Bedding   
80.90731   348.9132   2.454396   20         Bedding   
80.98248   351.4923   2.874361   20         Bedding   
81.03004   354.1317   3.501959   20         Bedding   
81.06532   167.2065   0.2714002  20         Bedding   
81.16351   326.265    0.2814233  20         Bedding   
81.26782   334.9479   2.835909   20         Bedding   
81.34605   329.8376   3.428568   20         Bedding   
81.3905    351.293    2.201669   20         Bedding   
81.45033   163.3873   0.934157   20         Bedding   
81.55158   344.9206   1.17299    20         Bedding   
81.62522   148.2128   0.5296913  20         Bedding   
81.73106   1.127679   3.063948   20         Bedding   
81.79546   4.133039   0.9878012  20         Bedding   
81.86296   357.1801   2.23713    20         Bedding   
81.90438   338.0885   0.9686436  20         Bedding   
81.96114   351.759    2.243082   20         Bedding   
82.03171   357.0597   2.871081   20         Bedding   
82.09      20.52407   0.07139871 20         Bedding   
82.17898   4.056157   2.236649   20         Bedding   
82.25105   52.70585   0.09105872 20         Bedding   
82.3032    176.2688   0.8531098  20         Bedding   
82.3661    187.7173   2.527217   20         Bedding   
82.42282   176.5336   1.9114     20         Bedding   
82.46884   14.76517   1.231024   20         Bedding   
82.5118    60.22661   0.04120573 20         Bedding   
82.54861   189.626    0.8489437  20         Bedding   
82.61458   205.3195   0.6594367  20         Bedding   
82.68515   217.0127   1.931996   20         Bedding   
82.74035   174.2656   0.6535587  20         Bedding   
82.78637   346.8714   1.847286   20         Bedding   
82.81705   337.0956   4.741193   20         Bedding   
82.85233   331.7522   4.117044   20         Bedding   
82.9229    338.62     3.488349   20         Bedding   
82.97811   329.0748   2.843859   20         Bedding   
83.03487   331.5734   1.596451   20         Bedding   
83.07169   340.3681   2.231635   20         Bedding   
83.11922   305.9895   1.551339   20         Bedding   
83.19128   306.4897   0.9226466  20         Bedding   
83.24805   307.4624   4.05778    20         Bedding   
83.29713   311.0137   2.816316   20         Bedding   
83.32629   114.1502   0.3291318  20         Bedding   
83.35543   312.2847   0.2994199  20         Bedding   
83.42907   327.7113   1.616629   20         Bedding   
83.48122   305.7202   3.438065   20         Bedding   
83.53949   335.555    1.631221   20         "Resistive Nodular Event"
83.71744   190.3217   1.473306   20         "Resistive Nodular Event"
83.77267   185.3455   1.900008   20         Bedding   
83.8279    334.3442   2.451858   20         Bedding   
83.86625   316.3286   4.705666   20         Bedding   
83.95518   342.2681   2.89425    20         Bedding   
83.99047   168.7027   0.5987139  20         Bedding   
84.03956   317.2386   3.050296   20         Bedding   
84.09479   320.8084   2.235104   20         Bedding   
84.13621   325.0597   3.488847   20         Bedding   
84.2006    346.1444   2.26983    20         Bedding   
84.29418   350.1711   2.268582   20         Bedding   
84.33407   1.912436   0.4044396  20         Bedding   
84.37392   190.8672   1.463522   20         Bedding   
84.41686   196.1744   3.751925   20         Bedding   
84.49203   251.497    0.05163002 20         Bedding   
84.55186   185.8133   0.4029372  20         Bedding   
84.58868   211.6754   0.02585401 20         Bedding   
84.64697   185.9214   1.891506   20         Bedding   
84.6976    352.1379   0.5997404  20         Bedding   
84.79424   148.8071   0.231538   20         Bedding   
84.88781   354.1284   1.844409   20         Bedding   
84.95224   173.6877   0.5985182  20         Bedding   
85.00128   172.8291   0.401662   20         Bedding   
85.04424   342.7426   0.2216587  20         Bedding   
85.13014   345.5532   1.973715   20         Bedding   
85.18997   352.2442   3.468903   20         Bedding   
85.24979   33.11349   0.07472574 20         Bedding   
85.32189   10.00235   2.221712   20         Bedding   
85.43233   19.96238   2.836388   20         Bedding   
85.52744   20.0398    3.046123   20         Bedding   
85.62255   16.40769   5.575652   20         Bedding   
85.67778   16.12124   3.097586   20         Bedding   
85.80357   27.56177   4.946187   20         Bedding   
85.89561   359.83     2.481443   20         Bedding   
85.96619   1.08775    3.103266   20         Bedding   
86.04903   5.199673   3.724375   20         Bedding   
86.138     19.89962   2.473688   20         Bedding   
86.22391   13.62881   6.19419    20         Bedding   
86.34664   13.62859   6.200236   20         Bedding   
86.43868   32.25695   0.248543   20         Bedding   
86.52766   9.415186   5.592739   20         Bedding   
86.59823   202.0231   3.754572   20         Bedding   
86.70255   197.4151   4.611799   20         Bedding   
86.8222    200.2722   1.534312   20         Bedding   
86.91425   190.2697   2.769778   20         Bedding   
86.99095   178.0675   4.008773   20         Bedding   
87.08299   173.0645   4.61699    20         Bedding   
87.19038   354.2963   1.624707   20         Bedding   
87.2947    353.805    6.758153   20         Bedding   
87.41743   356.7474   3.084398   20         Bedding   
87.5064    3.144751   1.229429   20         Bedding   
87.62299   3.527882   3.081708   20         Bedding   
87.69663   195.2688   0.8986545  20         Bedding   
87.76106   184.1121   0.6732178  20         Bedding   
87.88992   14.26522   2.807872   20         Bedding   
87.99117   6.065047   3.031411   20         Bedding   
88.13231   0.5425488  3.023365   20         Bedding   
88.27651   16.16504   1.250776   20         Bedding   
88.36549   340.1105   2.410195   20         Bedding   
88.48208   342.5188   4.258126   20         Bedding   
88.5864    357.9802   5.496515   20         Bedding   
88.66617   338.0612   7.933416   20         Bedding   
88.71219   291.9071   12.65032   20         Bedding   
88.81957   348.4026   2.419415   20         Bedding   
88.91162   324.1629   4.857916   20         Bedding   
89.01287   356.587    4.264095   20         Bedding   
89.10799   356.5994   3.651137   20         Bedding   
89.2123    3.600741   5.499195   20         Bedding   
89.27673   3.606046   6.112946   20         Bedding   
89.35344   3.56127    5.495411   20         Bedding   
89.46389   0.3682223  1.797007   20         Bedding   
89.58048   350.7878   5.465455   20         Bedding   
89.694     343.9616   3.036408   20         Bedding   
89.81673   343.8632   4.890809   20         Bedding   
89.94252   352.321    3.050331   20         Bedding   
90.0315    353.6603   9.201817   20         Bedding   
90.13582   14.98764   7.367225   20         "Resistive Nodular Event"
90.23707   129.5092   9.351972   20         "Resistive Nodular Event"
90.37514   346.1942   1.809411   20         Bedding   
90.46718   341.8213   2.208985   20         Bedding   
90.6574    351.0182   5.502475   20         Bedding   
90.76479   7.86047    3.039222   20         Bedding   
90.84456   199.9951   1.296091   20         Bedding   
90.94582   196.0779   2.752565   20         Bedding   
91.12376   197.3974   3.355378   20         Bedding   
91.23116   197.1879   3.92417    20         Bedding   
91.36002   200.3871   0.2293615  20         Bedding   
91.47968   238.8555   0.2851794  20         Bedding   
91.59013   219.7904   2.732684   20         Bedding   
91.65762   201.7628   2.083676   20         Bedding   
91.73126   195.7272   2.703015   20         Bedding   
91.8908    15.36462   1.009726   20         Bedding   
92.04115   346.9161   3.710052   20         Bedding   
