~VERSION INFORMATION
VERS .             3.00                          :CWLS LOG ASCII STANDARD - VERSION 2.0
WRAP .             NO                            :ONE LINE PER DEPTH STEP
DLM  .             SPACE                         :Delimiter
PROD .             Schlumberger Technology Corp. :LAS Producer
SOURCE.            Techlog                       :DATA SOURCE
#--------------------------------------------------
~WELL INFORMATION
#MNEM.UNIT    DATA                                                :DESCRIPTION
#----.-----   -----------------------                              -----------------------------
 STRT.M            105.37                                  :START DEPTH
 STOP.M            254.58                                  :STOP DEPTH
 STEP.M            0.00000                                 :STEP
NULL .             -999.25                                 :NULL VALUE
COMP .             SUNCOR ENERGY INC.                      :COMPANY
WELL .             SUNCOR LEWIS 6-34-91-8                  :WELL NAME
FLD  .             LEWIS                                   :FIELD NAME
LOC  .             6-34-091-08W4                           :FIELD LOCATION
PROV .             ALBERTA                                 :PROVINCE
SRVC .             Schlumberger                            :SERVICE COMPANY
DATE .             23-Feb-2014                             :LOG DATE
UWI  .             1AA063409108W400                        :UNIQUE WELL ID
LIC  .             0464072                                 :License Number
SON  .                                                     :Service Order Number
CTRY .             CA                                      :Country
LATI .deg          56.9345                                 :LATITUDE (N=+ S=-) (from LATD)
LONG .deg          -111.205                                :LONGITUDE (from LOND)
GDAT .                                                     :
~PARAMETER INFORMATION
#MNEM.UNIT    VALUE                                               :DESCRIPTION
#----.----    ---------------                                     :-------------------
SGOR .                                                     :
MVIS .                                                     :
MDEC .                                                     :
SEABDEPTH.                                                 :
TOWN .                                                     :
RUN-NUMBER.                                                :
NAME-SPACE-NAME.                                           :
KPER .                                                     :
TLLAB.                                                     :
TD_CALI_OFFSET.                                            :
EGL  .m            445.00                                  :
DC_TRIM.                                                   :
SEXP_HILT.                                                 :
TD   .                                                     :
DATE .             23-Feb-2014                             :
DATF .                                                     :
DATT .                                                     :
WN   .                                                     :
FL1  .                                                     :
FL2  .                                                     :
LOGSEQ.                                                    :
DMAG_CORR_ON.                                              :
OVERIDE_LOCB.                                              :
LOG_START_TIME.                                            :
LOND .deg          -111.21                                 :
LMF  .             KB                                      :
OVERIDE_LOCG.                                              :
GVIS .                                                     :
FLD  .             LEWIS                                   :
FVEL .                                                     :
PCODDRL.                                                   :
LATI .                                                     :
COMP .             .            :                          :
CREATION-TIME.                                             :
~CURVE INFORMATION
#MNEM.UNIT    VALUE          :DESCRIPTION
#----.----    ---------------  :-------------------
 DEPT.M                                          :Depth Channel (from TDEP)
Azim_APP.dega                                    :Dip Azimuth Appature {F}
Azim_TRU.dega                                    :Dip Azimuth {F}
HDev .deg                                        :Hole Deviation {F}
Dip_APP.dega                                     :Dipp Apperture {F}
Dip_TRU.dega                                     :Dip True Dip {F}
HAzi .deg                                        :Hole Azimuth {F}
Type .                                           :Dip Type {S}
~ASCII   DEPT     Azim_APP     Azim_TRU         HDev      Dip_APP      Dip_TRU         HAzi         Type
# ...
    188.02000    287.18000    290.81000      0.62000      9.16000      8.95000    218.67000 "Scour Surface"
    188.24000    294.81000    296.01000      0.62000     26.84000     26.70000    218.70000 "Cross Bedding"
    188.31000    264.90000    267.29000      0.62000     11.04000     10.62000    218.72000 "Scour Surface"
    188.37000    308.96000    310.16000      0.62000     27.44000     27.45000    218.72000 "Cross Bedding"
    188.45000    322.55000    323.72000      0.62000     27.31000     27.47000    218.69000 "Cross Bedding"
    188.53000    320.48000    321.70000      0.63000     26.48000     26.62000    218.67000 "Cross Bedding"
    188.62000    307.93000    309.17000      0.62000     26.72000     26.72000    218.65000 "Cross Bedding"
    188.63000    278.79000    282.14000      0.62000      9.48000      9.19000    218.65000 "Scour Surface"
    188.70000    310.15000    311.39000      0.62000     26.71000     26.74000    218.62000 "Cross Bedding"
    188.79000    307.67000    308.99000      0.62000     25.19000     25.18000    218.56000 "Cross Bedding"
    189.02000    279.25000    282.23000      0.62000     10.54000     10.25000    218.43000 "Scour Surface"
    189.05000    325.40000    326.55000      0.62000     26.89000     27.08000    218.42000 "Cross Bedding"
    189.15000    322.10000    323.25000      0.61000     27.09000     27.24000    218.39000 "Cross Bedding"
    189.22000    283.84000    286.96000      0.61000     10.32000     10.08000    218.37000 "Scour Surface"
    189.23000    323.49000    324.62000      0.61000     27.45000     27.62000    218.37000 "Cross Bedding"
    189.33000    316.96000    318.22000      0.61000     25.40000     25.50000    218.35000 "Cross Bedding"
    189.44000    316.82000    317.97000      0.60000     27.29000     27.39000    218.33000 "Cross Bedding"
    189.55000    322.12000    323.24000      0.60000     27.16000     27.30000    218.31000 "Cross Bedding"
    189.64000    319.68000    320.80000      0.59000     27.31000     27.43000    218.28000 "Cross Bedding"
    189.76000    338.14000    339.16000      0.59000     26.33000     26.63000    218.22000 "Cross Bedding"
    189.87000    344.47000    345.39000      0.58000     26.80000     27.15000    218.16000 "Cross Bedding"
    190.08000    287.46000    291.40000      0.58000      8.03000      7.84000    218.02000 "Bed Boundary"
    190.46000    283.46000    288.56000      0.58000      6.15000      5.94000    217.61000 "Scour Surface"
    190.56000      6.99000      7.57000      0.58000     26.72000     27.22000    217.52000 "Cross Bedding"
    190.64000     13.40000     13.85000      0.58000     27.35000     27.88000    217.45000 "Cross Bedding"
    190.73000     12.33000     12.81000      0.59000     26.93000     27.46000    217.44000 "Cross Bedding"
    190.83000    358.97000    359.69000      0.59000     26.69000     27.15000    217.44000 "Cross Bedding"
    190.95000    280.97000    283.72000      0.59000     11.20000     10.95000    217.44000 "Scour Surface"
    191.08000      7.76000      8.33000      0.60000     27.22000     27.74000    217.51000 "Cross Bedding"
    191.16000      9.55000     10.11000      0.60000     26.58000     27.11000    217.54000 "Cross Bedding"
    191.24000      2.73000      3.41000      0.60000     26.23000     26.73000    217.57000 "Cross Bedding"
    191.38000    268.63000    271.21000      0.61000     10.70000     10.33000    217.62000 "Scour Surface"
    191.50000    346.45000    347.36000      0.61000     27.29000     27.68000    217.65000 "Cross Bedding"
    191.60000    337.68000    338.66000      0.61000     28.01000     28.32000    217.63000 "Cross Bedding"
    191.70000    349.50000    350.33000      0.61000     28.32000     28.73000    217.55000 "Cross Bedding"
    191.81000    354.65000    355.39000      0.61000     28.87000     29.32000    217.44000 "Cross Bedding"
    191.92000    350.42000    351.20000      0.61000     29.21000     29.62000    217.32000 "Cross Bedding"
    192.05000    346.87000    347.66000      0.61000     30.11000     30.50000    217.15000 "Cross Bedding"
    192.13000    288.22000    291.59000      0.60000      9.84000      9.66000    217.02000 "Bed Boundary"
    192.35000    270.00000    272.66000      0.60000     10.59000     10.24000    216.66000 "Scour Surface"
    192.42000     10.03000     10.57000      0.60000     25.88000     26.41000    216.55000 "Cross Bedding"
    192.52000     10.57000     11.12000      0.60000     25.16000     25.70000    216.38000 "Cross Bedding"
    192.62000      7.93000      8.52000      0.59000     24.93000     25.45000    216.23000 "Cross Bedding"
    192.69000     11.51000     12.03000      0.59000     24.56000     25.10000    216.13000 "Cross Bedding"
    192.77000      8.75000      9.32000      0.59000     24.87000     25.40000    216.03000 "Cross Bedding"
    192.86000     17.62000     18.02000      0.59000     24.48000     25.04000    215.93000 "Cross Bedding"
    192.95000     14.90000     15.35000      0.59000     24.77000     25.31000    215.82000 "Cross Bedding"
    193.06000    300.35000    303.77000      0.58000      9.68000      9.65000    215.71000 "Bed Boundary"
    193.40000    308.01000    311.65000      0.58000      8.97000      9.02000    215.39000 "Scour Surface"
    193.51000     29.72000     29.81000      0.58000     30.49000     31.07000    215.29000 "Cross Bedding"
    193.60000     36.81000     36.78000      0.58000     30.02000     30.60000    215.21000 "Cross Bedding"
    193.67000    326.97000    329.69000      0.58000     10.95000     11.18000    215.15000 "Scour Surface"
    193.82000     27.63000     27.76000      0.58000     29.83000     30.41000    215.04000 "Cross Bedding"
    193.90000    309.63000    312.66000      0.58000     10.73000     10.79000    214.95000 "Scour Surface"
    194.02000     17.81000     18.10000      0.58000     29.59000     30.15000    214.77000 "Cross Bedding"
    194.09000    309.24000    312.33000      0.58000     10.58000     10.64000    214.68000 "Scour Surface"
    194.11000     26.24000     26.39000      0.58000     30.38000     30.96000    214.64000 "Cross Bedding"
    194.31000     23.48000     23.66000      0.58000     30.77000     31.34000    214.29000 "Cross Bedding"
    194.40000    331.70000    334.51000      0.58000     10.16000     10.44000    214.02000 "Bed Boundary"
    194.55000    333.89000    336.34000      0.59000     11.35000     11.65000    213.50000 "Bed Boundary"
    194.73000    313.77000    316.32000      0.59000     12.59000     12.71000    212.81000 "Bed Boundary"
    194.99000    303.55000    306.15000      0.58000     12.59000     12.62000    211.53000 "Bed Boundary"
    195.26000    316.87000    319.83000      0.57000     10.33000     10.50000    210.38000 "Bed Boundary"
    195.41000    309.95000    314.59000      0.57000      6.74000      6.86000    209.82000 "Bed Boundary"
    195.62000    275.53000    276.66000      0.56000     24.47000     24.25000    209.28000 "Cross Bedding"
    195.72000    287.59000    288.80000      0.55000     24.05000     23.95000    209.09000 "Cross Bedding"
    195.80000    272.01000    273.12000      0.55000     23.86000     23.61000    208.95000 "Cross Bedding"
    195.90000    287.58000    288.87000      0.54000     22.49000     22.39000    208.80000 "Cross Bedding"
    196.05000    294.22000    297.43000      0.53000      9.45000      9.43000    208.66000 "Erosional Surface"
    196.55000    282.20000    286.17000      0.52000      7.28000      7.15000    208.57000 "Bed Boundary"
    196.92000    258.90000    261.92000      0.52000      7.84000      7.51000    208.78000 "Bed Boundary"
    197.22000    271.02000    274.40000      0.52000      7.91000      7.68000    209.20000 "Bed Boundary"
    197.56000    310.07000    313.65000      0.52000      7.96000      8.06000    209.64000 "Bed Boundary"
    197.93000    293.30000    297.25000      0.51000      7.31000      7.27000    209.92000 "Bed Boundary"
    198.20000    307.61000    311.37000      0.50000      7.44000      7.52000    210.01000 "Bed Boundary"
