~Version
 VERS              .         2                             : CWLS LOG ASCII STANDARD - VERSION 2.0
 WRAP              .         NO                            : ONE LINE PER DEPTH STEP
 DLM               .         SPACE                         : DELIMITING CHARACTER(SPACE TAB OR COMMA)
~Well Information
#_______________________________________________________________________________
#
#PARAMETER_NAME    .UNIT     VALUE                         : DESCRIPTION
#_______________________________________________________________________________
STRT               .m        56.74727                      : First reference value
STOP               .m        182.3879                      : Last reference value
STEP               .m        0                             : Step increment
NULL               .         -999.25                       : Missing value
WELL               .         SUNCOR LEWIS 7-22-92-8        : Well name
FILE-ID            .         00001_STAR_RPT                                                   : 
FLD                .         UNDEFINED                     : 
FILE-NUMBER        .         1                             : 
WELL-NAME          .         SUNCOR LEWIS 7-22-92-8        : 
FILE-SET-NUMBER    .         51                            : 
SRC_UNIT           .         meters                        : 
PRODUCER-CODE      .         150                           : 
SRC_NAME           .         /dat1a/SUNCOR2016/CA003953/star_rpt.xtf: 
FILE-TYPE          .         EXCHANGE                      : 
VERSION            .         Access-5.49                   : 
NAME-SPACE-VERSION .         1                             : 
COMP               .         SUNCOR ENERGY INC             : 
FILE-SET-NAME      .         BAKERH                        : 
COMPANY            .         SUNCOR ENERGY INC             : 
ABSE_FVAL          .         -999.25                       : 
WN                 .         SUNCOR LEWIS 7-22-92-8        : 
NAME-SPACE-NAME    .         BAKERH                        : 
FIELD-NAME         .         UNDEFINED                     : 
CREATION-TIME      .         2016/1/16 16_45               : 
SRC_FILE           .         star_rpt.xtf                  : 
PRODUCER-NAME      .         ATLAS                         : 
HLD                .         IN MAKING INTERPRETATIONS OF LOGS OUR EMPLOYEES WILL GIVE CUSTOMER <_techsia_sc_>THE BENEFIT OF THEIR BEST JUDGEMENT. BUT SINCE ALL INTERPRETATIONS <_techsia_sc_>ARE OPINIONS BASED ON INFERENCES FROM ELECTRICAL OR OTHER <_techsia_sc_>MEASUREMENTS, WE CANNOT, AND WE DO NOT GUARANTEE THE ACCURACY OR <_techsia_sc_>CORRECTNESS OF ANY INTERPRETATION. WE SHALL NOT BE LIABLE OR <_techsia_sc_>RESPONSIBLE FOR ANY LOSS, COST, DAMAGES, OR EXPENSES WHATSOEVER <_techsia_sc_>INCURRED OR SUSTAINED BY THE CUSTOMER RESULTING FROM ANY <_techsia_sc_>INTERPRETATION MADE BY ANY OF OUR EMPLOYEES.: 
PRODUCT            .         WFM/eclips                    : 
PROGRAMS           .         Data Export                   : 
UWI                .         1AA072209208W400              : 
CTRY               .         CA                            : Two letter Internet country code
COUNTRY            .         CANADA                        : 
PROVINCE           .         Alberta                       : 
LATI               .Deg      57.0175 N                     : 
LONG               .W        -111.419 W                    : 
EREF               .m        440.70                        : 
DREF               .m        438.50                        : 
LSD                .         07                            : 
SEC                .         22                            : 
TWP                .         092                           : 
RGE                .         08W4                          : 
SON                .         003953J                       : 
LICENSE            .         0477502                       : 
EKB                .m        440.70                        : 
EGL                .m        438.50                        : 
Completion_date    .         16-Jan-2016                   : 
LOC                .                                       : 
DATE               .                                       : 
SRVC               .                                       : 
GDAT               .                                       : 
PROV               .                                       : 
LIC                .                                       : 
STAT               .                                       : 
CNTY               .                                       : 
API                .                                       : 
~Parameter Information Block
#_______________________________________________________________________________
#
#PARAMETER_NAME    .UNIT     VALUE                         : DESCRIPTION
#_______________________________________________________________________________
SET                .         Dip_All                       : 
REAL_CREATION_DATE .         Tue Jan 19 2016-16_48_55      : 
TLFamily_TDEP      .         Measured Depth                : 
TLFamily_Type      .         Dip Classification            : 
TLFamily_Quality   .         Dip Quality                   : 
TLFamily_Azimuth   .         True Dip Azimuth              : 
TLFamily_Dip_TRU   .         True Dip Inclination          : 
~Curve Information
#_______________________________________________________________________________
#
#LOGNAME           .UNIT     LOG_ID                        : DESCRIPTION
#_______________________________________________________________________________
TDEP               .m                                      :  
Azimuth            .dega                                   :  
Dip_TRU            .dega                                   :  
Quality            .unitless                               :  
Type               .unitless                               :  
~Ascii
# ...
122.7808   194.0474   2.270868   20         Bedding   
122.8451   176.761    1.675679   20         Bedding   
122.9403   217.5313   0.4126672  20         Bedding   
123.0262   202.9128   4.186866   20         Bedding   
123.0882   185.6945   2.592372   20         Bedding   
123.1256   189.7272   4.21929    20         Bedding   
123.163    196.2546   3.471284   20         Bedding   
123.2212   167.4075   3.566839   20         Bedding   
123.2778   160.1088   4.549739   20         Bedding   
123.3545   286.9731   26.32876   20         "Cross Bedding"
123.4404   275.4228   25.33953   20         "Cross Bedding"
123.5355   271.0954   23.81152   20         "Cross Bedding"
123.6092   268.2338   18.85506   20         "Cross Bedding"
123.6828   351.6482   1.109488   20         Bedding   
123.7656   341.5306   2.382926   20         Bedding   
123.8094   14.00544   1.116908   20         Bedding   
123.8669   337.1873   1.132187   20         "Discontinuity Boundary"
123.9774   249.5589   16.25569   20         "Cross Bedding"
124.0152   235.926    16.87258   20         "Cross Bedding"
124.1185   223.5643   18.65868   20         "Cross Bedding"
124.1565   231.0489   18.76888   20         "Cross Bedding"
124.1983   230.7867   18.74078   20         "Cross Bedding"
124.2412   230.7878   18.76869   20         "Cross Bedding"
124.3118   229.4191   15.86803   20         "Cross Bedding"
124.3477   240.9801   12.99265   20         "Cross Bedding"
124.3916   226.5511   15.27653   20         "Cross Bedding"
124.46     216.5684   12.94884   20         "Cross Bedding"
124.5051   235.4864   9.285522   20         "Cross Bedding"
124.5848   235.1174   18.78953   20         "Cross Bedding"
124.6387   272.5261   20.588     20         "Cross Bedding"
124.6922   284.0801   26.93331   20         "Cross Bedding"
124.7505   284.0825   26.96194   20         "Cross Bedding"
124.8088   284.0865   23.85138   20         "Cross Bedding"
124.8886   286.9611   24.91428   20         "Cross Bedding"
124.9408   286.9508   22.81613   20         "Cross Bedding"
124.9991   285.5219   21.15231   20         "Cross Bedding"
125.044    279.8512   20.67425   20         "Cross Bedding"
125.088    285.5183   18.93516   20         "Cross Bedding"
125.1647   288.3879   18.93188   20         "Cross Bedding"
125.2498   292.001    19.51438   20         "Cross Bedding"
125.3273   322.6807   12.98842   20         "Cross Bedding"
125.4194   301.2968   18.86657   20         "Cross Bedding"
125.4715   301.3013   18.86402   20         "Cross Bedding"
125.5298   302.7802   24.35219   20         "Cross Bedding"
125.582    301.335    22.74864   20         "Cross Bedding"
125.6556   308.5268   22.78356   20         "Cross Bedding"
125.717    314.2278   18.9256    20         "Cross Bedding"
125.7753   321.4329   20.58823   20         "Cross Bedding"
125.8234   326.0791   18.37906   20         "Cross Bedding"
125.8704   310.004    22.25173   20         "Cross Bedding"
125.9287   308.5387   18.92635   20         "Cross Bedding"
126.0023   310.0032   21.14432   20         "Cross Bedding"
126.0576   301.3849   18.89245   20         "Cross Bedding"
126.1159   311.4266   18.88214   20         "Cross Bedding"
126.168    309.9702   18.92717   20         "Cross Bedding"
126.2202   324.2552   18.93203   20         "Cross Bedding"
126.2578   323.5583   18.99053   20         "Cross Bedding"
126.3015   316.273    19.01845   20         "Cross Bedding"
126.343    314.0364   16.72121   20         Bedding   
126.4074   313.8531   19.05583   20         "Cross Bedding"
126.4534   282.6797   24.46811   20         "Cross Bedding"
126.5178   275.4985   25.48119   20         "Cross Bedding"
126.573    275.4806   29.43488   20         "Cross Bedding"
126.6129   275.4852   26.95415   20         "Cross Bedding"
126.6651   274.0081   25.94443   20         "Cross Bedding"
126.7264   273.9908   25.43704   20         "Cross Bedding"
126.7755   266.8091   25.42463   20         "Cross Bedding"
126.8185   275.4377   24.88818   20         "Cross Bedding"
126.8676   282.625    23.27314   20         "Cross Bedding"
126.9105   282.6228   26.74164   20         "Cross Bedding"
126.9872   284.0632   25.43188   20         "Cross Bedding"
127.0363   282.6377   21.82298   20         "Cross Bedding"
127.092    226.6886   12.80707   20         "Cross Bedding"
127.159    284.0964   13.05263   20         "Cross Bedding"
127.2081   272.5805   26.44944   20         "Cross Bedding"
127.2511   272.5925   25.44604   20         "Cross Bedding"
127.3124   272.5866   26.53857   20         "Cross Bedding"
127.3677   275.4588   26.08908   20         "Cross Bedding"
127.4352   288.3916   28.10209   20         "Cross Bedding"
127.4935   286.951    26.82081   20         "Cross Bedding"
127.5395   289.8278   27.42143   20         "Cross Bedding"
127.5917   284.0826   22.71004   20         "Cross Bedding"
127.6591   166.4378   3.842837   20         Bedding   
127.7389   297.0183   26.32532   20         "Cross Bedding"
127.8095   284.0834   22.70299   20         "Cross Bedding"
127.8985   309.8771   18.77484   20         "Cross Bedding"
127.9997   285.5469   18.60572   20         "Cross Bedding"
128.0519   291.1828   18.58929   20         "Cross Bedding"
128.0979   296.8867   18.59861   20         "Cross Bedding"
128.1348   286.8613   18.59759   20         "Cross Bedding"
128.1961   303.7551   9.253061   20         "Cross Bedding"
128.2575   230.9548   18.61943   20         "Cross Bedding"
128.2974   228.0832   18.65384   20         "Cross Bedding"
128.3557   232.4714   18.72875   20         "Cross Bedding"
128.393    228.7652   22.07941   20         "Cross Bedding"
128.4478   229.614    18.66327   20         "Cross Bedding"
128.4969   233.7133   19.78092   20         "Cross Bedding"
128.5613   249.6636   18.60884   20         "Cross Bedding"
128.6411   249.6936   18.64661   20         "Cross Bedding"
128.7116   268.2918   18.70994   20         "Cross Bedding"
128.8037   269.7217   18.66083   20         "Cross Bedding"
128.911    294.0435   20.28351   20         "Cross Bedding"
128.9755   285.4684   24.02423   20         "Cross Bedding"
129.0246   278.3006   23.50249   20         "Cross Bedding"
129.0798   268.2607   24.51032   20         "Cross Bedding"
129.1472   262.5306   23.96468   20         "Cross Bedding"
129.1994   262.5328   23.97192   20         "Cross Bedding"
129.2576   263.9958   21.33665   20         "Cross Bedding"
129.3221   274.0081   24.55547   20         "Cross Bedding"
129.3957   272.5889   23.56471   20         "Cross Bedding"
129.454    279.7817   18.75513   20         "Cross Bedding"
129.5028   279.8444   22.19051   20         "Cross Bedding"
129.5675   292.5477   20.01112   20         "Cross Bedding"
129.6442   302.6458   18.90878   20         "Cross Bedding"
129.7455   289.789    23.74272   20         "Cross Bedding"
129.8191   289.7752   26.06982   20         "Cross Bedding"
129.8743   299.7278   22.31578   20         "Cross Bedding"
129.9226   296.6852   19.10643   20         "Cross Bedding"
130.0062   258.1982   21.19231   20         "Cross Bedding"
130.043    258.1928   21.72801   20         "Cross Bedding"
130.0891   248.1387   23.29793   20         "Cross Bedding"
130.1412   245.2907   22.24623   20         "Cross Bedding"
130.1886   245.8089   21.21665   20         "Cross Bedding"
130.2271   245.3836   18.43531   20         "Cross Bedding"
130.2823   235.3587   18.40094   20         "Cross Bedding"
130.3528   236.7953   18.37801   20         "Cross Bedding"
130.3989   239.6607   18.38831   20         "Cross Bedding"
130.4449   241.0978   18.34473   20         "Cross Bedding"
130.4816   224.2275   14.90678   20         "Cross Bedding"
130.5185   238.2696   18.25578   20         "Cross Bedding"
130.573    241.0313   19.42232   20         "Cross Bedding"
130.6167   235.4201   18.26479   20         "Cross Bedding"
130.6582   231.3079   19.43809   20         "Cross Bedding"
130.6995   226.755    18.32008   20         "Cross Bedding"
130.7414   226.4847   17.78761   20         "Cross Bedding"
