~Version
 VERS              .         2                             : CWLS LOG ASCII STANDARD - VERSION 2.0
 WRAP              .         NO                            : ONE LINE PER DEPTH STEP
 DLM               .         SPACE                         : DELIMITING CHARACTER(SPACE TAB OR COMMA)
~Well Information
#_______________________________________________________________________________
#
#PARAMETER_NAME    .UNIT     VALUE                         : DESCRIPTION
#_______________________________________________________________________________
STRT               .m        56.74727                      : First reference value
STOP               .m        182.3879                      : Last reference value
STEP               .m        0                             : Step increment
NULL               .         -999.25                       : Missing value
WELL               .         SUNCOR LEWIS 7-22-92-8        : Well name
FILE-ID            .         00001_STAR_RPT                                                   : 
FLD                .         UNDEFINED                     : 
FILE-NUMBER        .         1                             : 
WELL-NAME          .         SUNCOR LEWIS 7-22-92-8        : 
FILE-SET-NUMBER    .         51                            : 
SRC_UNIT           .         meters                        : 
PRODUCER-CODE      .         150                           : 
SRC_NAME           .         /dat1a/SUNCOR2016/CA003953/star_rpt.xtf: 
FILE-TYPE          .         EXCHANGE                      : 
VERSION            .         Access-5.49                   : 
NAME-SPACE-VERSION .         1                             : 
COMP               .         SUNCOR ENERGY INC             : 
FILE-SET-NAME      .         BAKERH                        : 
COMPANY            .         SUNCOR ENERGY INC             : 
ABSE_FVAL          .         -999.25                       : 
WN                 .         SUNCOR LEWIS 7-22-92-8        : 
NAME-SPACE-NAME    .         BAKERH                        : 
FIELD-NAME         .         UNDEFINED                     : 
CREATION-TIME      .         2016/1/16 16_45               : 
SRC_FILE           .         star_rpt.xtf                  : 
PRODUCER-NAME      .         ATLAS                         : 
HLD                .         IN MAKING INTERPRETATIONS OF LOGS OUR EMPLOYEES WILL GIVE CUSTOMER <_techsia_sc_>THE BENEFIT OF THEIR BEST JUDGEMENT. BUT SINCE ALL INTERPRETATIONS <_techsia_sc_>ARE OPINIONS BASED ON INFERENCES FROM ELECTRICAL OR OTHER <_techsia_sc_>MEASUREMENTS, WE CANNOT, AND WE DO NOT GUARANTEE THE ACCURACY OR <_techsia_sc_>CORRECTNESS OF ANY INTERPRETATION. WE SHALL NOT BE LIABLE OR <_techsia_sc_>RESPONSIBLE FOR ANY LOSS, COST, DAMAGES, OR EXPENSES WHATSOEVER <_techsia_sc_>INCURRED OR SUSTAINED BY THE CUSTOMER RESULTING FROM ANY <_techsia_sc_>INTERPRETATION MADE BY ANY OF OUR EMPLOYEES.: 
PRODUCT            .         WFM/eclips                    : 
PROGRAMS           .         Data Export                   : 
UWI                .         1AA072209208W400              : 
CTRY               .         CA                            : Two letter Internet country code
COUNTRY            .         CANADA                        : 
PROVINCE           .         Alberta                       : 
LATI               .Deg      57.0175 N                     : 
LONG               .W        -111.419 W                    : 
EREF               .m        440.70                        : 
DREF               .m        438.50                        : 
LSD                .         07                            : 
SEC                .         22                            : 
TWP                .         092                           : 
RGE                .         08W4                          : 
SON                .         003953J                       : 
LICENSE            .         0477502                       : 
EKB                .m        440.70                        : 
EGL                .m        438.50                        : 
Completion_date    .         16-Jan-2016                   : 
LOC                .                                       : 
DATE               .                                       : 
SRVC               .                                       : 
GDAT               .                                       : 
PROV               .                                       : 
LIC                .                                       : 
STAT               .                                       : 
CNTY               .                                       : 
API                .                                       : 
~Parameter Information Block
#_______________________________________________________________________________
#
#PARAMETER_NAME    .UNIT     VALUE                         : DESCRIPTION
#_______________________________________________________________________________
SET                .         Dip_All                       : 
REAL_CREATION_DATE .         Tue Jan 19 2016-16_48_55      : 
TLFamily_TDEP      .         Measured Depth                : 
TLFamily_Type      .         Dip Classification            : 
TLFamily_Quality   .         Dip Quality                   : 
TLFamily_Azimuth   .         True Dip Azimuth              : 
TLFamily_Dip_TRU   .         True Dip Inclination          : 
~Curve Information
#_______________________________________________________________________________
#
#LOGNAME           .UNIT     LOG_ID                        : DESCRIPTION
#_______________________________________________________________________________
TDEP               .m                                      :  
Azimuth            .dega                                   :  
Dip_TRU            .dega                                   :  
Quality            .unitless                               :  
Type               .unitless                               :  
~Ascii
56.74727   321.4958   0.4420309  20         Bedding   
56.85159   338.5892   2.108674   20         Bedding   
56.95284   343.7331   3.074883   20         Bedding   
57.06943   345.3522   2.185715   20         Bedding   
57.12511   19.83624   2.966144   20         Bedding   
57.19522   3.446797   4.189843   20         Bedding   
57.30261   353.9926   5.391456   20         Bedding   
57.34749   325.0492   5.380114   20         Bedding   
57.39772   342.4041   4.732055   20         Bedding   
57.46523   350.1712   3.493651   20         Bedding   
57.59102   28.68242   0.3442828  20         Bedding   
57.69534   3.468906   2.827008   20         Bedding   
57.84261   9.086506   2.919115   20         Bedding   
57.92545   17.64812   5.47111    20         Bedding   
57.99908   19.91232   1.032435   20         Bedding   
58.13101   13.58849   2.934198   20         Bedding   
58.17256   356.6621   2.981996   20         Bedding   
58.23226   353.8492   6.684797   20         Bedding   
58.29103   348.6612   4.863701   20         Bedding   
58.34885   355.4731   5.439165   20         Bedding   
58.45317   328.9863   2.903334   20         Bedding   
58.5238    353.5284   4.235129   20         Bedding   
58.63396   346.5209   2.843108   20         Bedding   
58.74771   340.895    2.272279   20         Bedding   
58.85203   340.856    0.9798609  20         Bedding   
58.98396   10.79707   4.869483   20         Bedding   
59.10055   4.139475   2.34445    20         Bedding   
59.21714   165.3659   0.2467498  20         Bedding   
59.30612   352.5786   4.04379    20         Bedding   
59.39816   354.7717   2.334029   20         Bedding   
59.481     17.93027   2.348167   20         Bedding   
59.59452   16.18271   3.611499   20         Bedding   
59.69884   21.78893   5.468962   20         Bedding   
59.8277    9.128319   2.930444   20         Bedding   
59.90747   5.752197   5.451367   20         Bedding   
59.99032   11.91323   3.56652    20         Bedding   
60.07316   10.66168   2.934516   20         Bedding   
60.19895   11.79284   4.199851   20         Bedding   
60.26952   12.70988   2.30376    20         Bedding   
60.38918   30.45251   1.709147   20         Bedding   
60.52418   6.03926    3.560214   20         Bedding   
60.59781   354.2537   3.548745   20         Bedding   
60.69907   343.841    4.174314   20         Bedding   
60.76656   343.7825   4.804811   20         Bedding   
60.86781   337.9617   4.171073   20         Bedding   
60.96599   349.403    0.3748092  20         Bedding   
61.04576   355.4897   5.439769   20         Bedding   
61.08872   1.80486    1.017693   20         Bedding   
61.16542   5.868387   4.187705   20         Bedding   
61.25133   27.94117   3.576732   20         Bedding   
61.31707   341.5356   3.606945   20         Bedding   
61.35565   177.8517   1.52152    20         Bedding   
61.41267   353.7119   7.382278   20         Bedding   
61.4569    336.4509   5.201036   20         Bedding   
61.52075   351.8304   2.343523   20         Bedding   
61.55815   330.7938   2.269976   20         Bedding   
61.65633   332.0877   5.431293   20         Bedding   
61.70364   3.735105   5.783436   20         Bedding   
61.74837   330.7427   3.536679   20         Bedding   
61.83429   336.5095   5.431741   20         Bedding   
61.93246   336.5317   4.803241   20         Bedding   
62.00303   336.8221   2.274925   20         Bedding   
62.07154   184.5349   0.8129326  20         Bedding   
62.1411    330.7644   2.271896   20         Bedding   
62.17546   356.6133   2.982232   20         Bedding   
62.22087   340.8377   4.802053   20         Bedding   
62.2586    357.7418   1.078457   20         Bedding   
62.31599   300.7796   2.277446   20         Bedding   
62.35836   1.383468   3.617014   20         Bedding   
62.4111    338.8762   3.654552   20         Bedding   
62.45813   345.5237   2.638164   20         Bedding   
62.51848   334.1017   2.943789   20         Bedding   
62.57868   350.9756   2.405488   20         Bedding   
62.65962   330.4429   2.973389   20         Bedding   
62.70338   338.7015   1.771216   20         Bedding   
62.7578    321.7456   3.608681   20         Bedding   
62.81769   304.3648   4.988077   20         Bedding   
62.86825   281.6625   2.381992   20         Bedding   
62.92161   272.6718   6.237723   20         Bedding   
62.95723   268.3896   6.170194   20         Bedding   
63.0278    178.2094   8.999867   20         Bedding   
63.21803   11.34158   2.128651   20         Bedding   
63.26712   356.5342   0.4335326  20         Bedding   
63.42359   6.680664   6.747742   20         Bedding   
63.56166   356.5342   3.599688   20         Bedding   
63.69052   359.4332   4.23306    20         Bedding   
63.81631   352.2418   6.157828   20         Bedding   
63.90836   344.825    4.268309   20         Bedding   
64.00961   2.121726   6.086368   20         Bedding   
64.14767   337.2464   4.84433    20         Bedding   
64.26427   332.7119   3.582708   20         Bedding   
64.36552   348.7076   2.937863   20         Bedding   
64.46677   349.8007   1.666775   20         Bedding   
64.59869   337.5501   1.003487   20         Bedding   
64.70914   353.0402   1.005033   20         Bedding   
64.77665   37.70416   5.467619   20         Bedding   
64.83801   53.72449   5.484752   20         Bedding   
64.91161   4.777626   1.642999   20         Bedding   
64.9607    226.0883   2.982552   20         Bedding   
65.03433   223.1248   2.78538    20         Bedding   
65.08647   193.4434   4.709735   20         Bedding   
65.17238   26.89074   1.011708   20         Bedding   
65.24445   12.60939   1.437094   20         Bedding   
65.32267   23.06223   0.8092934  20         Bedding   
65.38864   29.1426    0.8143038  20         Bedding   
65.43926   26.39633   3.354183   20         Bedding   
65.48375   28.0682    2.720873   20         Bedding   
65.52057   163.3298   3.657326   20         Bedding   
65.59878   358.7457   0.357374   20         Bedding   
65.65247   355.7175   2.064917   20         Bedding   
65.68623   355.0389   0.1521469  20         Bedding   
65.75066   349.1183   0.7896157  20         Bedding   
65.81509   3.045579   6.475159   20         Bedding   
65.88406   18.43092   3.344888   20         Bedding   
65.95616   21.73616   2.718815   20         Bedding   
66.0298    194.7079   1.096727   20         Bedding   
66.10035   28.00475   2.295572   20         Bedding   
66.1433    17.32692   2.712002   20         Bedding   
66.19392   14.01714   3.340569   20         Bedding   
66.24301   11.55583   1.431166   20         Bedding   
66.32585   179.2801   0.4828969  20         Bedding   
66.38261   6.839971   2.891615   20         Bedding   
66.43476   12.99677   1.431586   20         Bedding   
66.50226   9.962405   0.1147888  20         Bedding   
66.57738   33.405     2.728374   20         Bedding   
66.67561   74.00645   5.29771    20         Bedding   
66.73083   63.22581   0.840822   20         Bedding   
66.79061   179.8712   1.115972   20         Bedding   
66.88726   5.8849     3.568696   20         Bedding   
66.97623   348.333    3.357617   20         Bedding   
67.05754   3.78186    4.656657   20         Bedding   
67.1158    333.3419   0.8533811  20         Bedding   
67.16642   328.9933   2.757904   20         Bedding   
67.24926   326.0942   2.75795    20         Bedding   
67.30602   205.5245   2.323608   20         Bedding   
67.35971   208.4233   1.4889     20         Bedding   
67.3996    196.8273   0.2179603  20         Bedding   
67.51307   15.37781   0.4177248  20         Bedding   
67.54375   275.3613   8.419697   20         Bedding   
67.61892   278.2603   8.416275   20         Bedding   
67.66646   318.8468   0.8530812  20         Bedding   
67.73242   314.4983   4.021608   20         Bedding   
67.84901   340.5896   4.022554   20         Bedding   
67.90423   349.4896   5.869914   20         Bedding   
67.97173   4.626041   2.083741   20         Bedding   
68.0423    4.986351   1.449287   20         Bedding   
