~Version
 VERS              .         2                             : CWLS LOG ASCII STANDARD - VERSION 2.0
 WRAP              .         NO                            : ONE LINE PER DEPTH STEP
 DLM               .         SPACE                         : DELIMITING CHARACTER(SPACE TAB OR COMMA)
~Well Information
#_______________________________________________________________________________
#
#PARAMETER_NAME    .UNIT     VALUE                         : DESCRIPTION
#_______________________________________________________________________________
STRT               .m        56.74727                      : First reference value
STOP               .m        182.3879                      : Last reference value
STEP               .m        0                             : Step increment
NULL               .         -999.25                       : Missing value
WELL               .         SUNCOR LEWIS 7-22-92-8        : Well name
FILE-ID            .         00001_STAR_RPT                                                   : 
FLD                .         UNDEFINED                     : 
FILE-NUMBER        .         1                             : 
WELL-NAME          .         SUNCOR LEWIS 7-22-92-8        : 
FILE-SET-NUMBER    .         51                            : 
SRC_UNIT           .         meters                        : 
PRODUCER-CODE      .         150                           : 
SRC_NAME           .         /dat1a/SUNCOR2016/CA003953/star_rpt.xtf: 
FILE-TYPE          .         EXCHANGE                      : 
VERSION            .         Access-5.49                   : 
NAME-SPACE-VERSION .         1                             : 
COMP               .         SUNCOR ENERGY INC             : 
FILE-SET-NAME      .         BAKERH                        : 
COMPANY            .         SUNCOR ENERGY INC             : 
ABSE_FVAL          .         -999.25                       : 
WN                 .         SUNCOR LEWIS 7-22-92-8        : 
NAME-SPACE-NAME    .         BAKERH                        : 
FIELD-NAME         .         UNDEFINED                     : 
CREATION-TIME      .         2016/1/16 16_45               : 
SRC_FILE           .         star_rpt.xtf                  : 
PRODUCER-NAME      .         ATLAS                         : 
HLD                .         IN MAKING INTERPRETATIONS OF LOGS OUR EMPLOYEES WILL GIVE CUSTOMER <_techsia_sc_>THE BENEFIT OF THEIR BEST JUDGEMENT. BUT SINCE ALL INTERPRETATIONS <_techsia_sc_>ARE OPINIONS BASED ON INFERENCES FROM ELECTRICAL OR OTHER <_techsia_sc_>MEASUREMENTS, WE CANNOT, AND WE DO NOT GUARANTEE THE ACCURACY OR <_techsia_sc_>CORRECTNESS OF ANY INTERPRETATION. WE SHALL NOT BE LIABLE OR <_techsia_sc_>RESPONSIBLE FOR ANY LOSS, COST, DAMAGES, OR EXPENSES WHATSOEVER <_techsia_sc_>INCURRED OR SUSTAINED BY THE CUSTOMER RESULTING FROM ANY <_techsia_sc_>INTERPRETATION MADE BY ANY OF OUR EMPLOYEES.: 
PRODUCT            .         WFM/eclips                    : 
PROGRAMS           .         Data Export                   : 
UWI                .         1AA072209208W400              : 
CTRY               .         CA                            : Two letter Internet country code
COUNTRY            .         CANADA                        : 
PROVINCE           .         Alberta                       : 
LATI               .Deg      57.0175 N                     : 
LONG               .W        -111.419 W                    : 
EREF               .m        440.70                        : 
DREF               .m        438.50                        : 
LSD                .         07                            : 
SEC                .         22                            : 
TWP                .         092                           : 
RGE                .         08W4                          : 
SON                .         003953J                       : 
LICENSE            .         0477502                       : 
EKB                .m        440.70                        : 
EGL                .m        438.50                        : 
Completion_date    .         16-Jan-2016                   : 
LOC                .                                       : 
DATE               .                                       : 
SRVC               .                                       : 
GDAT               .                                       : 
PROV               .                                       : 
LIC                .                                       : 
STAT               .                                       : 
CNTY               .                                       : 
API                .                                       : 
~Parameter Information Block
#_______________________________________________________________________________
#
#PARAMETER_NAME    .UNIT     VALUE                         : DESCRIPTION
#_______________________________________________________________________________
SET                .         Dip_All                       : 
REAL_CREATION_DATE .         Tue Jan 19 2016-16_48_55      : 
TLFamily_TDEP      .         Measured Depth                : 
TLFamily_Type      .         Dip Classification            : 
TLFamily_Quality   .         Dip Quality                   : 
TLFamily_Azimuth   .         True Dip Azimuth              : 
TLFamily_Dip_TRU   .         True Dip Inclination          : 
~Curve Information
#_______________________________________________________________________________
#
#LOGNAME           .UNIT     LOG_ID                        : DESCRIPTION
#_______________________________________________________________________________
TDEP               .m                                      :  
Azimuth            .dega                                   :  
Dip_TRU            .dega                                   :  
Quality            .unitless                               :  
Type               .unitless                               :  
~Ascii
# ...
139.2587   312.5543   23.39832   20         "Cross Bedding"
139.3291   350.646    4.304368   20         Bedding   
139.3905   351.2784   3.653519   20         Bedding   
139.4795   316.9537   27.86843   20         "Cross Bedding"
139.5286   321.18     24.23859   20         "Cross Bedding"
139.547    332.4727   18.73585   20         "Cross Bedding"
139.5961   355.569    7.951476   20         Bedding   
139.6482   349.1236   4.247757   20         Bedding   
139.7219   349.2468   2.652106   20         "Discontinuity Boundary"
139.8569   308.3127   26.78167   20         "Cross Bedding"
139.912    308.3094   26.34909   20         "Cross Bedding"
139.9519   308.2469   23.2276    20         "Cross Bedding"
140.0102   308.2765   25.19224   20         "Cross Bedding"
140.0624   298.242    25.53679   20         "Cross Bedding"
140.1145   291.1185   25.0435    20         "Cross Bedding"
140.2096   291.0753   24.64142   20         "Cross Bedding"
140.2863   293.89     22.00745   20         "Cross Bedding"
140.3569   271.0305   18.79262   20         "Cross Bedding"
140.4244   273.9708   18.85517   20         "Cross Bedding"
140.4643   283.9491   17.12651   20         "Cross Bedding"
140.5164   305.1537   13.59438   20         "Cross Bedding"
140.5747   244.1084   16.49908   20         "Cross Bedding"
140.6238   244.2872   14.1993    20         "Cross Bedding"
140.682    235.5038   18.78424   20         "Cross Bedding"
140.7373   236.9322   18.79359   20         "Cross Bedding"
140.7955   236.9319   18.86993   20         "Cross Bedding"
140.8784   228.359    18.89258   20         "Cross Bedding"
140.9459   232.654    18.92004   20         "Cross Bedding"
140.9796   229.7959   18.89589   20         "Cross Bedding"
141.0533   259.6833   23.95914   20         "Cross Bedding"
141.0914   231.5205   18.4244    20         "Cross Bedding"
141.1545   206.8351   18.83118   20         "Cross Bedding"
141.2141   233.9853   17.34818   20         "Cross Bedding"
141.2803   202.3758   18.81992   20         "Cross Bedding"
141.3386   199.4148   27.8597    20         "Cross Bedding"
141.4122   189.4736   22.40834   20         "Cross Bedding"
141.4828   258.7483   21.86607   20         "Cross Bedding"
141.5349   267.3192   20.78511   20         "Cross Bedding"
141.5994   268.7263   24.0413    20         "Cross Bedding"
141.6699   268.7323   23.43308   20         "Cross Bedding"
141.7497   288.7069   23.15029   20         "Cross Bedding"
141.8019   295.8147   21.70226   20         "Cross Bedding"
141.8694   342.9483   18.70377   20         "Cross Bedding"
141.9031   331.5455   3.756172   20         "Discontinuity Boundary"
141.9478   352.5208   1.415516   20         Bedding   
142.0044   320.6274   2.591144   20         Bedding   
142.0905   71.2326    0.4783646  20         Bedding   
142.1565   172.4756   0.4979734  20         Bedding   
142.247    20.41103   1.987245   20         Bedding   
142.3145   169.1421   3.503204   20         Bedding   
142.3851   182.9471   5.831573   20         Bedding   
142.4392   165.4421   4.134626   20         Bedding   
142.4893   179.4221   4.769045   20         Bedding   
142.5446   181.9267   2.25913    20         Bedding   
142.6305   180.2887   4.163999   20         Bedding   
142.7102   180.4587   5.392855   20         Bedding   
142.8081   338.5791   2.453964   20         Bedding   
142.897    327.757    2.539026   20         Bedding   
142.9584   330.3826   1.884575   20         "Discontinuity Boundary"
143.0442   154.2436   10.06505   20         "Deformed Bed Boundary"
143.1762   172.9834   11.6377    20         "Deformed Bed Boundary"
143.2559   182.1563   9.858396   20         "Deformed Bed Boundary"
143.3541   349.4761   6.591255   20         "Deformed Bed Boundary"
143.4861   350.4198   5.55891    20         "Deformed Bed Boundary"
143.5573   350.2114   6.261559   20         "Deformed Bed Boundary"
143.6272   346.3381   3.059671   20         "Deformed Bed Boundary"
143.6757   339.9733   5.062522   20         "Deformed Bed Boundary"
143.7223   345.2887   11.20556   20         "Deformed Bed Boundary"
143.7817   359.288    12.98762   20         "Deformed Bed Boundary"
143.8573   344.4095   8.127182   20         "Deformed Bed Boundary"
143.9334   358.2166   7.435828   20         "Deformed Bed Boundary"
143.9892   346.3844   5.574076   20         "Deformed Bed Boundary"
144.0685   359.7307   3.671861   20         "Deformed Bed Boundary"
144.1365   321.3559   6.37008    20         "Deformed Bed Boundary"
144.187    3.0678     4.307012   20         "Deformed Bed Boundary"
144.2347   314.2457   5.768595   20         "Deformed Bed Boundary"
144.3034   328.6674   6.384624   20         "Deformed Bed Boundary"
144.3726   260.563    8.358339   20         "Discontinuity Boundary"
144.4675   266.0291   7.380207   20         Bedding   
144.5216   279.7239   6.050194   20         Bedding   
144.5751   243.4772   8.370188   20         Bedding   
144.6774   267.4929   7.380207   20         Bedding   
144.799    339.969    5.015475   20         Bedding   
144.9953   338.5171   3.108456   20         Bedding   
145.0782   335.4388   3.746092   20         Bedding   
145.1303   140.5148   18.42353   20         Bedding   
145.207    343.3845   6.205512   20         Bedding   
145.3451   337.7266   6.234857   20         Bedding   
145.4136   323.5973   1.978072   20         Bedding   
145.4801   336.6261   6.895866   20         Bedding   
145.5813   327.5468   5.70373    20         Bedding   
145.6567   340.6816   4.062451   20         Bedding   
145.7532   327.993    4.445293   20         Bedding   
145.8421   326.2482   3.189092   20         Bedding   
145.925    317.1242   1.725078   20         Bedding   
145.9685   329.0713   1.301533   20         Bedding   
146.0416   155.1385   3.387371   20         Bedding   
146.1433   103.6721   3.846756   20         Bedding   
146.1929   108.9633   3.282088   20         Bedding   
146.2476   98.75784   5.097721   20         Bedding   
146.3213   98.74928   5.106084   20         Bedding   
146.4102   92.45003   3.84806    20         Bedding   
146.4839   113.5136   3.235845   20         Bedding   
146.5606   106.3523   1.952616   20         Bedding   
146.6315   154.7979   2.196305   20         Bedding   
146.6986   132.0539   2.666223   20         Bedding   
146.8152   140.1058   2.696807   20         Bedding   
146.9165   128.5238   4.534725   20         Bedding   
146.9619   126.0341   2.692197   20         Bedding   
147.0147   121.8967   1.982663   20         Bedding   
147.0852   122.3266   4.514973   20         Bedding   
147.165    138.9333   5.204542   20         Bedding   
147.2233   130.1959   8.903789   20         Bedding   
147.2736   144.4079   1.492146   20         Bedding   
147.3153   132.133    7.060943   20         Bedding   
147.4257   126.6707   5.16016    20         Bedding   
147.53     159.0801   4.68925    20         Bedding   
147.5853   151.6187   4.747386   20         Bedding   
147.6589   175.0113   0.9353324  20         Bedding   
147.6917   204.9736   3.141747   20         Bedding   
147.7448   176.1486   2.238146   20         Bedding   
147.8061   198.2972   1.157801   20         Bedding   
147.8338   171.6656   4.112949   20         Bedding   
147.8934   187.8595   2.386416   20         Bedding   
147.9319   138.1215   3.300987   20         "Discontinuity Boundary"
147.991    101.7775   15.95847   20         "Cross Bedding"
148.0515   84.86697   18.22683   20         "Cross Bedding"
148.1036   34.76297   20.06996   20         "Cross Bedding"
148.1469   15.2273    19.71794   20         "Cross Bedding"
148.1803   15.97562   24.54735   20         "Cross Bedding"
148.2113   12.8483    20.88138   20         "Cross Bedding"
148.2478   12.90449   20.82073   20         "Cross Bedding"
148.2841   15.31264   20.85861   20         "Cross Bedding"
148.3153   20.32945   24.00033   20         "Cross Bedding"
148.389    20.23432   21.86674   20         "Resistive Nodular Event"
148.7786   185.1123   9.007887   20         "Resistive Nodular Event"
