~VERSION INFORMATION
VERS .             3.00                          :CWLS LOG ASCII STANDARD - VERSION 2.0
WRAP .             NO                            :ONE LINE PER DEPTH STEP
DLM  .             SPACE                         :Delimiter
PROD .             Schlumberger Technology Corp. :LAS Producer
SOURCE.            Techlog                       :DATA SOURCE
#--------------------------------------------------
~WELL INFORMATION
#MNEM.UNIT    DATA                                                :DESCRIPTION
#----.-----   -----------------------                              -----------------------------
 STRT.M            105.37                                  :START DEPTH
 STOP.M            254.58                                  :STOP DEPTH
 STEP.M            0.00000                                 :STEP
NULL .             -999.25                                 :NULL VALUE
COMP .             SUNCOR ENERGY INC.                      :COMPANY
WELL .             SUNCOR LEWIS 6-34-91-8                  :WELL NAME
FLD  .             LEWIS                                   :FIELD NAME
LOC  .             6-34-091-08W4                           :FIELD LOCATION
PROV .             ALBERTA                                 :PROVINCE
SRVC .             Schlumberger                            :SERVICE COMPANY
DATE .             23-Feb-2014                             :LOG DATE
UWI  .             1AA063409108W400                        :UNIQUE WELL ID
LIC  .             0464072                                 :License Number
SON  .                                                     :Service Order Number
CTRY .             CA                                      :Country
LATI .deg          56.9345                                 :LATITUDE (N=+ S=-) (from LATD)
LONG .deg          -111.205                                :LONGITUDE (from LOND)
GDAT .                                                     :
~PARAMETER INFORMATION
#MNEM.UNIT    VALUE                                               :DESCRIPTION
#----.----    ---------------                                     :-------------------
SGOR .                                                     :
MVIS .                                                     :
MDEC .                                                     :
SEABDEPTH.                                                 :
TOWN .                                                     :
RUN-NUMBER.                                                :
NAME-SPACE-NAME.                                           :
KPER .                                                     :
TLLAB.                                                     :
TD_CALI_OFFSET.                                            :
EGL  .m            445.00                                  :
DC_TRIM.                                                   :
SEXP_HILT.                                                 :
TD   .                                                     :
DATE .             23-Feb-2014                             :
DATF .                                                     :
DATT .                                                     :
WN   .                                                     :
FL1  .                                                     :
FL2  .                                                     :
LOGSEQ.                                                    :
DMAG_CORR_ON.                                              :
OVERIDE_LOCB.                                              :
LOG_START_TIME.                                            :
LOND .deg          -111.21                                 :
LMF  .             KB                                      :
OVERIDE_LOCG.                                              :
GVIS .                                                     :
FLD  .             LEWIS                                   :
FVEL .                                                     :
PCODDRL.                                                   :
LATI .                                                     :
COMP .             .            :                          :
CREATION-TIME.                                             :
~CURVE INFORMATION
#MNEM.UNIT    VALUE          :DESCRIPTION
#----.----    ---------------  :-------------------
 DEPT.M                                          :Depth Channel (from TDEP)
Azim_APP.dega                                    :Dip Azimuth Appature {F}
Azim_TRU.dega                                    :Dip Azimuth {F}
HDev .deg                                        :Hole Deviation {F}
Dip_APP.dega                                     :Dipp Apperture {F}
Dip_TRU.dega                                     :Dip True Dip {F}
HAzi .deg                                        :Hole Azimuth {F}
Type .                                           :Dip Type {S}
~ASCII   DEPT     Azim_APP     Azim_TRU         HDev      Dip_APP      Dip_TRU         HAzi         Type
# ...
    127.73000     89.75000     86.70000      0.45000      5.10000      5.45000    229.70000 "Bed Boundary"
    127.99000     52.69000     52.40000      0.46000      5.32000      5.78000    229.02000 "Bed Boundary"
    128.23000     26.46000     29.60000      0.47000      2.75000      3.19000    228.25000 "Bed Boundary"
    128.45000     30.74000     32.86000      0.48000      3.30000      3.76000    227.66000 "Bed Boundary"
    128.72000     23.00000     25.19000      0.48000      4.72000      5.16000    227.11000 "Bed Boundary"
    128.91000     46.20000     46.28000      0.49000      3.57000      4.06000    226.87000 "Bed Boundary"
    129.11000     86.52000     79.95000      0.49000      2.32000      2.71000    226.83000 "Bed Boundary"
    129.46000     16.44000     19.46000      0.49000      4.23000      4.66000    226.78000 "Bed Boundary"
    129.83000    187.18000    184.43000      0.49000      6.86000      6.49000    226.83000 "Bed Boundary"
    130.28000    178.84000    174.69000      0.49000      5.36000      5.04000    226.59000 "Bed Boundary"
    130.65000    206.44000    204.34000      0.50000      5.04000      4.58000    226.22000 "Nodular Event"
    130.82000    354.74000    359.99000      0.50000      3.94000      4.27000    226.15000 "Nodular Event"
    131.10000     44.81000     44.94000      0.50000      4.87000      5.38000    226.18000 "Bed Boundary"
    131.46000     14.92000     17.59000      0.51000      5.30000      5.74000    226.51000 "Bed Boundary"
    131.86000     34.98000     36.34000      0.52000      4.01000      4.52000    226.93000 "Bed Boundary"
    132.31000     20.05000     22.36000      0.51000      5.34000      5.79000    227.38000 "Bed Boundary"
    132.71000     40.00000     40.65000      0.50000      5.70000      6.20000    228.00000 "Bed Boundary"
    133.16000     51.38000     51.22000      0.50000      8.04000      8.54000    228.64000 "Bed Boundary"
    133.55000     67.26000     66.09000      0.50000      7.19000      7.67000    228.94000 "Bed Boundary"
    133.86000     44.34000     44.70000      0.51000      6.31000      6.81000    229.15000 "Bed Boundary"
    134.28000     48.06000     48.17000      0.52000      6.05000      6.57000    229.57000 "Bed Boundary"
    134.79000     25.44000     27.04000      0.53000      7.18000      7.67000    229.47000 "Bed Boundary"
    135.14000     65.41000     63.71000      0.54000      4.67000      5.19000    228.72000 "Bed Boundary"
    135.48000     23.32000     25.06000      0.54000      6.84000      7.33000    227.65000 "Bed Boundary"
    135.95000     14.11000     17.11000      0.54000      5.06000      5.53000    226.35000 "Bed Boundary"
    136.27000     43.84000     44.02000      0.54000      5.32000      5.86000    225.80000 "Bed Boundary"
    136.57000     32.85000     34.01000      0.54000      5.27000      5.80000    225.44000 "Bed Boundary"
    136.95000     47.14000     46.93000      0.54000      4.55000      5.09000    225.16000 "Bed Boundary"
    137.30000     57.34000     56.00000      0.54000      4.48000      5.00000    224.74000 "Bed Boundary"
    137.65000    225.21000    225.43000      0.54000      3.75000      3.22000    223.91000 "Bed Boundary"
    137.96000    172.07000    165.27000      0.53000      3.79000      3.48000    223.00000 "Bed Boundary"
    138.27000    105.38000    100.53000      0.53000      5.30000      5.55000    222.06000 "Bed Boundary"
    138.64000     71.51000     67.90000      0.52000      3.72000      4.18000    221.01000 "Bed Boundary"
    139.02000    212.29000    211.10000      0.52000      4.00000      3.49000    220.37000 "Nodular Event"
    139.17000    217.55000    217.27000      0.52000      5.39000      4.87000    220.19000 "Nodular Event"
    139.29000    190.07000    187.29000      0.52000      5.79000      5.34000    220.15000 "Bed Boundary"
    139.63000    191.45000    189.12000      0.53000      6.61000      6.16000    220.04000 "Bed Boundary"
    139.92000    232.32000    233.26000      0.53000      7.46000      6.94000    219.90000 "Bed Boundary"
    140.23000    227.46000    228.08000      0.54000      7.32000      6.79000    219.65000 "Bed Boundary"
    140.42000    206.08000    204.99000      0.54000      7.07000      6.55000    219.55000 "Bed Boundary"
    140.59000    225.96000    226.68000      0.54000      5.33000      4.79000    219.54000 "Bed Boundary"
    140.75000    235.25000    236.59000      0.54000      6.69000      6.18000    219.65000 "Bed Boundary"
    140.97000    267.32000    269.36000      0.54000     11.34000     10.98000    219.95000 "Bed Boundary"
    141.30000    197.10000    195.15000      0.54000      6.79000      6.30000    220.55000 "Bed Boundary"
    141.70000    214.18000    213.51000      0.54000      6.13000      5.59000    221.15000 "Bed Boundary"
    142.04000    215.46000    214.95000      0.55000      6.87000      6.33000    221.44000 "Bed Boundary"
    142.33000    234.97000    236.14000      0.55000      6.83000      6.29000    221.53000 "Bed Boundary"
    142.79000    262.72000    265.11000      0.56000      9.09000      8.68000    221.65000 "Bed Boundary"
    143.19000    156.60000    150.27000      0.55000      4.75000      4.54000    221.80000 "Bed Boundary"
    143.41000    180.25000    174.52000      0.55000      4.06000      3.66000    221.86000 "Bed Boundary"
    143.80000    350.14000    352.10000      0.55000     12.05000     12.40000    221.80000 "Lat. Accretion"
    144.13000    324.16000    326.88000      0.55000     11.01000     11.14000    221.79000 "Lat. Accretion"
    144.44000    321.26000    324.12000      0.55000     10.65000     10.75000    222.02000 "Lat. Accretion"
    144.79000    332.35000    335.18000      0.55000     10.14000     10.34000    222.51000 "Lat. Accretion"
    145.15000    347.89000    350.95000      0.54000      7.96000      8.28000    222.96000 "Lat. Accretion"
    145.36000    328.26000    331.16000      0.54000     10.00000     10.16000    223.14000 "Lat. Accretion"
    145.66000    329.11000    332.72000      0.53000      7.92000      8.08000    223.35000 "Lat. Accretion"
    146.05000    343.35000    346.91000      0.53000      7.13000      7.41000    223.82000 "Lat. Accretion"
    146.50000    346.18000    350.61000      0.54000      5.60000      5.89000    224.81000 "Lat. Accretion"
    146.80000    349.46000    353.66000      0.53000      5.72000      6.03000    225.51000 "Lat. Accretion"
    147.10000    337.82000    344.11000      0.53000      4.27000      4.50000    225.79000 "Lat. Accretion"
    147.41000    326.02000    331.24000      0.53000      5.58000      5.70000    225.87000 "Lat. Accretion"
    147.64000    343.30000    349.34000      0.52000      4.13000      4.40000    225.63000 "Lat. Accretion"
    147.88000    308.90000    313.34000      0.52000      6.66000      6.62000    225.30000 "Lat. Accretion"
    148.05000    342.69000    346.31000      0.51000      6.91000      7.16000    225.00000 "Lat. Accretion"
    148.32000      1.70000      4.83000      0.51000      5.90000      6.28000    224.57000 "Lat. Accretion"
    148.68000     15.17000     17.17000      0.50000      6.48000      6.93000    224.21000 "Lat. Accretion"
    148.95000     74.37000     72.20000      0.50000      6.20000      6.64000    224.24000 "Lat. Accretion"
    149.24000    183.23000    180.58000      0.51000      7.56000      7.19000    224.64000 "Lat. Accretion"
    149.52000    175.39000    171.28000      0.51000      5.71000      5.39000    225.27000 "Lat. Accretion"
    149.90000    181.98000    178.97000      0.50000      6.97000      6.62000    225.81000 "Lat. Accretion"
    150.26000    143.14000    138.78000      0.50000      6.52000      6.47000    225.78000 "Lat. Accretion"
    150.55000    181.33000    178.20000      0.50000      6.65000      6.30000    225.56000 "Scour Surface"
    150.59000    164.85000    163.76000      0.50000     21.79000     21.55000    225.54000 "Cross Bedding"
    150.67000    171.84000    170.86000      0.50000     22.47000     22.18000    225.52000 "Cross Bedding"
