~VERSION INFORMATION
VERS .             3.00                          :CWLS LOG ASCII STANDARD - VERSION 2.0
WRAP .             NO                            :ONE LINE PER DEPTH STEP
DLM  .             SPACE                         :Delimiter
PROD .             Schlumberger Technology Corp. :LAS Producer
SOURCE.            Techlog                       :DATA SOURCE
#--------------------------------------------------
~WELL INFORMATION
#MNEM.UNIT    DATA                                                :DESCRIPTION
#----.-----   -----------------------                              -----------------------------
 STRT.M            105.37                                  :START DEPTH
 STOP.M            254.58                                  :STOP DEPTH
 STEP.M            0.00000                                 :STEP
NULL .             -999.25                                 :NULL VALUE
COMP .             SUNCOR ENERGY INC.                      :COMPANY
WELL .             SUNCOR LEWIS 6-34-91-8                  :WELL NAME
FLD  .             LEWIS                                   :FIELD NAME
LOC  .             6-34-091-08W4                           :FIELD LOCATION
PROV .             ALBERTA                                 :PROVINCE
SRVC .             Schlumberger                            :SERVICE COMPANY
DATE .             23-Feb-2014                             :LOG DATE
UWI  .             1AA063409108W400                        :UNIQUE WELL ID
LIC  .             0464072                                 :License Number
SON  .                                                     :Service Order Number
CTRY .             CA                                      :Country
LATI .deg          56.9345                                 :LATITUDE (N=+ S=-) (from LATD)
LONG .deg          -111.205                                :LONGITUDE (from LOND)
GDAT .                                                     :
~PARAMETER INFORMATION
#MNEM.UNIT    VALUE                                               :DESCRIPTION
#----.----    ---------------                                     :-------------------
SGOR .                                                     :
MVIS .                                                     :
MDEC .                                                     :
SEABDEPTH.                                                 :
TOWN .                                                     :
RUN-NUMBER.                                                :
NAME-SPACE-NAME.                                           :
KPER .                                                     :
TLLAB.                                                     :
TD_CALI_OFFSET.                                            :
EGL  .m            445.00                                  :
DC_TRIM.                                                   :
SEXP_HILT.                                                 :
TD   .                                                     :
DATE .             23-Feb-2014                             :
DATF .                                                     :
DATT .                                                     :
WN   .                                                     :
FL1  .                                                     :
FL2  .                                                     :
LOGSEQ.                                                    :
DMAG_CORR_ON.                                              :
OVERIDE_LOCB.                                              :
LOG_START_TIME.                                            :
LOND .deg          -111.21                                 :
LMF  .             KB                                      :
OVERIDE_LOCG.                                              :
GVIS .                                                     :
FLD  .             LEWIS                                   :
FVEL .                                                     :
PCODDRL.                                                   :
LATI .                                                     :
COMP .             .            :                          :
CREATION-TIME.                                             :
~CURVE INFORMATION
#MNEM.UNIT    VALUE          :DESCRIPTION
#----.----    ---------------  :-------------------
 DEPT.M                                          :Depth Channel (from TDEP)
Azim_APP.dega                                    :Dip Azimuth Appature {F}
Azim_TRU.dega                                    :Dip Azimuth {F}
HDev .deg                                        :Hole Deviation {F}
Dip_APP.dega                                     :Dipp Apperture {F}
Dip_TRU.dega                                     :Dip True Dip {F}
HAzi .deg                                        :Hole Azimuth {F}
Type .                                           :Dip Type {S}
~ASCII   DEPT     Azim_APP     Azim_TRU         HDev      Dip_APP      Dip_TRU         HAzi         Type
# ...
    245.10000      2.86000      3.86000      0.51000     13.32000     13.77000    211.74000 "Bed Boundary"
    245.13000    115.58000    115.19000      0.51000     52.29000     52.35000    211.75000 "Disc. Conductive Fracture"
    245.41000    348.28000    349.87000      0.52000     12.31000     12.69000    212.07000 "Bed Boundary"
    245.47000    145.31000    145.07000      0.52000     63.80000     63.60000    212.17000 "Disc. Conductive Fracture"
    245.61000    337.80000    340.00000      0.52000     10.62000     10.93000    212.39000 "Bed Boundary"
    245.69000    184.37000    184.23000      0.52000     61.14000     60.68000    212.51000 "Disc. Conductive Fracture"
    245.82000    146.12000    145.88000      0.53000     63.76000     63.55000    212.66000 "Disc. Conductive Fracture"
    245.96000    350.34000    352.36000      0.53000      9.58000      9.98000    212.73000 "Bed Boundary"
    246.15000    308.85000    308.90000      0.53000     83.66000     83.73000    212.65000 "Disc. Conductive Fracture"
    246.16000    341.21000    343.33000      0.53000     10.76000     11.10000    212.62000 "Bed Boundary"
    246.38000    348.77000    350.65000      0.54000     10.72000     11.11000    212.19000 "Bed Boundary"
    246.61000    346.55000    348.50000      0.55000     10.67000     11.07000    210.98000 "Bed Boundary"
    246.78000    129.04000    128.94000      0.55000     79.56000     79.48000    210.32000 "Disc. Conductive Fracture"
    246.86000    343.14000    345.21000      0.55000     10.67000     11.05000    209.99000 "Bed Boundary"
    247.09000    338.93000    340.94000      0.56000     11.70000     12.07000    209.23000 "Bed Boundary"
    247.27000    346.82000    348.46000      0.56000     12.52000     12.95000    208.68000 "Bed Boundary"
    247.39000    229.37000    229.45000      0.57000     67.58000     67.05000    208.41000 "Disc. Conductive Fracture"
    247.46000    343.32000    345.14000      0.57000     12.06000     12.47000    208.29000 "Bed Boundary"
    247.69000    323.25000    324.65000      0.58000     20.31000     20.57000    207.94000 "Bed Boundary"
    247.70000    149.14000    149.00000      0.58000     73.69000     73.39000    207.93000 "Disc. Conductive Fracture"
    247.73000    257.13000    257.27000      0.58000     72.36000     71.98000    207.89000 "Sealed Shear"
    247.81000    270.75000    271.07000      0.58000     59.10000     58.84000    207.81000 "Disc. Conductive Fracture"
    247.95000      2.71000      3.60000      0.59000     14.97000     15.51000    207.67000 "Bed Boundary"
    248.02000    118.11000    117.72000      0.59000     56.26000     56.26000    207.61000 "Disc. Conductive Fracture"
    248.14000    354.77000    356.01000      0.59000     14.02000     14.52000    207.53000 "Bed Boundary"
    248.30000    339.82000    341.59000      0.60000     13.59000     14.00000    207.39000 "Bed Boundary"
    248.42000    266.19000    266.38000      0.60000     70.01000     69.70000    207.31000 "Disc. Conductive Fracture"
    248.55000      3.17000      4.30000      0.60000     11.71000     12.27000    207.18000 "Bed Boundary"
    248.60000    249.49000    249.80000      0.61000     53.09000     52.64000    207.13000 "Disc. Conductive Fracture"
    248.76000      8.60000      9.46000      0.61000     12.12000     12.70000    206.99000 "Bed Boundary"
    248.80000    101.39000    101.10000      0.61000     63.63000     63.80000    206.96000 "Disc. Conductive Fracture"
    248.92000    353.31000    354.89000      0.62000     11.71000     12.23000    206.87000 "Bed Boundary"
    249.07000    103.26000    102.98000      0.62000     65.74000     65.89000    206.76000 "Disc. Conductive Fracture"
    249.10000      8.30000      9.11000      0.62000     13.10000     13.69000    206.74000 "Bed Boundary"
    249.38000      8.17000      8.91000      0.63000     14.53000     15.14000    206.64000 "Bed Boundary"
    249.40000    231.78000    232.16000      0.63000     35.75000     35.18000    206.64000 "Disc. Conductive Fracture"
    249.67000     20.99000     21.14000      0.64000     21.55000     22.19000    206.55000 "Bed Boundary"
    249.95000     15.60000     16.02000      0.66000     15.43000     16.07000    206.38000 "Bed Boundary"
    250.25000    355.27000    356.95000      0.67000     10.93000     11.51000    206.06000 "Bed Boundary"
    250.61000    357.09000    358.65000      0.68000     11.25000     11.86000    205.67000 "Bed Boundary"
    250.88000    347.48000    349.54000      0.69000     11.19000     11.75000    205.58000 "Bed Boundary"
    251.23000    356.81000    358.38000      0.71000     11.77000     12.39000    205.87000 "Bed Boundary"
    251.58000    351.02000    353.05000      0.72000     11.17000     11.77000    206.80000 "Bed Boundary"
    251.66000    253.27000    253.82000      0.72000     43.95000     43.45000    206.99000 "Disc. Conductive Fracture"
    252.12000     63.04000     61.97000      0.73000     20.80000     21.40000    208.04000 "Bed Boundary"
    252.52000     75.09000     74.68000      0.73000     51.52000     52.02000    209.12000 "Disc. Conductive Fracture"
    252.58000     53.26000     52.31000      0.73000     16.72000     17.39000    209.30000 "Bed Boundary"
    252.95000    212.79000    212.80000      0.72000     66.79000     66.07000    210.44000 "Disc. Conductive Fracture"
    253.03000      9.37000     10.16000      0.72000     17.68000     18.35000    210.66000 "Bed Boundary"
    253.31000     11.90000     12.89000      0.72000     12.85000     13.53000    211.28000 "Bed Boundary"
    253.60000    353.54000    355.76000      0.72000     10.91000     11.49000    212.03000 "Bed Boundary"
    253.87000     11.01000     12.49000      0.74000      9.67000     10.36000    212.58000 "Bed Boundary"
    254.15000     11.08000     12.46000      0.76000     11.08000     11.78000    213.36000 "Bed Boundary"
    254.58000    344.46000    346.13000      0.80000     19.56000     20.08000    214.40000 "Bed Boundary"
