~VERSION INFORMATION
VERS .             3.00                          :CWLS LOG ASCII STANDARD - VERSION 2.0
WRAP .             NO                            :ONE LINE PER DEPTH STEP
DLM  .             SPACE                         :Delimiter
PROD .             Schlumberger Technology Corp. :LAS Producer
SOURCE.            Techlog                       :DATA SOURCE
#--------------------------------------------------
~WELL INFORMATION
#MNEM.UNIT    DATA                                                :DESCRIPTION
#----.-----   -----------------------                              -----------------------------
 STRT.M            105.37                                  :START DEPTH
 STOP.M            254.58                                  :STOP DEPTH
 STEP.M            0.00000                                 :STEP
NULL .             -999.25                                 :NULL VALUE
COMP .             SUNCOR ENERGY INC.                      :COMPANY
WELL .             SUNCOR LEWIS 6-34-91-8                  :WELL NAME
FLD  .             LEWIS                                   :FIELD NAME
LOC  .             6-34-091-08W4                           :FIELD LOCATION
PROV .             ALBERTA                                 :PROVINCE
SRVC .             Schlumberger                            :SERVICE COMPANY
DATE .             23-Feb-2014                             :LOG DATE
UWI  .             1AA063409108W400                        :UNIQUE WELL ID
LIC  .             0464072                                 :License Number
SON  .                                                     :Service Order Number
CTRY .             CA                                      :Country
LATI .deg          56.9345                                 :LATITUDE (N=+ S=-) (from LATD)
LONG .deg          -111.205                                :LONGITUDE (from LOND)
GDAT .                                                     :
~PARAMETER INFORMATION
#MNEM.UNIT    VALUE                                               :DESCRIPTION
#----.----    ---------------                                     :-------------------
SGOR .                                                     :
MVIS .                                                     :
MDEC .                                                     :
SEABDEPTH.                                                 :
TOWN .                                                     :
RUN-NUMBER.                                                :
NAME-SPACE-NAME.                                           :
KPER .                                                     :
TLLAB.                                                     :
TD_CALI_OFFSET.                                            :
EGL  .m            445.00                                  :
DC_TRIM.                                                   :
SEXP_HILT.                                                 :
TD   .                                                     :
DATE .             23-Feb-2014                             :
DATF .                                                     :
DATT .                                                     :
WN   .                                                     :
FL1  .                                                     :
FL2  .                                                     :
LOGSEQ.                                                    :
DMAG_CORR_ON.                                              :
OVERIDE_LOCB.                                              :
LOG_START_TIME.                                            :
LOND .deg          -111.21                                 :
LMF  .             KB                                      :
OVERIDE_LOCG.                                              :
GVIS .                                                     :
FLD  .             LEWIS                                   :
FVEL .                                                     :
PCODDRL.                                                   :
LATI .                                                     :
COMP .             .            :                          :
CREATION-TIME.                                             :
~CURVE INFORMATION
#MNEM.UNIT    VALUE          :DESCRIPTION
#----.----    ---------------  :-------------------
 DEPT.M                                          :Depth Channel (from TDEP)
Azim_APP.dega                                    :Dip Azimuth Appature {F}
Azim_TRU.dega                                    :Dip Azimuth {F}
HDev .deg                                        :Hole Deviation {F}
Dip_APP.dega                                     :Dipp Apperture {F}
Dip_TRU.dega                                     :Dip True Dip {F}
HAzi .deg                                        :Hole Azimuth {F}
Type .                                           :Dip Type {S}
~ASCII   DEPT     Azim_APP     Azim_TRU         HDev      Dip_APP      Dip_TRU         HAzi         Type
# ...
    150.75000    170.54000    169.61000      0.50000     23.78000     23.50000    225.52000 "Cross Bedding"
    150.79000    175.32000    172.00000      0.50000      6.86000      6.55000    225.52000 "Scour Surface"
    150.84000    178.43000    177.56000      0.50000     23.16000     22.83000    225.53000 "Cross Bedding"
    150.90000    175.99000    175.13000      0.50000     24.04000     23.72000    225.53000 "Cross Bedding"
    151.19000    193.93000    191.03000      0.50000      5.58000      5.16000    225.61000 "Lat. Accretion"
    151.47000    176.19000    172.28000      0.50000      5.93000      5.62000    225.82000 "Lat. Accretion"
    151.79000    153.06000    148.72000      0.51000      6.54000      6.41000    225.85000 "Lat. Accretion"
    152.25000    240.83000    241.66000      0.51000      9.58000      9.09000    225.75000 "Lat. Accretion"
    152.55000    254.60000    256.36000      0.51000      8.38000      7.93000    225.87000 "Lat. Accretion"
    152.87000    150.27000    144.82000      0.51000      5.33000      5.23000    226.39000 "Lat. Accretion"
    153.17000    156.31000    153.55000      0.52000     10.20000     10.04000    227.02000 "Lat. Accretion"
    153.45000    214.67000    213.84000      0.52000      8.45000      7.94000    227.53000 "Lat. Accretion"
    153.72000    202.01000    200.13000      0.52000      7.39000      6.92000    227.85000 "Lat. Accretion"
    153.92000    236.25000    237.23000      0.53000      4.89000      4.37000    228.06000 "Lat. Accretion"
    154.23000    200.48000    198.08000      0.53000      6.37000      5.91000    228.38000 "Lat. Accretion"
    154.53000    243.36000    244.29000      0.54000      8.69000      8.17000    228.87000 "Lat. Accretion"
    154.85000     15.91000     19.77000      0.54000      3.97000      4.43000    229.48000 "Lat. Accretion"
    155.02000      5.04000      7.72000      0.54000      7.70000      8.09000    229.76000 "Lat. Accretion"
    155.31000    346.30000    351.05000      0.54000      5.59000      5.85000    230.10000 "Lat. Accretion"
    155.58000      6.84000      9.96000      0.54000      6.40000      6.80000    230.19000 "Lat. Accretion"
    155.98000    248.65000    250.15000      0.54000      6.97000      6.47000    230.17000 "Lat. Accretion"
    156.31000     19.52000     21.56000      0.54000      7.18000      7.65000    230.20000 "Lat. Accretion"
    156.53000    349.06000    352.07000      0.53000      8.54000      8.81000    230.30000 "Lat. Accretion"
    156.71000     11.23000     13.51000      0.53000      7.97000      8.39000    230.50000 "Lat. Accretion"
    156.93000    356.40000    359.11000      0.52000      8.61000      8.93000    230.75000 "Lat. Accretion"
    157.16000    339.49000    343.60000      0.52000      6.65000      6.84000    230.89000 "Lat. Accretion"
    157.61000    339.73000    342.17000      0.52000     11.18000     11.37000    230.48000 "Lat. Accretion"
    158.02000    175.35000    171.99000      0.53000      7.52000      7.22000    229.25000 "Lat. Accretion"
    158.43000    174.14000    170.95000      0.54000      8.04000      7.74000    227.87000 "Lat. Accretion"
    158.81000    195.41000    193.18000      0.54000      7.78000      7.33000    227.46000 "Lat. Accretion"
    159.17000    207.60000    206.46000      0.53000      9.87000      9.38000    228.32000 "Lat. Accretion"
    159.36000    191.33000    189.49000      0.53000     10.32000      9.91000    229.05000 "Lat. Accretion"
    159.60000    178.04000    175.62000      0.52000      9.92000      9.60000    229.87000 "Lat. Accretion"
    159.87000    196.20000    193.33000      0.51000      6.22000      5.80000    230.79000 "Lat. Accretion"
    160.11000    205.27000    203.00000      0.51000      6.04000      5.58000    231.03000 "Lat. Accretion"
    160.41000    213.32000    211.94000      0.51000      6.73000      6.24000    230.46000 "Lat. Accretion"
    160.69000    200.54000    198.84000      0.51000      8.70000      8.25000    229.26000 "Lat. Accretion"
    160.89000    216.40000    215.82000      0.51000     10.66000     10.15000    228.26000 "Lat. Accretion"
    161.15000    206.38000    205.52000      0.51000     12.43000     11.95000    227.09000 "Lat. Accretion"
    161.35000    217.63000    217.11000      0.52000      9.24000      8.73000    226.52000 "Lat. Accretion"
    161.66000    222.01000    221.95000      0.51000     31.24000     30.72000    226.17000 "Nodular Event"
    161.99000    311.30000    312.85000      0.51000     18.37000     18.33000    226.12000 "Nodular Event"
    162.13000    269.67000    271.46000      0.51000     11.58000     11.22000    226.02000 "Bed Boundary"
    162.41000    252.72000    253.96000      0.51000     11.15000     10.69000    225.65000 "Bed Boundary"
    162.61000    256.63000    258.02000      0.52000     11.38000     10.94000    225.16000 "Bed Boundary"
    162.89000    203.94000    203.27000      0.52000     15.52000     15.03000    224.43000 "Bed Boundary"
    163.22000    209.74000    208.57000      0.52000      6.59000      6.09000    223.50000 "Bed Boundary"
    163.41000     47.91000     47.54000      0.52000      6.41000      6.93000    223.02000 "Bed Boundary"
    163.70000    343.95000    352.16000      0.53000      2.83000      3.13000    222.35000 "Bed Boundary"
    164.05000      0.87000      7.09000      0.53000      2.75000      3.17000    221.70000 "Bed Boundary"
    164.28000    341.19000    345.93000      0.53000      5.25000      5.53000    221.39000 "Bed Boundary"
    164.52000    308.23000    312.31000      0.53000      7.46000      7.45000    221.25000 "Bed Boundary"
    164.79000    284.74000    290.33000      0.54000      5.18000      4.96000    221.29000 "Bed Boundary"
    165.08000    290.54000    299.04000      0.55000      3.64000      3.48000    221.52000 "Bed Boundary"
    165.51000    331.77000    338.18000      0.56000      4.53000      4.75000    222.06000 "Bed Boundary"
    165.75000    332.91000    337.02000      0.57000      7.18000      7.40000    222.47000 "Bed Boundary"
    166.04000    270.00000    275.14000      0.58000      5.05000      4.68000    223.05000 "Bed Boundary"
    166.47000    270.00000    275.47000      0.58000      4.76000      4.37000    224.27000 "Bed Boundary"
    166.68000    228.14000    228.61000      0.59000      4.50000      3.92000    225.04000 "Bed Boundary"
    166.95000    230.40000    231.01000      0.59000      4.79000      4.21000    225.98000 "Bed Boundary"
    167.20000    242.90000    244.85000      0.59000      5.36000      4.80000    226.72000 "Bed Boundary"
    167.52000    268.13000    271.12000      0.59000      7.74000      7.30000    227.28000 "Bed Boundary"
    167.84000    305.16000    310.65000      0.58000      6.03000      5.93000    227.44000 "Bed Boundary"
    168.16000    356.35000    359.75000      0.58000      7.17000      7.55000    227.26000 "Bed Boundary"
    168.39000    297.20000    302.29000      0.58000      6.30000      6.13000    226.98000 "Bed Boundary"
    168.61000    251.90000    254.43000      0.58000      6.11000      5.59000    226.71000 "Bed Boundary"
    168.81000    287.92000    292.67000      0.58000      6.42000      6.16000    226.45000 "Bed Boundary"
    169.01000    266.26000    269.12000      0.58000      7.90000      7.46000    226.22000 "Bed Boundary"
    169.36000    243.63000    245.04000      0.59000      7.78000      7.22000    225.98000 "Bed Boundary"
    169.60000    186.27000    183.08000      0.59000      7.15000      6.71000    225.95000 "Bed Boundary"
    169.90000    335.42000    338.65000      0.59000      9.52000      9.73000    226.16000 "Bed Boundary"
    170.18000    345.35000    349.25000      0.58000      7.15000      7.45000    226.52000 "Bed Boundary"
    170.47000    359.41000      1.93000      0.58000      9.24000      9.64000    226.89000 "Bed Boundary"
    170.70000     42.88000     43.18000      0.58000      7.30000      7.88000    227.04000 "Bed Boundary"
    170.96000    315.24000    320.68000      0.58000      6.07000      6.08000    226.90000 "Bed Boundary"
