~VERSION INFORMATION
VERS .             2.00                          :CWLS LOG ASCII STANDARD - VERSION 2.0
WRAP .             NO                            :ONE LINE PER DEPTH STEP
DLM  .             SPACE                         :Delimiter
PROD .             Schlumberger Technology Corp. :LAS Producer
SOURCE.            Techlog                       :DATA SOURCE
#--------------------------------------------------
~WELL INFORMATION
#MNEM.UNIT    DATA                                                :DESCRIPTION
#----.-----   -----------------------                              -----------------------------
 STRT.M            150.55000                               :START DEPTH
 STOP.M            243.62000                               :STOP DEPTH
 STEP.M            0.00000                                 :STEP
NULL .             -999.25                                 :NULL VALUE
COMP .             SUNCOR ENERGY INC.                      :COMPANY
WELL .             SUNCOR LEWIS 6-34-91-8                  :WELL NAME
FLD  .             LEWIS                                   :FIELD NAME
LOC  .             6-34-091-08W4                           :FIELD LOCATION
PROV .             ALBERTA                                 :PROVINCE
SRVC .             Schlumberger                            :SERVICE COMPANY
DATE .             23-Feb-2014                             :LOG DATE
UWI  .             1AA063409108W400                        :UNIQUE WELL ID
LIC  .             0464072                                 :License Number
SON  .                                                     :Service Order Number
CTRY .             CA                                      :Country
LATI .deg          56.9345                                 :LATITUDE (N=+ S=-) (from LATD)
LONG .deg          -111.205                                :LONGITUDE (from LOND)
GDAT .                                                     :
~PARAMETER INFORMATION
#MNEM.UNIT    VALUE                                               :DESCRIPTION
#----.----    ---------------                                     :-------------------
SGOR .                                                     :
MVIS .                                                     :
MDEC .                                                     :
SEABDEPTH.                                                 :
TOWN .                                                     :
RUN-NUMBER.                                                :
NAME-SPACE-NAME.                                           :
KPER .                                                     :
TLLAB.                                                     :
TD_CALI_OFFSET.                                            :
EGL  .m            445.00                                  :
DC_TRIM.                                                   :
SEXP_HILT.                                                 :
TD   .                                                     :
DATE .             23-Feb-2014                             :
DATF .                                                     :
DATT .                                                     :
WN   .                                                     :
UWI  .                                                     :
FL2  .                                                     :
LOGSEQ.                                                    :
DMAG_CORR_ON.                                              :
OVERIDE_LOCB.                                              :
LOG_START_TIME.                                            :
LOND .deg          -111.21                                 :
LMF  .             KB                                      :
OVERIDE_LOCG.                                              :
GVIS .                                                     :
FLD  .             LEWIS                                   :
FVEL .                                                     :
PCODDRL.                                                   :
LATI .                                                     :
COMP .             .            :                          :
CREATION-TIME.                                             :
~CURVE INFORMATION
#MNEM.UNIT    VALUE          :DESCRIPTION
#----.----    ---------------  :-------------------
 DEPT.M                                          :Depth Channel (from TDEP)
DPAA_NAZ.dega                                    :Dip Azimuth Appature {F}
DPAZ    .dega                                    :Dip Azimuth {F}
DEVI .deg                                        :Hole Deviation {F}
DPAP   .dega                                     :Dipp Apperture {F}
DPTR   .dega                                     :Dip True Dip {F}
HAZI .deg                                        :Hole Azimuth {F}
QUAF .                                           :Dip Type {S}
~A
    150.55000    181.33000    178.20000      0.50000      6.65000      6.30000    225.56000 20           
    150.79000    175.32000    172.00000      0.50000      6.86000      6.55000    225.52000 20           
    174.92000     44.85000     44.89000      0.55000     10.43000     10.98000    225.75000 20           
    180.30000    245.25000    247.44000      0.61000      6.87000      6.31000    221.80000 20           
    180.52000    240.25000    241.82000      0.61000      7.56000      6.98000    221.88000 20           
    180.74000    219.63000    219.46000      0.61000      8.65000      8.05000    221.99000 20           
    188.02000    287.18000    290.81000      0.62000      9.16000      8.95000    218.67000 20           
    188.31000    264.90000    267.29000      0.62000     11.04000     10.62000    218.72000 20           
    188.63000    278.79000    282.14000      0.62000      9.48000      9.19000    218.65000 20           
    189.02000    279.25000    282.23000      0.62000     10.54000     10.25000    218.43000 20           
    189.22000    283.84000    286.96000      0.61000     10.32000     10.08000    218.37000 20           
    190.46000    283.46000    288.56000      0.58000      6.15000      5.94000    217.61000 20           
    190.95000    280.97000    283.72000      0.59000     11.20000     10.95000    217.44000 20           
    191.38000    268.63000    271.21000      0.61000     10.70000     10.33000    217.62000 20           
    192.35000    270.00000    272.66000      0.60000     10.59000     10.24000    216.66000 20           
    193.40000    308.01000    311.65000      0.58000      8.97000      9.02000    215.39000 20           
    193.67000    326.97000    329.69000      0.58000     10.95000     11.18000    215.15000 20           
    193.90000    309.63000    312.66000      0.58000     10.73000     10.79000    214.95000 20           
    194.09000    309.24000    312.33000      0.58000     10.58000     10.64000    214.68000 20           
    211.30000     11.18000     11.95000      0.55000      7.69000      8.23000    202.74000 20           
    213.36000    297.31000    300.22000      0.58000     11.17000     11.21000    204.96000 20           
    223.37000     23.84000     23.74000      0.41000     10.96000     11.37000    201.18000 20           
    223.63000     54.79000     53.57000      0.40000     10.23000     10.57000    200.54000 20           
    223.85000     34.43000     33.99000      0.40000     12.64000     13.03000    199.98000 20           
    225.95000    267.98000    269.87000      0.37000     10.57000     10.46000    197.18000 20           
    234.06000    283.62000    284.85000      0.27000     12.41000     12.39000    199.96000 20           
    234.96000    325.83000    326.67000      0.28000     15.52000     15.68000    201.53000 20           
    235.41000    309.51000    309.96000      0.29000     31.03000     31.11000    202.21000 20           
    237.47000    207.14000    207.21000      0.32000     10.02000      9.71000    204.80000 20           
    240.48000    171.44000    169.38000      0.43000      7.61000      7.27000    209.24000 20           
    241.21000      7.27000      8.24000      0.45000      9.47000      9.89000    209.36000 20           
    241.31000      4.13000      5.24000      0.45000      9.53000      9.94000    209.44000 20           
    241.39000      7.81000      8.71000      0.46000     10.30000     10.73000    209.51000 20           
    241.86000      4.97000      6.32000      0.48000      8.09000      8.52000    210.15000 20           
    242.60000     23.05000     23.69000      0.49000      5.92000      6.40000    211.40000 20           
    243.17000     37.19000     36.98000      0.49000     11.79000     12.28000    211.77000 20           
    243.62000     60.10000     58.86000      0.49000     10.12000     10.55000    211.96000 20           
