~Version
 VERS              .         2                             : CWLS LOG ASCII STANDARD - VERSION 2.0
 WRAP              .         NO                            : ONE LINE PER DEPTH STEP
 DLM               .         SPACE                         : DELIMITING CHARACTER(SPACE TAB OR COMMA)
~Well Information
#_______________________________________________________________________________
#
#PARAMETER_NAME    .UNIT     VALUE                         : DESCRIPTION
#_______________________________________________________________________________
STRT               .m        56.74727                      : First reference value
STOP               .m        182.3879                      : Last reference value
STEP               .m        0                             : Step increment
NULL               .         -999.25                       : Missing value
WELL               .         SUNCOR LEWIS 7-22-92-8        : Well name
FILE-ID            .         00001_STAR_RPT                                                   : 
FLD                .         UNDEFINED                     : 
FILE-NUMBER        .         1                             : 
WELL-NAME          .         SUNCOR LEWIS 7-22-92-8        : 
FILE-SET-NUMBER    .         51                            : 
SRC_UNIT           .         meters                        : 
PRODUCER-CODE      .         150                           : 
SRC_NAME           .         /dat1a/SUNCOR2016/CA003953/star_rpt.xtf: 
FILE-TYPE          .         EXCHANGE                      : 
VERSION            .         Access-5.49                   : 
NAME-SPACE-VERSION .         1                             : 
COMP               .         SUNCOR ENERGY INC             : 
FILE-SET-NAME      .         BAKERH                        : 
COMPANY            .         SUNCOR ENERGY INC             : 
ABSE_FVAL          .         -999.25                       : 
WN                 .         SUNCOR LEWIS 7-22-92-8        : 
NAME-SPACE-NAME    .         BAKERH                        : 
FIELD-NAME         .         UNDEFINED                     : 
CREATION-TIME      .         2016/1/16 16_45               : 
SRC_FILE           .         star_rpt.xtf                  : 
PRODUCER-NAME      .         ATLAS                         : 
HLD                .         IN MAKING INTERPRETATIONS OF LOGS OUR EMPLOYEES WILL GIVE CUSTOMER <_techsia_sc_>THE BENEFIT OF THEIR BEST JUDGEMENT. BUT SINCE ALL INTERPRETATIONS <_techsia_sc_>ARE OPINIONS BASED ON INFERENCES FROM ELECTRICAL OR OTHER <_techsia_sc_>MEASUREMENTS, WE CANNOT, AND WE DO NOT GUARANTEE THE ACCURACY OR <_techsia_sc_>CORRECTNESS OF ANY INTERPRETATION. WE SHALL NOT BE LIABLE OR <_techsia_sc_>RESPONSIBLE FOR ANY LOSS, COST, DAMAGES, OR EXPENSES WHATSOEVER <_techsia_sc_>INCURRED OR SUSTAINED BY THE CUSTOMER RESULTING FROM ANY <_techsia_sc_>INTERPRETATION MADE BY ANY OF OUR EMPLOYEES.: 
PRODUCT            .         WFM/eclips                    : 
PROGRAMS           .         Data Export                   : 
UWI                .         1AA072209208W400              : 
CTRY               .         CA                            : Two letter Internet country code
COUNTRY            .         CANADA                        : 
PROVINCE           .         Alberta                       : 
LATI               .Deg      57.0175 N                     : 
LONG               .W        -111.419 W                    : 
EREF               .m        440.70                        : 
DREF               .m        438.50                        : 
LSD                .         07                            : 
SEC                .         22                            : 
TWP                .         092                           : 
RGE                .         08W4                          : 
SON                .         003953J                       : 
LICENSE            .         0477502                       : 
EKB                .m        440.70                        : 
EGL                .m        438.50                        : 
Completion_date    .         16-Jan-2016                   : 
LOC                .                                       : 
DATE               .                                       : 
SRVC               .                                       : 
GDAT               .                                       : 
PROV               .                                       : 
LIC                .                                       : 
STAT               .                                       : 
CNTY               .                                       : 
API                .                                       : 
~Parameter Information Block
#_______________________________________________________________________________
#
#PARAMETER_NAME    .UNIT     VALUE                         : DESCRIPTION
#_______________________________________________________________________________
SET                .         Dip_All                       : 
REAL_CREATION_DATE .         Tue Jan 19 2016-16_48_55      : 
TLFamily_TDEP      .         Measured Depth                : 
TLFamily_Type      .         Dip Classification            : 
TLFamily_Quality   .         Dip Quality                   : 
TLFamily_Azimuth   .         True Dip Azimuth              : 
TLFamily_Dip_TRU   .         True Dip Inclination          : 
~Curve Information
#_______________________________________________________________________________
#
#LOGNAME           .UNIT     LOG_ID                        : DESCRIPTION
#_______________________________________________________________________________
TDEP               .m                                      :  
Azimuth            .dega                                   :  
Dip_TRU            .dega                                   :  
Quality            .unitless                               :  
Type               .unitless                               :  
~Ascii
# ...
148.8764   71.03111   14.45517   20         Bedding   
148.999    208.4722   12.25651   20         Bedding   
149.08     27.74915   23.54464   20         "Cross Bedding"
149.1468   22.35583   10.90039   20         "Cross Bedding"
149.2143   36.3239    18.50763   20         "Cross Bedding"
149.3186   45.24886   18.48323   20         "Cross Bedding"
149.4045   49.67738   18.44537   20         "Cross Bedding"
149.4597   45.40376   22.33858   20         "Cross Bedding"
149.5087   51.11079   26.46873   20         "Cross Bedding"
149.5854   68.70877   26.91123   20         "Cross Bedding"
149.6412   74.84072   16.12638   20         "Cross Bedding"
149.7388   215.0101   23.19118   20         "Cross Bedding"
149.77     228.2123   19.93085   20         "Cross Bedding"
149.8339   222.2001   22.98887   20         "Cross Bedding"
149.9044   217.8435   24.07503   20         "Cross Bedding"
149.9781   217.2555   21.34027   20         "Cross Bedding"
150.0302   224.9961   24.57688   20         "Cross Bedding"
150.11     206.6025   18.93497   20         "Cross Bedding"
150.156    209.2192   24.40425   20         "Cross Bedding"
150.2143   226.6458   19.00775   20         "Cross Bedding"
150.2726   240.89     19.08579   20         "Cross Bedding"
150.334    239.4736   19.10508   20         "Cross Bedding"
150.3739   238.0726   19.12958   20         "Cross Bedding"
150.4138   239.5466   19.14756   20         "Cross Bedding"
150.4659   230.9904   19.09865   20         "Cross Bedding"
150.5242   233.8757   19.10753   20         "Cross Bedding"
150.6101   7.694275   7.701406   20         "Discontinuity Boundary"
150.7082   327.9502   20.15057   20         "Deformed Bed Boundary"
150.7635   320.1149   11.98815   20         "Deformed Bed Boundary"
150.8279   296.3055   13.28958   20         "Deformed Bed Boundary"
150.9229   235.0239   28.18538   20         "Resistive Nodular Event"
151.1561   310.0485   10.57371   20         "Deformed Bed Boundary"
151.3463   92.52012   12.50023   20         "Resistive Nodular Event"
151.4721   132.4075   20.81751   20         "Deformed Bed Boundary"
151.5979   157.1687   23.74097   20         "Deformed Bed Boundary"
151.6715   144.0426   23.09956   20         "Deformed Bed Boundary"
151.7728   120.4802   25.41512   20         "Deformed Bed Boundary"
151.8862   352.7798   27.0336    20         "Discontinuity Boundary"
151.9328   358.5533   26.4636    20         "Cross Bedding"
151.9758   7.228275   24.88832   20         "Cross Bedding"
152.0132   4.721004   23.84579   20         "Cross Bedding"
152.0488   359.8105   22.20341   20         "Cross Bedding"
152.0979   359.8392   22.7548    20         "Cross Bedding"
152.1463   352.071    17.80124   20         "Cross Bedding"
152.1857   359.2422   4.747386   20         "Discontinuity Boundary"
152.2697   4.334191   11.09819   20         "Cross Bedding"
152.3587   2.503339   18.82015   20         "Cross Bedding"
152.42     10.20354   27.28962   20         "Cross Bedding"
152.5213   18.81196   24.08552   20         "Cross Bedding"
152.6195   354.5139   37.97258   20         "Cross Bedding"
152.7114   348.7143   37.88207   20         "Cross Bedding"
152.7943   347.338    41.64115   20         "Cross Bedding"
152.8648   347.3323   41.66128   20         "Cross Bedding"
153.006    344.3525   37.68353   20         "Cross Bedding"
153.0919   309.3378   0.7182785  20         "Discontinuity Boundary"
153.1409   311.7537   0.6217675  20         Bedding   
153.2873   354.9284   1.606076   20         Bedding   
153.3802   252.5802   0.02728648 20         Bedding   
153.4754   357.1621   6.714385   20         Bedding   
153.5674   13.8368    5.349888   20         Bedding   
153.6406   358.8348   3.637925   20         Bedding   
153.7196   342.9709   3.113304   20         Bedding   
153.7778   336.3177   2.521318   20         Bedding   
153.834    356.1565   1.723654   20         Bedding   
153.8987   345.6863   4.89822    20         Bedding   
153.9846   326.9458   2.482498   20         Bedding   
154.0418   353.898    3.642489   20         Bedding   
154.1104   329.7317   2.508946   20         Bedding   
154.1463   9.732145   4.172299   20         Bedding   
154.2085   333.0013   3.121512   20         Bedding   
154.2585   328.9348   2.221381   20         Bedding   
154.3146   338.766    4.985878   20         Bedding   
154.3558   327.9421   5.660559   20         Bedding   
154.4386   330.2356   5.031069   20         Bedding   
154.485    336.3954   4.997653   20         Bedding   
154.5307   333.057    5.010577   20         Bedding   
154.5786   353.9431   3.666345   20         Bedding   
154.6473   332.4735   24.35949   20         "Deformed Bed Boundary"
154.7157   334.5977   4.106048   20         Bedding   
154.7594   338.2907   3.151942   20         Bedding   
154.7989   332.0126   0.9971676  20         Bedding   
154.8716   338.8676   2.221381   20         Bedding   
154.9485   346.7504   3.741225   20         Bedding   
155.1351   349.0521   5.447356   20         Bedding   
155.1779   346.8156   22.88368   20         "Cross Bedding"
155.2485   346.851    23.65547   20         "Cross Bedding"
155.2976   349.744    23.68873   20         "Cross Bedding"
155.3958   349.6955   22.71397   20         "Cross Bedding"
155.4878   8.575104   2.859373   20         Bedding   
155.5614   4.298407   1.643072   20         Bedding   
155.6289   26.38141   2.537255   20         Bedding   
155.7179   190.5136   0.5935662  20         Bedding   
155.8161   315.9666   1.323983   20         "Discontinuity Boundary"
155.8859   332.8712   22.94633   20         "Cross Bedding"
155.9388   319.2637   19.05524   20         "Cross Bedding"
155.9774   325.1691   16.80186   20         "Cross Bedding"
156.0186   317.3279   0.5543071  20         "Discontinuity Boundary"
156.0799   351.396    4.879407   20         Bedding   
156.1413   3.828017   4.151585   20         Bedding   
156.1781   357.8542   2.308074   20         Bedding   
156.2855   26.89333   4.620257   20         Bedding   
156.3499   67.55839   6.110969   20         "Discontinuity Boundary"
156.385    63.04412   6.407898   20         "Cross Bedding"
156.4436   57.42509   6.776933   20         "Cross Bedding"
156.4952   41.15706   12.71025   20         "Cross Bedding"
156.5265   37.95831   7.752898   20         "Cross Bedding"
156.597    38.63637   10.84855   20         "Cross Bedding"
156.6531   61.44564   15.02046   20         "Cross Bedding"
156.7155   64.84784   12.25651   20         "Cross Bedding"
156.7466   51.16705   12.02691   20         "Cross Bedding"
156.8111   23.79896   17.49173   20         "Cross Bedding"
156.867    24.62699   18.02776   20         "Cross Bedding"
156.9254   24.2834    20.32748   20         "Cross Bedding"
156.9628   26.98407   26.16149   20         "Cross Bedding"
156.999    26.35506   24.55151   20         "Cross Bedding"
157.1354   327.0847   9.489888   20         "Cross Bedding"
157.183    323.326    12.35648   20         "Cross Bedding"
157.2275   337.9177   15.24142   20         "Cross Bedding"
157.2684   334.9649   17.26193   20         "Cross Bedding"
157.3103   356.8011   16.87391   20         "Cross Bedding"
157.3744   357.1736   17.48559   20         "Cross Bedding"
157.4471   354.8299   22.61237   20         "Cross Bedding"
157.5074   342.6574   23.51703   20         "Cross Bedding"
157.5676   352.327    20.85514   20         "Cross Bedding"
157.6508   342.7552   25.33399   20         "Cross Bedding"
157.743    10.65762   33.33235   20         "Cross Bedding"
157.8659   13.22721   23.254     20         "Cross Bedding"
157.9549   19.10155   24.40912   20         "Cross Bedding"
158.0561   316.9986   23.54837   20         "Cross Bedding"
158.2034   322.7688   25.25546   20         "Cross Bedding"
158.3553   334.4876   33.45917   20         "Cross Bedding"
158.4689   314.1983   27.02428   20         "Cross Bedding"
158.5594   323.0381   37.53633   20         "Cross Bedding"
158.6146   322.9722   33.27116   20         "Cross Bedding"
