~VERSION INFORMATION
VERS .             3.00                          :CWLS LOG ASCII STANDARD - VERSION 2.0
WRAP .             NO                            :ONE LINE PER DEPTH STEP
DLM  .             SPACE                         :Delimiter
PROD .             Schlumberger Technology Corp. :LAS Producer
SOURCE.            Techlog                       :DATA SOURCE
#--------------------------------------------------
~WELL INFORMATION
#MNEM.UNIT    DATA                                                :DESCRIPTION
#----.-----   -----------------------                              -----------------------------
 STRT.M            105.37                                  :START DEPTH
 STOP.M            254.58                                  :STOP DEPTH
 STEP.M            0.00000                                 :STEP
NULL .             -999.25                                 :NULL VALUE
COMP .             SUNCOR ENERGY INC.                      :COMPANY
WELL .             SUNCOR LEWIS 6-34-91-8                  :WELL NAME
FLD  .             LEWIS                                   :FIELD NAME
LOC  .             6-34-091-08W4                           :FIELD LOCATION
PROV .             ALBERTA                                 :PROVINCE
SRVC .             Schlumberger                            :SERVICE COMPANY
DATE .             23-Feb-2014                             :LOG DATE
UWI  .             1AA063409108W400                        :UNIQUE WELL ID
LIC  .             0464072                                 :License Number
SON  .                                                     :Service Order Number
CTRY .             CA                                      :Country
LATI .deg          56.9345                                 :LATITUDE (N=+ S=-) (from LATD)
LONG .deg          -111.205                                :LONGITUDE (from LOND)
GDAT .                                                     :
~PARAMETER INFORMATION
#MNEM.UNIT    VALUE                                               :DESCRIPTION
#----.----    ---------------                                     :-------------------
SGOR .                                                     :
MVIS .                                                     :
MDEC .                                                     :
SEABDEPTH.                                                 :
TOWN .                                                     :
RUN-NUMBER.                                                :
NAME-SPACE-NAME.                                           :
KPER .                                                     :
TLLAB.                                                     :
TD_CALI_OFFSET.                                            :
EGL  .m            445.00                                  :
DC_TRIM.                                                   :
SEXP_HILT.                                                 :
TD   .                                                     :
DATE .             23-Feb-2014                             :
DATF .                                                     :
DATT .                                                     :
WN   .                                                     :
FL1  .                                                     :
FL2  .                                                     :
LOGSEQ.                                                    :
DMAG_CORR_ON.                                              :
OVERIDE_LOCB.                                              :
LOG_START_TIME.                                            :
LOND .deg          -111.21                                 :
LMF  .             KB                                      :
OVERIDE_LOCG.                                              :
GVIS .                                                     :
FLD  .             LEWIS                                   :
FVEL .                                                     :
PCODDRL.                                                   :
LATI .                                                     :
COMP .             .            :                          :
CREATION-TIME.                                             :
~CURVE INFORMATION
#MNEM.UNIT    VALUE          :DESCRIPTION
#----.----    ---------------  :-------------------
 DEPT.M                                          :Depth Channel (from TDEP)
Azim_APP.dega                                    :Dip Azimuth Appature {F}
Azim_TRU.dega                                    :Dip Azimuth {F}
HDev .deg                                        :Hole Deviation {F}
Dip_APP.dega                                     :Dipp Apperture {F}
Dip_TRU.dega                                     :Dip True Dip {F}
HAzi .deg                                        :Hole Azimuth {F}
Type .                                           :Dip Type {S}
~ASCII   DEPT     Azim_APP     Azim_TRU         HDev      Dip_APP      Dip_TRU         HAzi         Type
# ...
    234.60000     73.92000     72.76000      0.28000     10.73000     10.91000    201.25000 "Bed Boundary"
    234.96000    325.83000    326.67000      0.28000     15.52000     15.68000    201.53000 "Scour Surface"
    235.03000    325.48000    325.81000      0.28000     35.55000     35.71000    201.61000 "Cross Bedding"
    235.12000    337.75000    338.02000      0.29000     35.66000     35.87000    201.69000 "Cross Bedding"
    235.19000    334.27000    334.56000      0.29000     35.75000     35.95000    201.79000 "Cross Bedding"
    235.26000    324.48000    324.81000      0.29000     35.99000     36.14000    201.94000 "Cross Bedding"
    235.33000    313.56000    313.93000      0.29000     35.63000     35.74000    202.07000 "Cross Bedding"
    235.41000    309.51000    309.96000      0.29000     31.03000     31.11000    202.21000 "Scour Surface"
    235.50000     52.72000     52.41000      0.29000     24.62000     24.86000    202.39000 "Cross Bedding"
    235.61000     47.52000     47.26000      0.29000     24.11000     24.37000    202.69000 "Cross Bedding"
    235.74000     42.60000     42.40000      0.29000     25.32000     25.59000    202.90000 "Cross Bedding"
    235.84000     62.82000     62.42000      0.29000     24.55000     24.77000    203.10000 "Cross Bedding"
    235.96000     63.62000     63.23000      0.29000     25.34000     25.56000    203.29000 "Cross Bedding"
    236.06000     55.66000     55.33000      0.29000     25.07000     25.32000    203.39000 "Cross Bedding"
    236.17000     66.25000     65.84000      0.29000     25.70000     25.92000    203.50000 "Cross Bedding"
    236.29000     38.82000     38.64000      0.29000     23.53000     23.82000    203.53000 "Cross Bedding"
    236.40000     56.55000     56.19000      0.30000     23.68000     23.93000    203.51000 "Cross Bedding"
    236.53000     57.37000     56.99000      0.30000     23.23000     23.47000    203.53000 "Cross Bedding"
    236.62000     53.44000     53.10000      0.30000     23.22000     23.48000    203.52000 "Cross Bedding"
    236.76000     48.02000     47.55000      0.30000     14.46000     14.73000    203.54000 "Bed Boundary"
    237.10000     20.49000     20.58000      0.31000     10.15000     10.46000    203.83000 "Bed Boundary"
    237.47000    207.14000    207.21000      0.32000     10.02000      9.71000    204.80000 "Scour Surface"
    237.54000    268.87000    269.47000      0.32000     25.61000     25.47000    205.09000 "Cross Bedding"
    237.62000    263.89000    264.44000      0.32000     26.51000     26.35000    205.38000 "Cross Bedding"
    237.73000    313.73000    315.22000      0.32000     11.60000     11.70000    205.82000 "Bed Boundary"
    238.08000     19.15000     19.56000      0.34000      6.55000      6.88000    207.55000 "Bed Boundary"
    238.33000      6.26000      7.52000      0.35000      5.69000      6.01000    208.80000 "Bed Boundary"
    238.51000    232.80000    233.94000      0.36000      7.40000      7.08000    209.44000 "Bed Boundary"
    238.83000     33.58000     33.32000      0.37000      4.00000      4.37000    210.57000 "Bed Boundary"
    239.06000      5.43000      6.18000      0.38000     12.13000     12.48000    211.11000 "Bed Boundary"
    239.29000     23.76000     24.12000      0.39000      7.78000      8.17000    211.33000 "Bed Boundary"
    239.56000      7.28000      8.53000      0.40000      7.10000      7.47000    211.24000 "Bed Boundary"
    239.86000      2.19000      3.70000      0.41000      7.07000      7.43000    210.73000 "Bed Boundary"
    240.31000     16.47000     17.30000      0.42000      6.27000      6.68000    209.79000 "Bed Boundary"
    240.48000    171.44000    169.38000      0.43000      7.61000      7.27000    209.24000 "Scour Surface"
    240.53000      7.13000      7.50000      0.43000     23.45000     23.84000    209.20000 "Cross Bedding"
    240.61000      8.37000      8.71000      0.43000     23.79000     24.19000    209.17000 "Cross Bedding"
    240.73000     13.76000     14.02000      0.43000     23.03000     23.45000    209.18000 "Cross Bedding"
    240.84000     16.34000     16.91000      0.44000      9.29000      9.71000    209.19000 "Bed Boundary"
    241.21000      7.27000      8.24000      0.45000      9.47000      9.89000    209.36000 "Scour Surface"
    241.26000      8.86000      9.10000      0.45000     32.54000     32.96000    209.39000 "Cross Bedding"
    241.31000      4.13000      5.24000      0.45000      9.53000      9.94000    209.44000 "Scour Surface"
    241.35000     11.66000     11.89000      0.46000     31.72000     32.16000    209.47000 "Cross Bedding"
    241.39000      7.81000      8.71000      0.46000     10.30000     10.73000    209.51000 "Scour Surface"
    241.44000     10.66000     10.89000      0.46000     32.86000     33.30000    209.56000 "Cross Bedding"
    241.53000     15.59000     15.77000      0.46000     32.31000     32.76000    209.65000 "Cross Bedding"
    241.60000      9.31000      9.56000      0.47000     32.93000     33.37000    209.74000 "Cross Bedding"
    241.68000      5.30000      5.60000      0.47000     32.08000     32.50000    209.84000 "Cross Bedding"
    241.77000      8.56000      8.83000      0.47000     32.00000     32.44000    209.99000 "Cross Bedding"
    241.86000      4.97000      6.32000      0.48000      8.09000      8.52000    210.15000 "Scour Surface"
    241.93000    314.04000    315.02000      0.48000     25.19000     25.31000    210.27000 "Cross Bedding"
    242.04000    313.01000    313.95000      0.48000     26.54000     26.65000    210.46000 "Cross Bedding"
    242.12000    300.82000    301.79000      0.48000     26.41000     26.42000    210.63000 "Cross Bedding"
    242.30000      4.56000      5.93000      0.49000      8.50000      8.94000    210.95000 "Bed Boundary"
    242.60000     23.05000     23.69000      0.49000      5.92000      6.40000    211.40000 "Scour Surface"
    242.67000     35.79000     35.73000      0.49000     34.18000     34.67000    211.48000 "Cross Bedding"
    242.77000     41.64000     41.52000      0.49000     33.93000     34.42000    211.59000 "Cross Bedding"
    242.88000     32.07000     32.07000      0.49000     34.10000     34.59000    211.64000 "Cross Bedding"
    242.97000     31.16000     31.16000      0.49000     34.21000     34.70000    211.69000 "Cross Bedding"
    243.08000     38.29000     38.20000      0.49000     33.18000     33.67000    211.76000 "Cross Bedding"
    243.17000     37.19000     36.98000      0.49000     11.79000     12.28000    211.77000 "Scour Surface"
    243.23000     43.66000     43.54000      0.49000     39.06000     39.54000    211.78000 "Cross Bedding"
    243.32000     46.77000     46.61000      0.49000     38.64000     39.11000    211.82000 "Cross Bedding"
    243.45000     19.97000     20.09000      0.49000     39.32000     39.80000    211.87000 "Cross Bedding"
    243.54000     24.77000     24.85000      0.49000     38.07000     38.55000    211.92000 "Cross Bedding"
    243.62000     60.10000     58.86000      0.49000     10.12000     10.55000    211.96000 "Scour Surface"
    243.63000     22.30000     22.40000      0.49000     38.98000     39.46000    211.96000 "Cross Bedding"
    243.73000     29.48000     29.51000      0.49000     39.97000     40.46000    212.00000 "Cross Bedding"
    243.82000     28.77000     28.80000      0.49000     39.63000     40.12000    212.04000 "Cross Bedding"
    243.91000     21.91000     22.01000      0.49000     39.54000     40.02000    212.06000 "Cross Bedding"
    244.02000     28.12000     28.16000      0.49000     39.39000     39.87000    212.08000 "Cross Bedding"
    244.18000     29.54000     29.65000      0.49000     10.55000     11.05000    212.06000 "Unconform. Bed"
    244.33000    352.14000    353.24000      0.49000     15.63000     16.01000    212.02000 "Bed Boundary"
    244.60000    355.82000    357.01000      0.50000     13.49000     13.90000    211.82000 "Bed Boundary"
    244.82000    347.45000    348.81000      0.50000     14.17000     14.53000    211.73000 "Bed Boundary"
