~VERSION INFORMATION
VERS .             3.00                          :CWLS LOG ASCII STANDARD - VERSION 2.0
WRAP .             NO                            :ONE LINE PER DEPTH STEP
DLM  .             SPACE                         :Delimiter
PROD .             Schlumberger Technology Corp. :LAS Producer
SOURCE.            Techlog                       :DATA SOURCE
#--------------------------------------------------
~WELL INFORMATION
#MNEM.UNIT    DATA                                                :DESCRIPTION
#----.-----   -----------------------                              -----------------------------
 STRT.M            105.37                                  :START DEPTH
 STOP.M            254.58                                  :STOP DEPTH
 STEP.M            0.00000                                 :STEP
NULL .             -999.25                                 :NULL VALUE
COMP .             SUNCOR ENERGY INC.                      :COMPANY
WELL .             SUNCOR LEWIS 6-34-91-8                  :WELL NAME
FLD  .             LEWIS                                   :FIELD NAME
LOC  .             6-34-091-08W4                           :FIELD LOCATION
PROV .             ALBERTA                                 :PROVINCE
SRVC .             Schlumberger                            :SERVICE COMPANY
DATE .             23-Feb-2014                             :LOG DATE
UWI  .             1AA063409108W400                        :UNIQUE WELL ID
LIC  .             0464072                                 :License Number
SON  .                                                     :Service Order Number
CTRY .             CA                                      :Country
LATI .deg          56.9345                                 :LATITUDE (N=+ S=-) (from LATD)
LONG .deg          -111.205                                :LONGITUDE (from LOND)
GDAT .                                                     :
~PARAMETER INFORMATION
#MNEM.UNIT    VALUE                                               :DESCRIPTION
#----.----    ---------------                                     :-------------------
SGOR .                                                     :
MVIS .                                                     :
MDEC .                                                     :
SEABDEPTH.                                                 :
TOWN .                                                     :
RUN-NUMBER.                                                :
NAME-SPACE-NAME.                                           :
KPER .                                                     :
TLLAB.                                                     :
TD_CALI_OFFSET.                                            :
EGL  .m            445.00                                  :
DC_TRIM.                                                   :
SEXP_HILT.                                                 :
TD   .                                                     :
DATE .             23-Feb-2014                             :
DATF .                                                     :
DATT .                                                     :
WN   .                                                     :
FL1  .                                                     :
FL2  .                                                     :
LOGSEQ.                                                    :
DMAG_CORR_ON.                                              :
OVERIDE_LOCB.                                              :
LOG_START_TIME.                                            :
LOND .deg          -111.21                                 :
LMF  .             KB                                      :
OVERIDE_LOCG.                                              :
GVIS .                                                     :
FLD  .             LEWIS                                   :
FVEL .                                                     :
PCODDRL.                                                   :
LATI .                                                     :
COMP .             .            :                          :
CREATION-TIME.                                             :
~CURVE INFORMATION
#MNEM.UNIT    VALUE          :DESCRIPTION
#----.----    ---------------  :-------------------
 DEPT.M                                          :Depth Channel (from TDEP)
Azim_APP.dega                                    :Dip Azimuth Appature {F}
Azim_TRU.dega                                    :Dip Azimuth {F}
HDev .deg                                        :Hole Deviation {F}
Dip_APP.dega                                     :Dipp Apperture {F}
Dip_TRU.dega                                     :Dip True Dip {F}
HAzi .deg                                        :Hole Azimuth {F}
Type .                                           :Dip Type {S}
~ASCII   DEPT     Azim_APP     Azim_TRU         HDev      Dip_APP      Dip_TRU         HAzi         Type
# ...
    218.55000     35.72000     35.52000      0.50000     10.23000     10.72000    211.21000 "Lat. Accretion"
    218.77000     32.28000     32.25000      0.49000      9.95000     10.44000    211.50000 "Lat. Accretion"
    219.04000     24.93000     25.26000      0.48000      9.30000      9.78000    211.87000 "Lat. Accretion"
    219.30000     32.99000     32.95000      0.47000      8.67000      9.14000    212.22000 "Lat. Accretion"
    219.49000     37.07000     36.87000      0.47000     10.32000     10.78000    212.42000 "Lat. Accretion"
    219.71000     51.28000     50.50000      0.46000     10.26000     10.70000    212.73000 "Lat. Accretion"
    219.90000     61.14000     59.91000      0.46000      9.61000     10.02000    212.94000 "Lat. Accretion"
    220.07000     40.96000     40.63000      0.46000     10.19000     10.64000    213.09000 "Lat. Accretion"
    220.22000     32.21000     32.26000      0.46000     10.28000     10.74000    213.21000 "Lat. Accretion"
    220.37000     38.95000     38.72000      0.45000     10.50000     10.95000    213.25000 "Lat. Accretion"
    220.52000     38.92000     38.72000      0.45000     12.43000     12.88000    213.14000 "Lat. Accretion"
    220.70000     40.42000     40.11000      0.45000     10.56000     11.01000    212.88000 "Lat. Accretion"
    220.91000     49.02000     48.42000      0.44000     11.68000     12.11000    212.24000 "Lat. Accretion"
    221.10000     48.50000     48.00000      0.44000     13.99000     14.41000    211.31000 "Lat. Accretion"
    221.26000     34.99000     34.87000      0.43000     15.41000     15.84000    210.34000 "Lat. Accretion"
    221.46000     25.21000     25.33000      0.43000     13.11000     13.54000    209.03000 "Lat. Accretion"
    221.63000    358.24000    359.18000      0.43000     12.36000     12.74000    207.82000 "Lat. Accretion"
    221.88000    343.74000    344.86000      0.43000     14.13000     14.45000    206.15000 "Lat. Accretion"
    222.17000    358.91000    359.76000      0.43000     11.78000     12.16000    204.57000 "Lat. Accretion"
    222.38000    357.53000    358.42000      0.42000     11.49000     11.87000    203.71000 "Lat. Accretion"
    222.63000    338.09000    339.54000      0.42000     11.26000     11.56000    202.99000 "Lat. Accretion"
    222.79000    324.22000    326.13000      0.42000     10.32000     10.55000    202.52000 "Lat. Accretion"
    223.04000    315.58000    317.89000      0.41000      9.13000      9.30000    201.94000 "Lat. Accretion"
    223.37000     23.84000     23.74000      0.41000     10.96000     11.37000    201.18000 "Scour Surface"
    223.48000     43.93000     43.67000      0.41000     31.02000     31.39000    200.93000 "Cross Bedding"
    223.57000     38.71000     38.51000      0.41000     31.56000     31.95000    200.70000 "Cross Bedding"
    223.63000     54.79000     53.57000      0.40000     10.23000     10.57000    200.54000 "Scour Surface"
    223.64000     44.25000     43.98000      0.40000     31.08000     31.45000    200.51000 "Cross Bedding"
    223.72000     55.96000     55.56000      0.40000     30.34000     30.67000    200.31000 "Cross Bedding"
    223.81000     45.40000     45.12000      0.40000     30.83000     31.19000    200.07000 "Cross Bedding"
    223.85000     34.43000     33.99000      0.40000     12.64000     13.03000    199.98000 "Scour Surface"
    223.89000     51.08000     50.74000      0.40000     30.99000     31.33000    199.84000 "Cross Bedding"
    223.97000     54.26000     53.89000      0.40000     31.04000     31.37000    199.54000 "Cross Bedding"
    224.05000     56.03000     55.63000      0.40000     30.89000     31.21000    199.27000 "Cross Bedding"
    224.13000     60.95000     60.50000      0.40000     30.69000     30.99000    199.05000 "Cross Bedding"
    224.21000     50.83000     50.47000      0.40000     29.79000     30.12000    198.78000 "Cross Bedding"
    224.29000     42.90000     42.62000      0.40000     29.96000     30.32000    198.49000 "Cross Bedding"
    224.49000     34.21000     33.60000      0.39000     10.02000     10.40000    197.85000 "Lat. Accretion"
    224.91000     37.69000     36.70000      0.39000      7.54000      7.90000    197.13000 "Lat. Accretion"
    225.27000     21.61000     21.35000      0.38000      5.99000      6.37000    197.21000 "Lat. Accretion"
    225.72000     40.30000     39.45000      0.37000      9.33000      9.68000    197.38000 "Lat. Accretion"
    225.95000    267.98000    269.87000      0.37000     10.57000     10.46000    197.18000 "Scour Surface"
    225.98000     56.07000     55.41000      0.37000     19.32000     19.61000    197.14000 "Cross Bedding"
    226.05000     61.89000     61.19000      0.37000     19.99000     20.25000    197.03000 "Cross Bedding"
    226.13000     83.36000     82.46000      0.37000     20.28000     20.43000    196.88000 "Cross Bedding"
    226.19000     87.10000     86.17000      0.37000     20.28000     20.41000    196.74000 "Cross Bedding"
    226.27000     51.28000     50.00000      0.37000      8.95000      9.25000    196.54000 "Lat. Accretion"
    226.57000     60.36000     58.89000      0.37000      9.62000      9.88000    195.74000 "Lat. Accretion"
    226.83000     45.39000     44.41000      0.37000     10.41000     10.73000    195.08000 "Lat. Accretion"
    227.26000    338.24000    339.39000      0.37000     10.39000     10.69000    194.45000 "Bed Boundary"
    227.63000     54.36000     53.19000      0.36000     10.95000     11.23000    194.59000 "Bed Boundary"
    227.84000    326.23000    327.19000      0.36000     15.45000     15.68000    194.72000 "Bed Boundary"
    228.18000      3.93000      4.31000      0.35000      9.60000      9.94000    194.88000 "Bed Boundary"
    228.52000    358.00000    358.23000      0.34000     22.44000     22.77000    194.67000 "Deform Bedboundary"
    228.78000    320.94000    322.56000      0.33000      9.01000      9.21000    194.24000 "Bed Boundary"
    229.10000    218.50000    219.39000      0.32000      8.90000      8.62000    193.40000 "Bed Boundary"
    229.36000    161.53000    160.22000      0.31000      7.26000      6.99000    192.48000 "Bed Boundary"
    229.64000    336.13000    337.23000      0.30000      8.79000      9.04000    191.45000 "Bed Boundary"
    229.93000    356.48000    356.65000      0.30000     22.72000     23.01000    190.39000 "Deform Bedboundary"
    230.13000     33.26000     32.90000      0.29000     17.93000     18.20000    189.88000 "Deform Bedboundary"
    230.51000     76.05000     74.88000      0.29000     12.64000     12.76000    189.38000 "Bed Boundary"
    230.94000    317.94000    319.01000      0.28000     11.47000     11.65000    189.82000 "Bed Boundary"
    231.35000    338.65000    338.98000      0.28000     24.36000     24.59000    191.04000 "Deform Bedboundary"
    231.55000    350.56000    350.81000      0.27000     21.89000     22.14000    191.84000 "Deform Bedboundary"
    231.86000    341.49000    342.98000      0.27000      5.07000      5.30000    192.69000 "Bed Boundary"
    232.28000    326.42000    327.35000      0.26000     11.41000     11.59000    193.25000 "Bed Boundary"
    232.90000    316.35000    317.37000      0.25000     11.76000     11.90000    193.33000 "Bed Boundary"
    233.23000    318.51000    319.78000      0.26000      9.33000      9.48000    194.62000 "Bed Boundary"
    233.54000    303.34000    304.66000      0.26000     10.63000     10.71000    196.70000 "Bed Boundary"
    233.82000    230.52000    231.25000      0.27000     11.06000     10.84000    198.67000 "Bed Boundary"
    234.06000    283.62000    284.85000      0.27000     12.41000     12.39000    199.96000 "Scour Surface"
    234.13000     23.06000     23.03000      0.27000     27.08000     27.35000    200.23000 "Cross Bedding"
    234.26000      4.82000      4.96000      0.28000     26.63000     26.90000    200.66000 "Cross Bedding"
    234.37000     10.67000     10.77000      0.28000     26.64000     26.91000    200.99000 "Cross Bedding"
