~VERSION INFORMATION
VERS .             3.00                          :CWLS LOG ASCII STANDARD - VERSION 2.0
WRAP .             NO                            :ONE LINE PER DEPTH STEP
DLM  .             SPACE                         :Delimiter
PROD .             Schlumberger Technology Corp. :LAS Producer
SOURCE.            Techlog                       :DATA SOURCE
#--------------------------------------------------
~WELL INFORMATION
#MNEM.UNIT    DATA                                                :DESCRIPTION
#----.-----   -----------------------                              -----------------------------
 STRT.M            105.37                                  :START DEPTH
 STOP.M            254.58                                  :STOP DEPTH
 STEP.M            0.00000                                 :STEP
NULL .             -999.25                                 :NULL VALUE
COMP .             SUNCOR ENERGY INC.                      :COMPANY
WELL .             SUNCOR LEWIS 6-34-91-8                  :WELL NAME
FLD  .             LEWIS                                   :FIELD NAME
LOC  .             6-34-091-08W4                           :FIELD LOCATION
PROV .             ALBERTA                                 :PROVINCE
SRVC .             Schlumberger                            :SERVICE COMPANY
DATE .             23-Feb-2014                             :LOG DATE
UWI  .             1AA063409108W400                        :UNIQUE WELL ID
LIC  .             0464072                                 :License Number
SON  .                                                     :Service Order Number
CTRY .             CA                                      :Country
LATI .deg          56.9345                                 :LATITUDE (N=+ S=-) (from LATD)
LONG .deg          -111.205                                :LONGITUDE (from LOND)
GDAT .                                                     :
~PARAMETER INFORMATION
#MNEM.UNIT    VALUE                                               :DESCRIPTION
#----.----    ---------------                                     :-------------------
SGOR .                                                     :
MVIS .                                                     :
MDEC .                                                     :
SEABDEPTH.                                                 :
TOWN .                                                     :
RUN-NUMBER.                                                :
NAME-SPACE-NAME.                                           :
KPER .                                                     :
TLLAB.                                                     :
TD_CALI_OFFSET.                                            :
EGL  .m            445.00                                  :
DC_TRIM.                                                   :
SEXP_HILT.                                                 :
TD   .                                                     :
DATE .             23-Feb-2014                             :
DATF .                                                     :
DATT .                                                     :
WN   .                                                     :
FL1  .                                                     :
FL2  .                                                     :
LOGSEQ.                                                    :
DMAG_CORR_ON.                                              :
OVERIDE_LOCB.                                              :
LOG_START_TIME.                                            :
LOND .deg          -111.21                                 :
LMF  .             KB                                      :
OVERIDE_LOCG.                                              :
GVIS .                                                     :
FLD  .             LEWIS                                   :
FVEL .                                                     :
PCODDRL.                                                   :
LATI .                                                     :
COMP .             .            :                          :
CREATION-TIME.                                             :
~CURVE INFORMATION
#MNEM.UNIT    VALUE          :DESCRIPTION
#----.----    ---------------  :-------------------
 DEPT.M                                          :Depth Channel (from TDEP)
Azim_APP.dega                                    :Dip Azimuth Appature {F}
Azim_TRU.dega                                    :Dip Azimuth {F}
HDev .deg                                        :Hole Deviation {F}
Dip_APP.dega                                     :Dipp Apperture {F}
Dip_TRU.dega                                     :Dip True Dip {F}
HAzi .deg                                        :Hole Azimuth {F}
Type .                                           :Dip Type {S}
~ASCII   DEPT     Azim_APP     Azim_TRU         HDev      Dip_APP      Dip_TRU         HAzi         Type
# ...
    171.13000    307.79000    312.40000      0.58000      7.15000      7.08000    226.68000 "Bed Boundary"
    171.32000    358.36000      0.47000      0.58000     11.16000     11.56000    226.28000 "Bed Boundary"
    171.50000     44.00000     44.15000      0.58000      7.33000      7.91000    226.06000 "Bed Boundary"
    171.70000     81.34000     79.35000      0.58000      9.08000      9.56000    225.91000 "Lat. Accretion"
    172.04000     86.97000     84.70000      0.58000      9.04000      9.48000    225.83000 "Lat. Accretion"
    172.44000    107.53000    105.01000      0.57000     10.93000     11.21000    225.94000 "Lat. Accretion"
    172.75000     99.55000     96.49000      0.56000      8.07000      8.41000    226.01000 "Lat. Accretion"
    173.18000    100.68000     98.20000      0.56000     10.07000     10.40000    226.17000 "Lat. Accretion"
    173.55000    286.30000    290.90000      0.56000      6.31000      6.05000    226.58000 "Lat. Accretion"
    173.94000     75.16000     73.39000      0.57000      8.11000      8.62000    226.97000 "Lat. Accretion"
    174.32000     40.34000     40.75000      0.56000      8.43000      8.99000    226.97000 "Lat. Accretion"
    174.61000     16.12000     17.29000      0.56000     13.01000     13.50000    226.48000 "Lat. Accretion"
    174.92000     44.85000     44.89000      0.55000     10.43000     10.98000    225.75000 "Scour Surface"
    175.00000      2.91000      3.74000      0.55000     24.18000     24.60000    225.58000 "Cross Bedding"
    175.10000    351.79000    352.69000      0.56000     25.89000     26.22000    225.37000 "Cross Bedding"
    175.19000    355.95000    356.88000      0.56000     24.20000     24.57000    225.22000 "Cross Bedding"
    175.31000      4.01000      4.87000      0.56000     22.83000     23.25000    225.08000 "Cross Bedding"
    175.40000      4.90000      5.74000      0.56000     22.89000     23.32000    225.03000 "Cross Bedding"
    175.48000    359.28000      0.25000      0.56000     22.26000     22.66000    225.05000 "Cross Bedding"
    175.59000      4.65000      5.52000      0.57000     22.48000     22.91000    225.12000 "Cross Bedding"
    175.71000    184.13000    181.07000      0.57000      7.42000      7.00000    225.30000 "Bed Boundary"
    176.00000    116.10000    112.23000      0.58000      7.81000      8.03000    225.85000 "Lat. Accretion"
    176.41000     61.19000     60.32000      0.59000      9.25000      9.82000    226.28000 "Lat. Accretion"
    176.82000     57.25000     56.63000      0.59000     10.38000     10.96000    225.61000 "Lat. Accretion"
    177.19000     26.82000     27.80000      0.59000      9.77000     10.34000    224.36000 "Lat. Accretion"
    177.37000     42.36000     42.45000      0.60000      9.05000      9.64000    223.88000 "Lat. Accretion"
    177.70000     57.72000     56.80000      0.60000      8.56000      9.14000    223.44000 "Lat. Accretion"
    178.11000     45.12000     45.02000      0.60000      8.13000      8.73000    223.61000 "Lat. Accretion"
    178.33000     64.03000     62.78000      0.61000      9.01000      9.59000    223.75000 "Lat. Accretion"
    178.56000     76.98000     75.14000      0.61000      9.74000     10.26000    223.82000 "Lat. Accretion"
    178.76000     72.76000     71.25000      0.61000     10.54000     11.08000    223.73000 "Lat. Accretion"
    179.07000     64.12000     63.04000      0.61000     10.72000     11.29000    223.37000 "Lat. Accretion"
    179.20000     70.45000     69.01000      0.61000     10.44000     10.99000    223.14000 "Lat. Accretion"
    179.44000     56.89000     56.09000      0.61000     10.00000     10.59000    222.71000 "Lat. Accretion"
    179.63000     76.84000     74.44000      0.61000      7.72000      8.23000    222.37000 "Lat. Accretion"
    179.84000     75.98000     73.33000      0.61000      6.83000      7.35000    222.09000 "Lat. Accretion"
    180.03000     69.31000     66.64000      0.61000      5.47000      6.02000    221.91000 "Lat. Accretion"
    180.30000    245.25000    247.44000      0.61000      6.87000      6.31000    221.80000 "Scour Surface"
    180.42000    257.92000    258.53000      0.61000     30.86000     30.37000    221.83000 "Cross Bedding"
    180.52000    240.25000    241.82000      0.61000      7.56000      6.98000    221.88000 "Scour Surface"
    180.53000    262.75000    263.42000      0.61000     31.26000     30.80000    221.89000 "Cross Bedding"
    180.64000    259.55000    260.17000      0.61000     31.10000     30.62000    221.95000 "Cross Bedding"
    180.74000    219.63000    219.46000      0.61000      8.65000      8.05000    221.99000 "Scour Surface"
    180.76000    259.07000    259.68000      0.61000     30.99000     30.51000    222.01000 "Cross Bedding"
    180.89000    265.53000    266.21000      0.61000     31.99000     31.56000    222.10000 "Cross Bedding"
    181.03000    255.00000    255.55000      0.60000     31.58000     31.08000    222.21000 "Cross Bedding"
    181.16000    268.38000    269.11000      0.60000     31.14000     30.72000    222.25000 "Cross Bedding"
    181.33000    271.53000    272.30000      0.60000     31.18000     30.79000    222.25000 "Cross Bedding"
    181.51000    270.21000    270.94000      0.60000     31.66000     31.26000    222.20000 "Cross Bedding"
    181.62000    272.01000    272.80000      0.60000     30.41000     30.03000    222.12000 "Cross Bedding"
    181.85000    264.22000    265.85000      0.60000     14.30000     13.87000    221.87000 "Bed Boundary"
    182.19000     65.87000     64.50000      0.59000      9.67000     10.22000    221.37000 "Lat. Accretion"
    182.44000     80.03000     77.10000      0.59000      6.78000      7.25000    220.94000 "Lat. Accretion"
    182.80000    135.40000    130.33000      0.58000      6.56000      6.53000    220.29000 "Lat. Accretion"
    183.11000    162.50000    157.17000      0.57000      5.48000      5.19000    219.80000 "Lat. Accretion"
    183.37000    109.12000    105.70000      0.57000      8.65000      8.87000    219.50000 "Lat. Accretion"
    183.65000     15.71000     18.88000      0.57000      3.62000      4.14000    219.53000 "Lat. Accretion"
    183.90000     16.24000     18.61000      0.57000      4.90000      5.42000    219.65000 "Lat. Accretion"
    184.13000     23.18000     24.74000      0.56000      5.38000      5.92000    219.75000 "Lat. Accretion"
    184.44000    291.03000    291.55000      0.56000     46.26000     46.08000    219.73000 "Erosional Surface"
    184.58000      8.16000      9.35000      0.56000     13.34000     13.82000    219.64000 "Lat. Accretion"
    184.83000     11.54000     12.61000      0.56000     13.21000     13.70000    219.48000 "Lat. Accretion"
    185.11000     15.07000     16.03000      0.56000     12.92000     13.43000    219.20000 "Lat. Accretion"
    185.34000     22.15000     22.80000      0.56000     13.52000     14.06000    218.87000 "Lat. Accretion"
    185.59000    357.54000    359.06000      0.56000     13.25000     13.68000    218.42000 "Lat. Accretion"
    185.80000    330.01000    332.55000      0.57000     11.51000     11.73000    218.01000 "Lat. Accretion"
    186.04000    322.48000    325.02000      0.57000     12.11000     12.27000    217.55000 "Lat. Accretion"
    186.28000    346.48000    348.94000      0.58000      9.90000     10.27000    217.22000 "Lat. Accretion"
    186.58000      0.16000      2.06000      0.58000      9.94000     10.41000    217.15000 "Lat. Accretion"
    186.87000    354.67000    357.30000      0.58000      8.12000      8.55000    217.37000 "Lat. Accretion"
    187.28000    144.49000    137.13000      0.59000      4.54000      4.41000    217.92000 "Bed Boundary"
    187.49000    315.25000    319.74000      0.60000      7.43000      7.53000    218.18000 "Bed Boundary"
    187.68000    332.71000    336.01000      0.60000      9.21000      9.47000    218.42000 "Bed Boundary"
    187.83000    249.15000    251.25000      0.61000      8.89000      8.37000    218.54000 "Bed Boundary"
