~Version
 VERS              .         2                             : CWLS LOG ASCII STANDARD - VERSION 2.0
 WRAP              .         NO                            : ONE LINE PER DEPTH STEP
 DLM               .         SPACE                         : DELIMITING CHARACTER(SPACE TAB OR COMMA)
~Well Information
#_______________________________________________________________________________
#
#PARAMETER_NAME    .UNIT     VALUE                         : DESCRIPTION
#_______________________________________________________________________________
STRT               .m        56.74727                      : First reference value
STOP               .m        182.3879                      : Last reference value
STEP               .m        0                             : Step increment
NULL               .         -999.25                       : Missing value
WELL               .         SUNCOR LEWIS 7-22-92-8        : Well name
FILE-ID            .         00001_STAR_RPT                                                   : 
FLD                .         UNDEFINED                     : 
FILE-NUMBER        .         1                             : 
WELL-NAME          .         SUNCOR LEWIS 7-22-92-8        : 
FILE-SET-NUMBER    .         51                            : 
SRC_UNIT           .         meters                        : 
PRODUCER-CODE      .         150                           : 
SRC_NAME           .         /dat1a/SUNCOR2016/CA003953/star_rpt.xtf: 
FILE-TYPE          .         EXCHANGE                      : 
VERSION            .         Access-5.49                   : 
NAME-SPACE-VERSION .         1                             : 
COMP               .         SUNCOR ENERGY INC             : 
FILE-SET-NAME      .         BAKERH                        : 
COMPANY            .         SUNCOR ENERGY INC             : 
ABSE_FVAL          .         -999.25                       : 
WN                 .         SUNCOR LEWIS 7-22-92-8        : 
NAME-SPACE-NAME    .         BAKERH                        : 
FIELD-NAME         .         UNDEFINED                     : 
CREATION-TIME      .         2016/1/16 16_45               : 
SRC_FILE           .         star_rpt.xtf                  : 
PRODUCER-NAME      .         ATLAS                         : 
HLD                .         IN MAKING INTERPRETATIONS OF LOGS OUR EMPLOYEES WILL GIVE CUSTOMER <_techsia_sc_>THE BENEFIT OF THEIR BEST JUDGEMENT. BUT SINCE ALL INTERPRETATIONS <_techsia_sc_>ARE OPINIONS BASED ON INFERENCES FROM ELECTRICAL OR OTHER <_techsia_sc_>MEASUREMENTS, WE CANNOT, AND WE DO NOT GUARANTEE THE ACCURACY OR <_techsia_sc_>CORRECTNESS OF ANY INTERPRETATION. WE SHALL NOT BE LIABLE OR <_techsia_sc_>RESPONSIBLE FOR ANY LOSS, COST, DAMAGES, OR EXPENSES WHATSOEVER <_techsia_sc_>INCURRED OR SUSTAINED BY THE CUSTOMER RESULTING FROM ANY <_techsia_sc_>INTERPRETATION MADE BY ANY OF OUR EMPLOYEES.: 
PRODUCT            .         WFM/eclips                    : 
PROGRAMS           .         Data Export                   : 
UWI                .         1AA072209208W400              : 
CTRY               .         CA                            : Two letter Internet country code
COUNTRY            .         CANADA                        : 
PROVINCE           .         Alberta                       : 
LATI               .Deg      57.0175 N                     : 
LONG               .W        -111.419 W                    : 
EREF               .m        440.70                        : 
DREF               .m        438.50                        : 
LSD                .         07                            : 
SEC                .         22                            : 
TWP                .         092                           : 
RGE                .         08W4                          : 
SON                .         003953J                       : 
LICENSE            .         0477502                       : 
EKB                .m        440.70                        : 
EGL                .m        438.50                        : 
Completion_date    .         16-Jan-2016                   : 
LOC                .                                       : 
DATE               .                                       : 
SRVC               .                                       : 
GDAT               .                                       : 
PROV               .                                       : 
LIC                .                                       : 
STAT               .                                       : 
CNTY               .                                       : 
API                .                                       : 
~Parameter Information Block
#_______________________________________________________________________________
#
#PARAMETER_NAME    .UNIT     VALUE                         : DESCRIPTION
#_______________________________________________________________________________
SET                .         Dip_All                       : 
REAL_CREATION_DATE .         Tue Jan 19 2016-16_48_55      : 
TLFamily_TDEP      .         Measured Depth                : 
TLFamily_Type      .         Dip Classification            : 
TLFamily_Quality   .         Dip Quality                   : 
TLFamily_Azimuth   .         True Dip Azimuth              : 
TLFamily_Dip_TRU   .         True Dip Inclination          : 
~Curve Information
#_______________________________________________________________________________
#
#LOGNAME           .UNIT     LOG_ID                        : DESCRIPTION
#_______________________________________________________________________________
TDEP               .m                                      :  
Azimuth            .dega                                   :  
Dip_TRU            .dega                                   :  
Quality            .unitless                               :  
Type               .unitless                               :  
~Ascii
# ...
130.7854   245.3974   18.25754   20         "Cross Bedding"
130.8682   249.7105   18.28152   20         "Cross Bedding"
130.9265   255.4562   18.87561   20         "Cross Bedding"
130.9817   269.7084   18.41397   20         "Cross Bedding"
131.04     276.8251   22.74644   20         "Cross Bedding"
131.0785   289.4638   23.33112   20         "Cross Bedding"
131.1106   286.8515   24.868     20         "Cross Bedding"
131.1628   279.6761   23.38348   20         "Cross Bedding"
131.1965   276.8113   23.92633   20         "Cross Bedding"
131.2281   277.3277   24.0058    20         "Cross Bedding"
131.2609   276.8126   22.95041   20         "Cross Bedding"
131.3161   312.7503   1.295561   20         "Discontinuity Boundary"
131.3715   327.7889   2.843108   20         Bedding   
131.4234   346.1628   3.749788   20         Bedding   
131.4757   334.7945   1.196404   20         Bedding   
131.5419   323.8928   1.32506    20         Bedding   
131.5891   331.6693   1.217584   20         Bedding   
131.65     330.0046   1.9345     20         Bedding   
131.718    343.4156   3.074544   20         Bedding   
131.7684   336.7537   2.539212   20         Bedding   
131.8142   329.9322   4.117857   20         Bedding   
131.8622   320.4052   0.6047468  20         Bedding   
131.9659   181.9703   1.337912   20         Bedding   
132.0524   316.3349   1.30231    20         Bedding   
132.1514   318.9276   5.154551   20         Bedding   
132.2303   330.6836   3.572122   20         Bedding   
132.3089   190.9913   0.6967202  20         Bedding   
132.338    300.4892   0.3948587  20         Bedding   
132.3653   173.7352   0.6754175  20         Bedding   
132.4175   326.9183   3.244231   20         Bedding   
132.4696   320.5049   1.937298   20         Bedding   
132.5647   329.3734   3.798165   20         Bedding   
132.6232   332.1284   3.838066   20         Bedding   
132.6691   321.9648   1.035382   20         Bedding   
132.7396   182.5312   0.9841626  20         Bedding   
132.7812   315.024    2.624265   20         Bedding   
132.8409   188.8288   0.7822555  20         Bedding   
132.91     312.46     0.7373906  20         Bedding   
132.9575   328.3116   2.30426    20         Bedding   
133.0264   321.8672   2.593788   20         Bedding   
133.0833   222.9952   8.741545   20         "Discontinuity Boundary"
133.1446   199.3726   14.08774   20         "Cross Bedding"
133.2121   183.6761   11.63651   20         "Cross Bedding"
133.2734   196.4316   14.71554   20         "Cross Bedding"
133.3563   210.136    8.706271   20         "Cross Bedding"
133.4514   216.4044   18.86518   20         "Cross Bedding"
133.5127   209.0914   21.63601   20         "Cross Bedding"
133.5649   193.2335   20.2515    20         "Scour Surface"
133.6174   340.3723   31.65431   20         "Cross Bedding"
133.6906   319.9035   24.43846   20         "Cross Bedding"
133.7397   332.8972   26.4716    20         "Cross Bedding"
133.798    328.6039   27.9876    20         "Cross Bedding"
133.9667   324.3349   6.317784   20         Bedding   
134.0465   329.9259   21.75127   20         "Cross Bedding"
134.1078   334.3169   24.95268   20         "Cross Bedding"
134.2121   334.3599   27.53887   20         "Cross Bedding"
134.2888   345.8721   28.47361   20         "Cross Bedding"
134.387    341.3176   21.19296   20         "Cross Bedding"
134.4422   345.6769   22.30854   20         "Cross Bedding"
134.4852   337.5316   10.05329   20         "Cross Bedding"
134.5527   325.5449   24.43736   20         "Cross Bedding"
134.6202   322.7453   27.51672   20         "Cross Bedding"
134.6754   322.7211   26.00043   20         "Cross Bedding"
134.7428   325.602    25.99198   20         "Cross Bedding"
134.8134   334.1671   23.34712   20         "Cross Bedding"
134.8962   302.6661   28.11936   20         "Cross Bedding"
134.9573   304.0627   25.65338   20         "Cross Bedding"
135.0527   294.0953   34.20627   20         "Cross Bedding"
135.0987   286.8939   26.61305   20         "Cross Bedding"
135.1662   295.4999   26.56895   20         "Cross Bedding"
135.2337   296.9236   26.04321   20         "Cross Bedding"
135.3012   296.9042   24.9971    20         "Cross Bedding"
135.3564   298.3298   24.45478   20         "Cross Bedding"
135.4208   314.0938   24.40874   20         "Cross Bedding"
135.4607   315.4544   21.20089   20         "Cross Bedding"
135.5374   338.0651   2.482774   20         Bedding   
135.6325   289.7622   28.0527    20         "Cross Bedding"
135.6693   291.1945   26.55175   20         "Cross Bedding"
135.7245   294.0432   26.08042   20         "Cross Bedding"
135.7767   293.9882   25.59228   20         "Cross Bedding"
135.8779   308.388    27.10574   20         "Cross Bedding"
135.9301   309.8107   25.51589   20         "Cross Bedding"
136.0006   311.2347   25.43621   20         "Cross Bedding"
136.0589   311.2486   26.43378   20         "Cross Bedding"
136.1602   311.1982   23.21302   20         "Cross Bedding"
136.2246   315.6039   29.26161   20         "Cross Bedding"
136.2921   321.4195   33.99487   20         "Cross Bedding"
136.3473   328.4886   26.44273   20         "Cross Bedding"
136.4087   328.4578   25.36444   20         "Cross Bedding"
136.4731   328.6131   33.90968   20         "Cross Bedding"
136.5099   324.182    27.37459   20         "Cross Bedding"
136.5744   322.7135   25.83062   20         "Cross Bedding"
136.6235   321.2673   25.2964    20         "Cross Bedding"
136.7094   329.7663   20.99151   20         "Cross Bedding"
136.7576   320.9968   23.25859   20         "Cross Bedding"
136.7992   321.3394   28.81402   20         "Cross Bedding"
136.8504   321.2988   27.85107   20         "Cross Bedding"
136.8903   329.8781   26.35277   20         "Cross Bedding"
136.9342   333.0995   22.77621   20         "Cross Bedding"
136.9793   341.3176   23.28045   20         "Cross Bedding"
137.0621   335.693    28.52079   20         "Cross Bedding"
137.1633   319.805    28.15522   20         "Cross Bedding"
137.2278   318.3838   26.62274   20         "Cross Bedding"
137.283    318.4002   27.06501   20         "Cross Bedding"
137.3352   315.4976   25.55013   20         "Cross Bedding"
137.3965   309.7734   26.59796   20         "Cross Bedding"
137.4671   321.2674   27.07034   20         "Cross Bedding"
137.5058   321.0046   25.57106   20         "Cross Bedding"
137.5499   308.3172   26.55131   20         "Cross Bedding"
137.5827   318.5611   25.5058    20         "Cross Bedding"
137.6205   321.2296   25.92879   20         "Cross Bedding"
137.6756   318.3448   25.42217   20         "Cross Bedding"
137.7402   319.7841   25.42838   20         "Cross Bedding"
137.8045   315.5394   28.40747   20         "Cross Bedding"
137.8443   315.4999   25.89974   20         "Cross Bedding"
137.884    318.5595   24.91495   20         "Cross Bedding"
137.9303   322.6175   23.7935    20         "Cross Bedding"
137.9947   319.2142   3.578285   20         "Discontinuity Boundary"
138.0346   180.8816   3.287329   20         Bedding   
138.142    192.1764   3.656837   20         Bedding   
138.2217   178.9747   2.945414   20         Bedding   
138.3015   166.5043   5.994697   20         Bedding   
138.3629   339.69     4.745059   20         Bedding   
138.4058   343.1145   5.6046     20         Bedding   
138.4702   342.6934   4.967449   20         Bedding   
138.5654   338.5706   8.722432   20         Bedding   
138.6758   163.1036   6.97428    20         Bedding   
138.7311   138.3655   5.213755   20         "Discontinuity Boundary"
138.7954   352.9793   26.85077   20         "Cross Bedding"
138.8629   346.9715   20.53538   20         "Cross Bedding"
138.961    347.1499   25.34014   20         "Cross Bedding"
139.0224   334.045    21.67128   20         "Cross Bedding"
139.0623   316.8409   22.82978   20         "Cross Bedding"
139.1083   313.9719   22.85272   20         "Cross Bedding"
139.1635   312.4222   19.01592   20         "Cross Bedding"
139.2157   312.4237   19.01253   20         "Cross Bedding"
