~VERSION INFORMATION
VERS .             2.00                          :CWLS LOG ASCII STANDARD - VERSION 2.0
WRAP .             NO                            :ONE LINE PER DEPTH STEP
DLM  .             SPACE                         :Delimiter
PROD .             Schlumberger Technology Corp. :LAS Producer
SOURCE.            Techlog                       :DATA SOURCE
#--------------------------------------------------
~WELL INFORMATION
#MNEM.UNIT    DATA                                                :DESCRIPTION
#----.-----   -----------------------                              -----------------------------
 STRT.M            116.93000                               :START DEPTH
 STOP.M            252.95000                               :STOP DEPTH
 STEP.M            0.00000                                 :STEP
NULL .             -999.25                                 :NULL VALUE
COMP .             SUNCOR ENERGY INC.                      :COMPANY
WELL .             SUNCOR LEWIS 6-34-91-8                  :WELL NAME
FLD  .             LEWIS                                   :FIELD NAME
LOC  .             6-34-091-08W4                           :FIELD LOCATION
PROV .             ALBERTA                                 :PROVINCE
SRVC .             Schlumberger                            :SERVICE COMPANY
DATE .             23-Feb-2014                             :LOG DATE
UWI  .             1AA063409108W400                        :UNIQUE WELL ID
LIC  .             0464072                                 :License Number
SON  .                                                     :Service Order Number
CTRY .             CA                                      :Country
LATI .deg          56.9345                                 :LATITUDE (N=+ S=-) (from LATD)
LONG .deg          -111.205                                :LONGITUDE (from LOND)
GDAT .                                                     :
~PARAMETER INFORMATION
#MNEM.UNIT    VALUE                                               :DESCRIPTION
#----.----    ---------------                                     :-------------------
SGOR .                                                     :
MVIS .                                                     :
MDEC .                                                     :
SEABDEPTH.                                                 :
TOWN .                                                     :
RUN-NUMBER.                                                :
NAME-SPACE-NAME.                                           :
KPER .                                                     :
TLLAB.                                                     :
TD_CALI_OFFSET.                                            :
EGL  .m            445.00                                  :
DC_TRIM.                                                   :
SEXP_HILT.                                                 :
TD   .                                                     :
DATE .             23-Feb-2014                             :
DATF .                                                     :
DATT .                                                     :
WN   .                                                     :
UWI  .                                                     :
FL2  .                                                     :
LOGSEQ.                                                    :
DMAG_CORR_ON.                                              :
OVERIDE_LOCB.                                              :
LOG_START_TIME.                                            :
LOND .deg          -111.21                                 :
LMF  .             KB                                      :
OVERIDE_LOCG.                                              :
GVIS .                                                     :
FLD  .             LEWIS                                   :
FVEL .                                                     :
PCODDRL.                                                   :
LATI .                                                     :
COMP .             .            :                          :
CREATION-TIME.                                             :
~CURVE INFORMATION
#MNEM.UNIT    VALUE          :DESCRIPTION
#----.----    ---------------  :-------------------
 DEPT.M                                          :Depth Channel (from TDEP)
DPAA_NAZ.dega                                    :Dip Azimuth Appature {F}
DPAZ    .dega                                    :Dip Azimuth {F}
DEVI .deg                                        :Hole Deviation {F}
DPAP   .dega                                     :Dipp Apperture {F}
DPTR   .dega                                     :Dip True Dip {F}
HAZI .deg                                        :Hole Azimuth {F}
QUAF .                                           :Dip Type {S}
~A
    116.93000    316.78000    317.43000      0.56000     40.39000     40.31000    235.84000 20                       
    117.06000    273.37000    273.70000      0.56000     45.33000     44.88000    235.89000 20                       
    120.47000     33.87000     33.89000      0.49000     82.54000     83.00000    232.51000 20                       
    120.76000    151.32000    150.96000      0.48000     52.34000     52.26000    232.07000 20                       
    120.99000    170.51000    170.27000      0.48000     60.19000     59.96000    231.57000 20                       
    122.79000    268.48000    268.73000      0.45000     51.57000     51.24000    225.03000 20                       
    125.43000    183.33000    183.09000      0.41000     51.12000     50.84000    229.71000 20                       
    125.62000     66.89000     66.79000      0.41000     49.00000     49.39000    230.10000 20                       
    211.38000    139.00000    138.57000      0.55000     48.80000     48.56000    202.80000 20                       
    245.13000    115.58000    115.19000      0.51000     52.29000     52.35000    211.75000 20                       
    245.47000    145.31000    145.07000      0.52000     63.80000     63.60000    212.17000 20                       
    245.69000    184.37000    184.23000      0.52000     61.14000     60.68000    212.51000 20                       
    245.82000    146.12000    145.88000      0.53000     63.76000     63.55000    212.66000 20                       
    246.15000    308.85000    308.90000      0.53000     83.66000     83.73000    212.65000 20                       
    246.78000    129.04000    128.94000      0.55000     79.56000     79.48000    210.32000 20                       
    247.39000    229.37000    229.45000      0.57000     67.58000     67.05000    208.41000 20                       
    247.70000    149.14000    149.00000      0.58000     73.69000     73.39000    207.93000 20                       
    247.81000    270.75000    271.07000      0.58000     59.10000     58.84000    207.81000 20                       
    248.02000    118.11000    117.72000      0.59000     56.26000     56.26000    207.61000 20                       
    248.42000    266.19000    266.38000      0.60000     70.01000     69.70000    207.31000 20                       
    248.60000    249.49000    249.80000      0.61000     53.09000     52.64000    207.13000 20                       
    248.80000    101.39000    101.10000      0.61000     63.63000     63.80000    206.96000 20                       
    249.07000    103.26000    102.98000      0.62000     65.74000     65.89000    206.76000 20                       
    249.40000    231.78000    232.16000      0.63000     35.75000     35.18000    206.64000 20                       
    251.66000    253.27000    253.82000      0.72000     43.95000     43.45000    206.99000 20                       
    252.52000     75.09000     74.68000      0.73000     51.52000     52.02000    209.12000 20                       
    252.95000    212.79000    212.80000      0.72000     66.79000     66.07000    210.44000 20                       
