~Version
 VERS              .         2                             : CWLS LOG ASCII STANDARD - VERSION 2.0
 WRAP              .         NO                            : ONE LINE PER DEPTH STEP
 DLM               .         SPACE                         : DELIMITING CHARACTER(SPACE TAB OR COMMA)
~Well Information
#_______________________________________________________________________________
#
#PARAMETER_NAME    .UNIT     VALUE                         : DESCRIPTION
#_______________________________________________________________________________
STRT               .m        56.74727                      : First reference value
STOP               .m        182.3879                      : Last reference value
STEP               .m        0                             : Step increment
NULL               .         -999.25                       : Missing value
WELL               .         SUNCOR LEWIS 7-22-92-8        : Well name
FILE-ID            .         00001_STAR_RPT                                                   : 
FLD                .         UNDEFINED                     : 
FILE-NUMBER        .         1                             : 
WELL-NAME          .         SUNCOR LEWIS 7-22-92-8        : 
FILE-SET-NUMBER    .         51                            : 
SRC_UNIT           .         meters                        : 
PRODUCER-CODE      .         150                           : 
SRC_NAME           .         /dat1a/SUNCOR2016/CA003953/star_rpt.xtf: 
FILE-TYPE          .         EXCHANGE                      : 
VERSION            .         Access-5.49                   : 
NAME-SPACE-VERSION .         1                             : 
COMP               .         SUNCOR ENERGY INC             : 
FILE-SET-NAME      .         BAKERH                        : 
COMPANY            .         SUNCOR ENERGY INC             : 
ABSE_FVAL          .         -999.25                       : 
WN                 .         SUNCOR LEWIS 7-22-92-8        : 
NAME-SPACE-NAME    .         BAKERH                        : 
FIELD-NAME         .         UNDEFINED                     : 
CREATION-TIME      .         2016/1/16 16_45               : 
SRC_FILE           .         star_rpt.xtf                  : 
PRODUCER-NAME      .         ATLAS                         : 
HLD                .         IN MAKING INTERPRETATIONS OF LOGS OUR EMPLOYEES WILL GIVE CUSTOMER <_techsia_sc_>THE BENEFIT OF THEIR BEST JUDGEMENT. BUT SINCE ALL INTERPRETATIONS <_techsia_sc_>ARE OPINIONS BASED ON INFERENCES FROM ELECTRICAL OR OTHER <_techsia_sc_>MEASUREMENTS, WE CANNOT, AND WE DO NOT GUARANTEE THE ACCURACY OR <_techsia_sc_>CORRECTNESS OF ANY INTERPRETATION. WE SHALL NOT BE LIABLE OR <_techsia_sc_>RESPONSIBLE FOR ANY LOSS, COST, DAMAGES, OR EXPENSES WHATSOEVER <_techsia_sc_>INCURRED OR SUSTAINED BY THE CUSTOMER RESULTING FROM ANY <_techsia_sc_>INTERPRETATION MADE BY ANY OF OUR EMPLOYEES.: 
PRODUCT            .         WFM/eclips                    : 
PROGRAMS           .         Data Export                   : 
UWI                .         1AA072209208W400              : 
CTRY               .         CA                            : Two letter Internet country code
COUNTRY            .         CANADA                        : 
PROVINCE           .         Alberta                       : 
LATI               .Deg      57.0175 N                     : 
LONG               .W        -111.419 W                    : 
EREF               .m        440.70                        : 
DREF               .m        438.50                        : 
LSD                .         07                            : 
SEC                .         22                            : 
TWP                .         092                           : 
RGE                .         08W4                          : 
SON                .         003953J                       : 
LICENSE            .         0477502                       : 
EKB                .m        440.70                        : 
EGL                .m        438.50                        : 
Completion_date    .         16-Jan-2016                   : 
LOC                .                                       : 
DATE               .                                       : 
SRVC               .                                       : 
GDAT               .                                       : 
PROV               .                                       : 
LIC                .                                       : 
STAT               .                                       : 
CNTY               .                                       : 
API                .                                       : 
~Parameter Information Block
#_______________________________________________________________________________
#
#PARAMETER_NAME    .UNIT     VALUE                         : DESCRIPTION
#_______________________________________________________________________________
SET                .         Dip_All                       : 
REAL_CREATION_DATE .         Tue Jan 19 2016-16_48_55      : 
TLFamily_TDEP      .         Measured Depth                : 
TLFamily_Type      .         Dip Classification            : 
TLFamily_Quality   .         Dip Quality                   : 
TLFamily_Azimuth   .         True Dip Azimuth              : 
TLFamily_Dip_TRU   .         True Dip Inclination          : 
~Curve Information
#_______________________________________________________________________________
#
#LOGNAME           .UNIT     LOG_ID                        : DESCRIPTION
#_______________________________________________________________________________
TDEP               .m                                      :  
Azimuth            .dega                                   :  
Dip_TRU            .dega                                   :  
Quality            .unitless                               :  
Type               .unitless                               :  
~Ascii
# ...
68.12663   24.07507   5.265625   20         Bedding   
68.15884   18.27686   5.263269   20         Bedding   
68.23248   328.9933   0.8492782  20         Bedding   
68.29385   349.2865   2.113868   20         Bedding   
68.38435   352.1855   4.002761   20         Bedding   
68.42117   359.4332   1.480519   20         Bedding   
68.49323   330.4429   0.848877   20         Bedding   
68.59754   323.1938   1.526484   20         Bedding   
68.69112   346.1829   5.29367    20         Bedding   
68.72794   355.831    2.14738    20         Bedding   
68.77392   347.4182   2.780398   20         Bedding   
68.8721    358.6954   2.142809   20         Bedding   
68.90125   354.4958   0.2543207  20         Bedding   
68.97642   7.276851   2.140822   20         Bedding   
69.03466   12.28522   9.613081   20         Bedding   
69.10983   356.4331   9.63679    20         Bedding   
69.16045   356.6584   9.651142   20         Bedding   
69.19574   211.7018   2.675093   20         Bedding   
69.23256   214.503    4.13083    20         Bedding   
69.27398   216.0429   3.304602   20         Bedding   
69.31387   217.4091   4.563443   20         Bedding   
69.3783    213.3125   2.047457   20         Bedding   
69.42585   26.69895   0.3556515  20         Bedding   
69.4734    200.1754   0.9823985  20         Bedding   
69.54855   90.5423    4.608043   20         Bedding   
69.64057   233.3581   8.998238   20         Bedding   
69.67432   219.3271   3.363441   20         Bedding   
69.71727   214.4519   1.46491    20         Bedding   
69.80011   347.2703   6.112604   20         Bedding   
69.83386   14.29342   1.476223   20         Bedding   
69.87222   359.9624   4.018547   20         Bedding   
69.93204   358.405    1.494721   20         Bedding   
69.97039   0.9834849  2.756202   20         Bedding   
70.00721   10.88686   1.509078   20         Bedding   
70.08236   358.6491   2.780123   20         Bedding   
70.16364   20.40589   2.772223   20         Bedding   
70.21119   17.2086    2.761621   20         Bedding   
70.25414   13.24827   4.650327   20         Bedding   
70.29863   14.16      0.2481992  20         Bedding   
70.34772   209.763    1.655614   20         Bedding   
70.43817   5.000348   6.123755   20         Bedding   
70.46118   7.430265   2.1517     20         Bedding   
70.53789   9.151827   3.414717   20         Bedding   
70.58698   2.217344   9.649549   20         Bedding   
70.62226   0.662657   4.674685   20         Bedding   
70.66368   357.7239   3.417304   20         Bedding   
70.69129   355.5897   0.1703056  20         Bedding   
70.80022   186.9784   4.163557   20         Bedding   
70.88147   203.5041   2.078032   20         Bedding   
70.95357   15.30768   1.121223   20         Bedding   
71.03487   6.544192   1.561602   20         Bedding   
71.09164   339.1651   5.343535   20         Bedding   
71.15453   1.532526   0.9319909  20         Bedding   
71.18675   185.1009   1.588382   20         Bedding   
71.23124   9.908617   2.382192   20         Bedding   
71.28181   336.7526   0.9378499  20         Bedding   
71.3539    322.5048   0.1345945  20         Bedding   
71.40913   346.6294   1.565698   20         Bedding   
71.48583   189.8506   9.678488   20         Bedding   
71.61315   165.0379   3.926485   20         Bedding   
71.66531   179.6439   4.565403   20         Bedding   
71.719     181.9189   0.2619719  20         Bedding   
71.7911    181.9189   0.2619725  20         Bedding   
71.89082   2.20835    10.4017    20         Bedding   
71.95065   19.39089   5.883132   20         Bedding   
71.99053   19.23205   4.01141    20         Bedding   
72.07644   16.98572   1.505514   20         Bedding   
72.16527   341.9324   4.240547   20         Bedding   
72.25117   353.3227   2.98482    20         Bedding   
72.35856   359.0721   2.984314   20         Bedding   
72.4414    7.852009   4.864671   20         Bedding   
72.53345   1.941478   2.7658     20         Bedding   
72.68378   188.6521   2.683627   20         Bedding   
72.79117   343.1311   0.3827657  20         Bedding   
72.87094   191.3502   0.248518   20         Bedding   
72.95378   347.6359   2.990081   20         Bedding   
73.07344   352.0802   6.533306   20         Bedding   
73.14708   4.732854   4.699145   20         Bedding   
73.28515   208.6503   2.25699    20         Bedding   
73.39253   171.1972   1.37355    20         Bedding   
73.49992   7.292525   2.405695   20         Bedding   
73.5981    1.98928    4.919887   20         Bedding   
73.73923   339.1793   4.703654   20         Bedding   
73.81594   206.5851   2.67776    20         Bedding   
73.97855   344.8691   4.254707   20         Bedding   
74.09207   9.419044   9.206768   20         Bedding   
74.19946   13.74635   8.588742   20         Bedding   
74.27923   16.39248   3.610663   20         Bedding   
74.37434   22.33551   5.890982   20         Bedding   
74.4894    353.5862   9.656075   20         "Resistive Nodular Event"
74.64281   359.4142   48.07184   20         "Resistive Nodular Event"
74.83303   357.9845   41.71379   20         "Resistive Nodular Event"
74.99564   181.5579   3.217284   20         "Resistive Nodular Event"
75.07695   184.4751   2.612647   20         Bedding   
75.16746   188.8031   3.447185   20         Bedding   
75.25951   188.1576   2.80539    20         Bedding   
75.34541   192.3117   2.209754   20         Bedding   
75.4528    189.8194   5.95802    20         Bedding   
75.56018   198.9849   4.755743   20         Bedding   
75.68291   200.1252   5.35186    20         Bedding   
75.7995    192.7119   7.810241   20         Bedding   
75.89154   192.7241   5.350261   20         Bedding   
75.97131   183.9761   4.728892   20         Bedding   
76.04495   0.7117023  4.595706   20         Bedding   
76.15234   324.7169   12.7135    20         Bedding   
76.22904   308.8122   13.88051   20         Bedding   
76.2812    308.844    10.91593   20         Bedding   
76.40086   331.9438   11.52044   20         Bedding   
76.50517   336.2798   10.9218    20         Bedding   
76.57268   334.8854   5.433848   20         Bedding   
76.70767   337.7247   12.1178    20         Bedding   
76.79665   342.0714   6.666241   20         Bedding   
76.9071    346.3873   9.716593   20         Bedding   
77.00529   343.5079   7.8939     20         Bedding   
77.09427   349.2675   7.282336   20         Bedding   
77.1679    349.2655   8.513159   20         Bedding   
77.24461   353.5893   9.118281   20         Bedding   
77.37347   356.3333   2.95742    20         Bedding   
77.50539   347.8027   5.458019   20         Bedding   
77.58823   353.5627   6.686651   20         Bedding   
77.67415   2.200747   6.669971   20         Bedding   
77.81222   358.0728   8.531418   20         Bedding   
77.90733   357.8997   8.508437   20         Bedding   
77.99631   3.634851   6.666241   20         Bedding   
78.09755   19.33374   4.188869   20         Bedding   
78.16812   359.3632   0.3758453  20         Bedding   
78.27857   20.89987   6.045135   20         Bedding   
78.36992   23.42302   2.72376    20         Bedding   
78.44049   9.132302   2.736014   20         Bedding   
78.50799   190.146    0.2465318  20         Bedding   
78.60617   359.2415   3.98646    20         Bedding   
78.67367   180.7172   0.2476972  20         Bedding   
78.86696   16.87206   1.088821   20         Bedding   
78.98969   18.79177   1.713507   20         Bedding   
79.12469   10.5147    2.343168   20         Bedding   
79.24127   357.0422   1.143526   20         Bedding   
79.36093   357.6217   3.020066   20         Bedding   
79.45605   346.3687   4.881501   20         Bedding   
79.57571   347.8219   5.457022   20         Bedding   
79.67696   336.5101   4.253291   20         Bedding   
79.77821   332.2241   3.446462   20         Bedding   
79.84877   331.8975   2.705575   20         Bedding   
79.99604   333.583    1.817983   20         Bedding   
80.08808   333.3841   1.189295   20         Bedding   
80.16785   347.8959   1.19977    20         Bedding   
