~Version
 VERS              .         2                             : CWLS LOG ASCII STANDARD - VERSION 2.0
 WRAP              .         NO                            : ONE LINE PER DEPTH STEP
 DLM               .         SPACE                         : DELIMITING CHARACTER(SPACE TAB OR COMMA)
~Well Information
#_______________________________________________________________________________
#
#PARAMETER_NAME    .UNIT     VALUE                         : DESCRIPTION
#_______________________________________________________________________________
STRT               .m        56.74727                      : First reference value
STOP               .m        182.3879                      : Last reference value
STEP               .m        0                             : Step increment
NULL               .         -999.25                       : Missing value
WELL               .         SUNCOR LEWIS 7-22-92-8        : Well name
FILE-ID            .         00001_STAR_RPT                                                   : 
FLD                .         UNDEFINED                     : 
FILE-NUMBER        .         1                             : 
WELL-NAME          .         SUNCOR LEWIS 7-22-92-8        : 
FILE-SET-NUMBER    .         51                            : 
SRC_UNIT           .         meters                        : 
PRODUCER-CODE      .         150                           : 
SRC_NAME           .         /dat1a/SUNCOR2016/CA003953/star_rpt.xtf: 
FILE-TYPE          .         EXCHANGE                      : 
VERSION            .         Access-5.49                   : 
NAME-SPACE-VERSION .         1                             : 
COMP               .         SUNCOR ENERGY INC             : 
FILE-SET-NAME      .         BAKERH                        : 
COMPANY            .         SUNCOR ENERGY INC             : 
ABSE_FVAL          .         -999.25                       : 
WN                 .         SUNCOR LEWIS 7-22-92-8        : 
NAME-SPACE-NAME    .         BAKERH                        : 
FIELD-NAME         .         UNDEFINED                     : 
CREATION-TIME      .         2016/1/16 16_45               : 
SRC_FILE           .         star_rpt.xtf                  : 
PRODUCER-NAME      .         ATLAS                         : 
HLD                .         IN MAKING INTERPRETATIONS OF LOGS OUR EMPLOYEES WILL GIVE CUSTOMER <_techsia_sc_>THE BENEFIT OF THEIR BEST JUDGEMENT. BUT SINCE ALL INTERPRETATIONS <_techsia_sc_>ARE OPINIONS BASED ON INFERENCES FROM ELECTRICAL OR OTHER <_techsia_sc_>MEASUREMENTS, WE CANNOT, AND WE DO NOT GUARANTEE THE ACCURACY OR <_techsia_sc_>CORRECTNESS OF ANY INTERPRETATION. WE SHALL NOT BE LIABLE OR <_techsia_sc_>RESPONSIBLE FOR ANY LOSS, COST, DAMAGES, OR EXPENSES WHATSOEVER <_techsia_sc_>INCURRED OR SUSTAINED BY THE CUSTOMER RESULTING FROM ANY <_techsia_sc_>INTERPRETATION MADE BY ANY OF OUR EMPLOYEES.: 
PRODUCT            .         WFM/eclips                    : 
PROGRAMS           .         Data Export                   : 
UWI                .         1AA072209208W400              : 
CTRY               .         CA                            : Two letter Internet country code
COUNTRY            .         CANADA                        : 
PROVINCE           .         Alberta                       : 
LATI               .Deg      57.0175 N                     : 
LONG               .W        -111.419 W                    : 
EREF               .m        440.70                        : 
DREF               .m        438.50                        : 
LSD                .         07                            : 
SEC                .         22                            : 
TWP                .         092                           : 
RGE                .         08W4                          : 
SON                .         003953J                       : 
LICENSE            .         0477502                       : 
EKB                .m        440.70                        : 
EGL                .m        438.50                        : 
Completion_date    .         16-Jan-2016                   : 
LOC                .                                       : 
DATE               .                                       : 
SRVC               .                                       : 
GDAT               .                                       : 
PROV               .                                       : 
LIC                .                                       : 
STAT               .                                       : 
CNTY               .                                       : 
API                .                                       : 
~Parameter Information Block
#_______________________________________________________________________________
#
#PARAMETER_NAME    .UNIT     VALUE                         : DESCRIPTION
#_______________________________________________________________________________
SET                .         Dip_All                       : 
REAL_CREATION_DATE .         Tue Jan 19 2016-16_48_55      : 
TLFamily_TDEP      .         Measured Depth                : 
TLFamily_Type      .         Dip Classification            : 
TLFamily_Quality   .         Dip Quality                   : 
TLFamily_Azimuth   .         True Dip Azimuth              : 
TLFamily_Dip_TRU   .         True Dip Inclination          : 
~Curve Information
#_______________________________________________________________________________
#
#LOGNAME           .UNIT     LOG_ID                        : DESCRIPTION
#_______________________________________________________________________________
TDEP               .m                                      :  
Azimuth            .dega                                   :  
Dip_TRU            .dega                                   :  
Quality            .unitless                               :  
Type               .unitless                               :  
~Ascii
# ...
158.7036   317.1278   28.60472   20         "Cross Bedding"
158.7558   309.9435   28.35547   20         "Cross Bedding"
158.8064   324.0974   22.30477   20         "Cross Bedding"
158.8448   328.538    1.843711   20         "Discontinuity Boundary"
158.923    184.7526   0.9390906  20         Bedding   
158.9921   196.2882   0.2173885  20         Bedding   
159.055    329.1121   1.695604   20         Bedding   
159.1378   330.7148   1.710783   20         Bedding   
159.1731   336.1018   3.607234   20         Bedding   
159.2176   330.9883   3.819954   20         "Discontinuity Boundary"
159.3127   323.0078   28.55652   20         "Cross Bedding"
159.3649   311.4538   25.47985   20         "Cross Bedding"
159.4001   328.5595   26.36458   20         "Cross Bedding"
159.4569   331.3159   23.13498   20         "Cross Bedding"
159.526    158.2299   1.903113   20         Bedding   
159.6073   179.522    2.048036   20         Bedding   
159.6748   172.7236   2.170376   20         "Discontinuity Boundary"
159.7653   322.9655   33.34341   20         "Cross Bedding"
159.8133   334.45     26.70896   20         "Cross Bedding"
159.8547   333.0222   27.16047   20         "Cross Bedding"
159.9099   334.619    33.11623   20         "Cross Bedding"
159.9606   343.3682   37.25256   20         "Cross Bedding"
160.0358   348.9438   28.72218   20         "Cross Bedding"
160.1186   348.9169   27.82725   20         "Cross Bedding"
160.1754   347.3134   23.63402   20         "Cross Bedding"
160.2444   346.0312   28.05893   20         "Cross Bedding"
160.3012   337.3706   28.21526   20         "Cross Bedding"
160.3518   337.3151   26.30824   20         "Cross Bedding"
160.4254   335.9454   28.80042   20         "Cross Bedding"
160.4776   340.2699   28.71446   20         "Cross Bedding"
160.5313   351.7453   26.17693   20         "Cross Bedding"
160.5896   335.7897   23.72357   20         "Cross Bedding"
160.6479   335.9935   28.74756   20         "Cross Bedding"
160.7001   348.9158   25.80442   20         "Cross Bedding"
160.7369   345.8953   21.67205   20         "Cross Bedding"
160.7728   348.6978   20.03269   20         "Cross Bedding"
160.8173   351.4045   17.18824   20         "Cross Bedding"
160.8787   348.7505   21.06367   20         "Cross Bedding"
160.9232   340.2136   23.84865   20         "Cross Bedding"
160.9616   341.5408   21.78809   20         "Cross Bedding"
161.003    342.9157   21.78438   20         "Cross Bedding"
161.0367   340.0573   22.8049    20         "Cross Bedding"
161.0797   341.3571   20.0734    20         "Cross Bedding"
161.115    344.0988   17.88111   20         "Cross Bedding"
161.1503   349.6879   15.74602   20         "Cross Bedding"
161.2055   8.95606    9.487258   20         "Resistive Nodular Event"
161.2791   186.4603   10.41542   20         "Resistive Nodular Event"
161.3513   338.8394   24.26746   20         "Cross Bedding"
161.4295   341.7125   24.19119   20         "Cross Bedding"
161.5307   350.5192   27.89941   20         "Cross Bedding"
161.6228   357.6037   24.16089   20         "Cross Bedding"
161.6796   357.7502   28.11263   20         "Cross Bedding"
161.744    357.6844   26.23681   20         "Cross Bedding"
161.7961   341.687    23.92374   20         "Cross Bedding"
161.8468   321.2814   18.1225    20         "Cross Bedding"
161.9205   321.3437   19.2683    20         "Cross Bedding"
161.9803   305.7756   22.57233   20         "Cross Bedding"
162.0509   320.1732   26.51314   20         "Cross Bedding"
162.0877   324.5042   27.38275   20         "Cross Bedding"
162.1399   327.4281   28.7924    20         "Cross Bedding"
162.1905   325.8972   25.87105   20         "Cross Bedding"
162.2182   337.3325   23.74536   20         "Cross Bedding"
162.255    328.6416   22.72138   20         "Cross Bedding"
162.2856   345.672    18.21569   20         "Cross Bedding"
162.3347   331.3195   18.84766   20         "Cross Bedding"
162.5081   309.9049   19.26615   20         "Cross Bedding"
162.5372   318.5209   20.26427   20         "Cross Bedding"
162.6201   314.1511   18.61839   20         "Cross Bedding"
162.6722   304.2825   21.37203   20         "Cross Bedding"
162.7367   304.3172   21.39552   20         "Cross Bedding"
162.8119   308.6713   23.17488   20         "Cross Bedding"
162.864    305.7543   21.26039   20         "Cross Bedding"
162.907    297.2075   22.44573   20         "Cross Bedding"
162.9408   297.2025   21.93547   20         "Cross Bedding"
163.0159   307.0623   20.31047   20         "Cross Bedding"
163.1064   254.3602   20.9979    20         "Cross Bedding"
163.1601   260.1268   12.33236   20         "Cross Bedding"
163.1985   264.3191   14.64219   20         "Cross Bedding"
163.2353   257.225    19.06312   20         "Cross Bedding"
163.2859   261.5026   17.76963   20         "Cross Bedding"
163.3273   262.9492   13.77197   20         "Cross Bedding"
163.3668   274.0866   9.685056   20         "Cross Bedding"
163.422    312.3079   2.326758   20         "Discontinuity Boundary"
163.4604   327.4495   3.475118   20         Bedding   
163.5294   327.8699   2.22837    20         Bedding   
163.5704   189.3646   0.2994935  20         Bedding   
163.623    2.62891    2.596134   20         Bedding   
163.6829   21.98662   3.708837   20         Bedding   
163.7596   330.1127   0.9270946  20         Bedding   
163.8136   168.5088   1.854221   20         Bedding   
163.8777   218.288    1.243424   20         Bedding   
163.9268   25.38628   2.007967   20         Bedding   
163.9743   44.83735   2.341465   20         Bedding   
164.0219   34.01439   4.847832   20         Bedding   
164.0833   16.76806   4.325739   20         Bedding   
164.1355   26.43211   4.882992   20         Bedding   
164.1773   346.6966   3.580902   20         Bedding   
164.2321   313.9903   2.933616   20         Bedding   
164.3579   352.5879   2.710555   20         Bedding   
164.4142   344.235    5.583862   20         Bedding   
164.4561   10.96576   4.493763   20         Bedding   
164.4994   343.6671   4.937447   20         Bedding   
164.5512   335.3085   3.215413   20         Bedding   
164.6172   323.3502   2.912691   20         Bedding   
164.6816   198.5379   0.2238021  20         Bedding   
164.7384   311.422    2.995521   20         "Discontinuity Boundary"
164.7875   261.4644   18.14537   20         "Cross Bedding"
164.852    289.7131   15.70131   20         "Cross Bedding"
164.9118   250.1836   14.56407   20         "Cross Bedding"
164.9624   286.8302   14.51497   20         "Cross Bedding"
165.01     271.3592   17.40446   20         "Cross Bedding"
165.0575   301.256    17.87989   20         "Cross Bedding"
165.1097   301.2657   17.87225   20         "Cross Bedding"
165.1526   304.2312   21.13422   20         "Cross Bedding"
165.2048   292.9226   26.82245   20         "Cross Bedding"
165.2493   282.889    25.34811   20         "Cross Bedding"
165.2714   304.7246   34.10393   20         "Cross Bedding"
165.3199   294.6089   0.4283698  20         "Discontinuity Boundary"
165.3751   14.46928   1.242397   20         Bedding   
165.4104   59.91819   2.265197   20         Bedding   
165.4503   49.36606   2.909754   20         Bedding   
165.4933   31.84046   2.996268   20         Bedding   
165.55     19.37084   5.498106   20         "Discontinuity Boundary"
165.5961   295.7025   22.13738   20         "Cross Bedding"
165.6344   302.9207   23.76255   20         "Cross Bedding"
165.6654   313.4199   21.85314   20         "Cross Bedding"
165.705    300.0495   23.24818   20         "Cross Bedding"
165.7372   304.3049   22.16805   20         "Cross Bedding"
165.7787   295.6179   17.83604   20         "Cross Bedding"
165.8201   297.1251   20.58108   20         "Cross Bedding"
165.8569   292.8091   18.95534   20         "Cross Bedding"
165.8999   295.7347   22.18217   20         "Cross Bedding"
165.9367   301.4678   23.19835   20         "Cross Bedding"
165.9812   300.0393   23.19427   20         "Cross Bedding"
166.0165   298.667    25.75301   20         "Cross Bedding"
