~Version
 VERS              .         2                             : CWLS LOG ASCII STANDARD - VERSION 2.0
 WRAP              .         NO                            : ONE LINE PER DEPTH STEP
 DLM               .         SPACE                         : DELIMITING CHARACTER(SPACE TAB OR COMMA)
~Well Information
#_______________________________________________________________________________
#
#PARAMETER_NAME    .UNIT     VALUE                         : DESCRIPTION
#_______________________________________________________________________________
STRT               .m        56.74727                      : First reference value
STOP               .m        182.3879                      : Last reference value
STEP               .m        0                             : Step increment
NULL               .         -999.25                       : Missing value
WELL               .         SUNCOR LEWIS 7-22-92-8        : Well name
FILE-ID            .         00001_STAR_RPT                                                   : 
FLD                .         UNDEFINED                     : 
FILE-NUMBER        .         1                             : 
WELL-NAME          .         SUNCOR LEWIS 7-22-92-8        : 
FILE-SET-NUMBER    .         51                            : 
SRC_UNIT           .         meters                        : 
PRODUCER-CODE      .         150                           : 
SRC_NAME           .         /dat1a/SUNCOR2016/CA003953/star_rpt.xtf: 
FILE-TYPE          .         EXCHANGE                      : 
VERSION            .         Access-5.49                   : 
NAME-SPACE-VERSION .         1                             : 
COMP               .         SUNCOR ENERGY INC             : 
FILE-SET-NAME      .         BAKERH                        : 
COMPANY            .         SUNCOR ENERGY INC             : 
ABSE_FVAL          .         -999.25                       : 
WN                 .         SUNCOR LEWIS 7-22-92-8        : 
NAME-SPACE-NAME    .         BAKERH                        : 
FIELD-NAME         .         UNDEFINED                     : 
CREATION-TIME      .         2016/1/16 16_45               : 
SRC_FILE           .         star_rpt.xtf                  : 
PRODUCER-NAME      .         ATLAS                         : 
HLD                .         IN MAKING INTERPRETATIONS OF LOGS OUR EMPLOYEES WILL GIVE CUSTOMER <_techsia_sc_>THE BENEFIT OF THEIR BEST JUDGEMENT. BUT SINCE ALL INTERPRETATIONS <_techsia_sc_>ARE OPINIONS BASED ON INFERENCES FROM ELECTRICAL OR OTHER <_techsia_sc_>MEASUREMENTS, WE CANNOT, AND WE DO NOT GUARANTEE THE ACCURACY OR <_techsia_sc_>CORRECTNESS OF ANY INTERPRETATION. WE SHALL NOT BE LIABLE OR <_techsia_sc_>RESPONSIBLE FOR ANY LOSS, COST, DAMAGES, OR EXPENSES WHATSOEVER <_techsia_sc_>INCURRED OR SUSTAINED BY THE CUSTOMER RESULTING FROM ANY <_techsia_sc_>INTERPRETATION MADE BY ANY OF OUR EMPLOYEES.: 
PRODUCT            .         WFM/eclips                    : 
PROGRAMS           .         Data Export                   : 
UWI                .         1AA072209208W400              : 
CTRY               .         CA                            : Two letter Internet country code
COUNTRY            .         CANADA                        : 
PROVINCE           .         Alberta                       : 
LATI               .Deg      57.0175 N                     : 
LONG               .W        -111.419 W                    : 
EREF               .m        440.70                        : 
DREF               .m        438.50                        : 
LSD                .         07                            : 
SEC                .         22                            : 
TWP                .         092                           : 
RGE                .         08W4                          : 
SON                .         003953J                       : 
LICENSE            .         0477502                       : 
EKB                .m        440.70                        : 
EGL                .m        438.50                        : 
Completion_date    .         16-Jan-2016                   : 
LOC                .                                       : 
DATE               .                                       : 
SRVC               .                                       : 
GDAT               .                                       : 
PROV               .                                       : 
LIC                .                                       : 
STAT               .                                       : 
CNTY               .                                       : 
API                .                                       : 
~Parameter Information Block
#_______________________________________________________________________________
#
#PARAMETER_NAME    .UNIT     VALUE                         : DESCRIPTION
#_______________________________________________________________________________
SET                .         Dip_All                       : 
REAL_CREATION_DATE .         Tue Jan 19 2016-16_48_55      : 
TLFamily_TDEP      .         Measured Depth                : 
TLFamily_Type      .         Dip Classification            : 
TLFamily_Quality   .         Dip Quality                   : 
TLFamily_Azimuth   .         True Dip Azimuth              : 
TLFamily_Dip_TRU   .         True Dip Inclination          : 
~Curve Information
#_______________________________________________________________________________
#
#LOGNAME           .UNIT     LOG_ID                        : DESCRIPTION
#_______________________________________________________________________________
TDEP               .m                                      :  
Azimuth            .dega                                   :  
Dip_TRU            .dega                                   :  
Quality            .unitless                               :  
Type               .unitless                               :  
~Ascii
# ...
166.0594   302.9463   25.19991   20         "Cross Bedding"
166.11     300.0318   23.12879   20         "Cross Bedding"
166.1373   303.1252   23.0701    20         "Cross Bedding"
166.176    340.8915   1.507422   20         Bedding   
166.2175   1.897552   1.346712   20         Bedding   
166.2973   332.6284   18.41175   20         "Cross Bedding"
166.3248   311.2937   19.41965   20         "Cross Bedding"
166.3678   314.3024   23.13354   20         "Cross Bedding"
166.4215   302.8619   23.6889    20         "Cross Bedding"
166.4598   307.0861   21.64825   20         "Cross Bedding"
166.5304   315.8225   25.47273   20         "Cross Bedding"
166.5887   346.6893   4.032359   20         "Discontinuity Boundary"
166.6839   2.069704   2.67158    20         Bedding   
166.7621   10.91132   2.612634   20         Bedding   
166.8196   336.3627   2.484725   20         Bedding   
166.8787   323.0555   0.4599459  20         Bedding   
166.9754   158.4006   0.2392033  20         Bedding   
167.0321   358.6409   2.102694   20         Bedding   
167.1135   186.1268   0.8130168  20         Bedding   
167.1625   177.2714   0.2901331  20         Bedding   
167.2101   171.1935   2.033173   20         Bedding   
167.2706   194.9009   2.111632   20         Bedding   
167.3528   153.4547   2.513954   20         Bedding   
167.4418   172.4267   0.644207   20         Bedding   
167.5047   169.7554   2.116934   20         "Discontinuity Boundary"
167.574    2.118918   38.45386   20         "Cross Bedding"
167.6228   19.56727   28.73777   20         "Cross Bedding"
167.6766   23.94778   28.7925    20         "Cross Bedding"
167.7533   6.517896   29.00913   20         "Cross Bedding"
167.8054   12.30845   28.93798   20         "Cross Bedding"
167.8514   23.8125    24.7871    20         "Cross Bedding"
167.9281   16.50785   23.71812   20         "Cross Bedding"
167.9752   359.9232   24.47815   20         "Cross Bedding"
168.0263   16.65134   27.59643   20         "Cross Bedding"
168.0754   6.350796   24.1122    20         "Cross Bedding"
168.1215   1.825718   20.56927   20         "Cross Bedding"
168.1611   12.17484   34.71352   20         "Cross Bedding"
168.1997   199.8007   1.093471   20         "Discontinuity Boundary"
168.2458   7.520153   18.71114   20         "Cross Bedding"
168.2703   7.373454   17.03592   20         "Cross Bedding"
168.3163   17.55388   17.51369   20         "Cross Bedding"
168.3823   8.950159   19.2897    20         "Cross Bedding"
168.4636   358.8054   19.40958   20         "Cross Bedding"
168.5188   357.1992   17.17269   20         "Cross Bedding"
168.5587   358.614    16.57315   20         "Cross Bedding"
168.614    352.932    16.62043   20         "Cross Bedding"
168.6707   352.9068   16.04531   20         "Cross Bedding"
168.7168   351.6689   18.96108   20         "Cross Bedding"
168.7474   351.7018   19.54408   20         "Cross Bedding"
168.8134   354.7561   22.89202   20         "Cross Bedding"
168.8717   3.44526    22.91256   20         "Cross Bedding"
168.9331   4.961853   24.54523   20         "Cross Bedding"
168.996    9.271581   23.4388    20         "Cross Bedding"
169.0819   20.89435   23.27938   20         "Cross Bedding"
169.1571   28.19284   25.33353   20         "Cross Bedding"
169.2246   48.6956    27.189     20         "Cross Bedding"
169.2768   35.50122   25.7065    20         "Cross Bedding"
169.3044   33.92511   22.55567   20         "Cross Bedding"
169.332    29.60708   24.10867   20         "Cross Bedding"
169.3673   25.32209   26.5861    20         "Cross Bedding"
169.3919   25.18585   22.96622   20         "Cross Bedding"
169.4287   29.3476    18.77234   20         "Cross Bedding"
169.5023   144.0014   2.111826   20         "Discontinuity Boundary"
169.5668   178.2218   2.609265   20         "Deformed Bed Boundary"
169.6542   221.6462   3.721      20         "Deformed Bed Boundary"
169.7601   246.2435   15.22749   20         "Deformed Bed Boundary"
169.8322   274.4565   15.25518   20         "Deformed Bed Boundary"
169.9242   244.7621   14.05506   20         "Deformed Bed Boundary"
170.0025   174.7669   10.2498    20         "Deformed Bed Boundary"
170.0792   202.3781   9.66093    20         "Deformed Bed Boundary"
170.1559   12.01552   19.98603   20         "Deformed Bed Boundary"
170.1912   6.183567   19.63001   20         "Deformed Bed Boundary"
170.268    308.4856   0.3177935  20         "Discontinuity Boundary"
170.3186   16.07399   1.977457   20         Bedding   
170.3677   349.0247   0.8528686  20         Bedding   
170.4229   4.194888   2.052796   20         Bedding   
170.4873   12.78109   4.513692   20         Bedding   
170.5318   19.22871   5.091246   20         "Discontinuity Boundary"
170.6055   3.481233   23.77566   20         "Cross Bedding"
170.6485   13.66166   24.23017   20         "Cross Bedding"
170.6807   7.92514    26.29927   20         "Cross Bedding"
170.7144   12.32658   27.76419   20         "Cross Bedding"
170.7436   3.557843   25.84192   20         "Cross Bedding"
170.7804   3.591596   26.86018   20         "Cross Bedding"
170.831    356.243    23.86154   20         "Cross Bedding"
170.8801   340.3088   22.53574   20         "Cross Bedding"
170.9246   346.0927   22.88874   20         "Cross Bedding"
170.9599   353.2813   22.3326    20         "Cross Bedding"
170.9829   351.787    21.8223    20         "Cross Bedding"
171.0105   357.6532   24.4876    20         "Cross Bedding"
171.0366   359.0434   23.46825   20         "Cross Bedding"
171.0642   353.1839   21.3795    20         "Cross Bedding"
171.1087   357.6234   23.53712   20         "Cross Bedding"
171.1547   2.083402   27.19087   20         "Cross Bedding"
171.2007   3.341338   21.43736   20         "Cross Bedding"
171.2414   359.7054   18.93199   20         "Cross Bedding"
171.2836   56.20291   1.837567   20         Bedding   
171.3432   26.29897   4.814149   20         "Deformed Bed Boundary"
171.3931   55.79568   8.423985   20         "Deformed Bed Boundary"
171.4471   68.96004   14.49269   20         "Deformed Bed Boundary"
171.5184   143.2692   1.227173   20         Bedding   
171.5889   179.9149   1.429625   20         Bedding   
171.6334   173.0919   3.344567   20         Bedding   
171.6917   175.9635   2.74545    20         Bedding   
171.7638   132.6747   2.497983   20         Bedding   
171.8237   150.6187   3.198925   20         Bedding   
171.8666   136.2024   2.482962   20         Bedding   
171.9019   162.4546   1.974842   20         Bedding   
171.9465   150.1519   5.2741     20         "Discontinuity Boundary"
171.991    181.729    5.929957   20         "Deformed Bed Boundary"
172.0446   21.0588    4.503763   20         "Deformed Bed Boundary"
172.0723   15.53432   8.267386   20         "Deformed Bed Boundary"
172.1935   45.48131   7.482658   20         "Deformed Bed Boundary"
172.2165   6.304076   1.44562    20         Bedding   
172.2548   358.2651   2.317858   20         Bedding   
172.3469   214.6743   0.6726966  20         Bedding   
172.4251   345.4492   2.859335   20         Bedding   
172.4709   11.85552   0.1373892  20         Bedding   
172.5126   20.41886   2.228003   20         Bedding   
172.5724   13.37808   2.845245   20         Bedding   
172.6384   345.0109   2.231092   20         "Discontinuity Boundary"
172.7156   27.42304   16.75008   20         "Cross Bedding"
172.7611   51.4399    18.82505   20         "Cross Bedding"
172.7872   66.19437   20.41746   20         "Cross Bedding"
172.8194   79.45288   20.90109   20         "Cross Bedding"
172.867    83.89296   22.49746   20         "Cross Bedding"
172.9344   67.7019    21.44265   20         "Cross Bedding"
173.0004   55.83712   18.71988   20         "Cross Bedding"
173.0587   48.49698   18.23533   20         "Cross Bedding"
173.1152   49.29793   22.97058   20         "Cross Bedding"
173.1546   54.13785   19.68765   20         "Cross Bedding"
173.2045   56.51193   18.53985   20         "Cross Bedding"
173.2731   66.44952   17.20835   20         "Cross Bedding"
