~VERSION INFORMATION
VERS .             3.00                          :CWLS LOG ASCII STANDARD - VERSION 2.0
WRAP .             NO                            :ONE LINE PER DEPTH STEP
DLM  .             SPACE                         :Delimiter
PROD .             Schlumberger Technology Corp. :LAS Producer
SOURCE.            Techlog                       :DATA SOURCE
#--------------------------------------------------
~WELL INFORMATION
#MNEM.UNIT    DATA                                                :DESCRIPTION
#----.-----   -----------------------                              -----------------------------
 STRT.M            105.37                                  :START DEPTH
 STOP.M            254.58                                  :STOP DEPTH
 STEP.M            0.00000                                 :STEP
NULL .             -999.25                                 :NULL VALUE
COMP .             SUNCOR ENERGY INC.                      :COMPANY
WELL .             SUNCOR LEWIS 6-34-91-8                  :WELL NAME
FLD  .             LEWIS                                   :FIELD NAME
LOC  .             6-34-091-08W4                           :FIELD LOCATION
PROV .             ALBERTA                                 :PROVINCE
SRVC .             Schlumberger                            :SERVICE COMPANY
DATE .             23-Feb-2014                             :LOG DATE
UWI  .             1AA063409108W400                        :UNIQUE WELL ID
LIC  .             0464072                                 :License Number
SON  .                                                     :Service Order Number
CTRY .             CA                                      :Country
LATI .deg          56.9345                                 :LATITUDE (N=+ S=-) (from LATD)
LONG .deg          -111.205                                :LONGITUDE (from LOND)
GDAT .                                                     :
~PARAMETER INFORMATION
#MNEM.UNIT    VALUE                                               :DESCRIPTION
#----.----    ---------------                                     :-------------------
SGOR .                                                     :
MVIS .                                                     :
MDEC .                                                     :
SEABDEPTH.                                                 :
TOWN .                                                     :
RUN-NUMBER.                                                :
NAME-SPACE-NAME.                                           :
KPER .                                                     :
TLLAB.                                                     :
TD_CALI_OFFSET.                                            :
EGL  .m            445.00                                  :
DC_TRIM.                                                   :
SEXP_HILT.                                                 :
TD   .                                                     :
DATE .             23-Feb-2014                             :
DATF .                                                     :
DATT .                                                     :
WN   .                                                     :
FL1  .                                                     :
FL2  .                                                     :
LOGSEQ.                                                    :
DMAG_CORR_ON.                                              :
OVERIDE_LOCB.                                              :
LOG_START_TIME.                                            :
LOND .deg          -111.21                                 :
LMF  .             KB                                      :
OVERIDE_LOCG.                                              :
GVIS .                                                     :
FLD  .             LEWIS                                   :
FVEL .                                                     :
PCODDRL.                                                   :
LATI .                                                     :
COMP .             .            :                          :
CREATION-TIME.                                             :
~CURVE INFORMATION
#MNEM.UNIT    VALUE          :DESCRIPTION
#----.----    ---------------  :-------------------
 DEPT.M                                          :Depth Channel (from TDEP)
Azim_APP.dega                                    :Dip Azimuth Appature {F}
Azim_TRU.dega                                    :Dip Azimuth {F}
HDev .deg                                        :Hole Deviation {F}
Dip_APP.dega                                     :Dipp Apperture {F}
Dip_TRU.dega                                     :Dip True Dip {F}
HAzi .deg                                        :Hole Azimuth {F}
Type .                                           :Dip Type {S}
~ASCII   DEPT     Azim_APP     Azim_TRU         HDev      Dip_APP      Dip_TRU         HAzi         Type
# ...
    198.50000    331.69000    333.96000      0.49000     10.17000     10.43000    209.97000 "Bed Boundary"
    198.89000    337.80000    339.22000      0.48000     14.49000     14.79000    209.87000 "Bed Boundary"
    199.29000    330.35000    332.55000      0.46000      9.88000     10.12000    209.68000 "Bed Boundary"
    199.67000      5.76000      6.52000      0.44000     12.74000     13.14000    209.46000 "Bed Boundary"
    199.98000     32.09000     32.00000      0.44000     10.32000     10.75000    209.69000 "Bed Boundary"
    200.51000    316.31000    318.14000      0.45000     13.20000     13.33000    210.00000 "Bed Boundary"
    200.93000     20.67000     21.01000      0.46000     11.21000     11.66000    209.58000 "Bed Boundary"
    201.45000      1.98000      3.03000      0.45000     10.60000     11.00000    208.80000 "Bed Boundary"
    201.68000      3.74000      4.87000      0.45000      9.07000      9.48000    208.53000 "Bed Boundary"
    202.09000     27.01000     27.06000      0.45000     11.09000     11.54000    208.37000 "Bed Boundary"
    202.51000     34.91000     34.71000      0.45000     13.29000     13.74000    208.50000 "Bed Boundary"
    202.74000     70.59000     69.47000      0.45000     14.64000     14.98000    208.71000 "Bed Boundary"
    202.98000     21.77000     21.97000      0.45000     14.85000     15.30000    208.93000 "Bed Boundary"
    203.41000    323.25000    324.46000      0.45000     18.76000     18.95000    209.13000 "Bed Boundary"
    203.66000    352.56000    353.43000      0.46000     17.01000     17.37000    209.09000 "Bed Boundary"
    203.98000    350.97000    351.93000      0.46000     16.11000     16.48000    208.91000 "Bed Boundary"
    204.20000     17.14000     17.70000      0.46000      9.06000      9.51000    208.67000 "Bed Boundary"
    204.54000     26.09000     26.15000      0.47000     15.42000     15.89000    208.09000 "Bed Boundary"
    204.87000     16.93000     17.34000      0.47000     11.47000     11.93000    207.41000 "Bed Boundary"
    205.41000    330.85000    331.82000      0.47000     21.84000     22.11000    206.42000 "Bed Boundary"
    205.68000    357.10000    357.72000      0.48000     20.14000     20.56000    206.04000 "Bed Boundary"
    205.99000    339.28000    340.20000      0.48000     20.42000     20.76000    205.64000 "Bed Boundary"
    206.30000    353.02000    353.77000      0.49000     18.94000     19.36000    205.27000 "Bed Boundary"
    206.71000    359.86000      0.51000      0.50000     17.75000     18.21000    204.86000 "Bed Boundary"
    207.17000      1.72000      2.37000      0.51000     16.41000     16.89000    204.45000 "Bed Boundary"
    207.62000    347.57000    348.45000      0.53000     19.03000     19.46000    204.01000 "Bed Boundary"
    207.92000    330.72000    331.76000      0.53000     22.05000     22.37000    203.74000 "Bed Boundary"
    208.12000      2.88000      3.36000      0.54000     21.00000     21.51000    203.62000 "Bed Boundary"
    208.26000    351.78000    352.56000      0.54000     19.50000     19.96000    203.54000 "Bed Boundary"
    208.49000    345.89000    346.65000      0.54000     23.29000     23.72000    203.42000 "Bed Boundary"
    208.69000    333.87000    334.64000      0.54000     27.89000     28.24000    203.27000 "Bed Boundary"
    209.05000    357.66000    359.03000      0.54000      9.02000      9.51000    202.85000 "Bed Boundary"
    209.34000      6.01000      6.86000      0.54000      9.62000     10.13000    202.33000 "Bed Boundary"
    209.69000    342.40000    343.98000      0.54000     11.71000     12.13000    201.67000 "Bed Boundary"
    209.89000      3.30000      4.07000      0.54000     11.63000     12.15000    201.40000 "Bed Boundary"
    210.12000    327.83000    329.87000      0.54000     11.67000     12.00000    201.30000 "Bed Boundary"
    210.30000    359.25000      0.40000      0.54000      9.52000     10.02000    201.33000 "Bed Boundary"
    210.54000    334.40000    336.24000      0.54000     11.89000     12.26000    201.67000 "Bed Boundary"
    210.74000    356.66000    357.92000      0.55000     10.04000     10.54000    201.98000 "Bed Boundary"
    211.04000    355.54000    357.01000      0.55000      9.15000      9.64000    202.46000 "Bed Boundary"
    211.12000    144.16000    143.24000      0.55000     27.01000     26.73000    202.55000 "Sealed Shear"
    211.30000     11.18000     11.95000      0.55000      7.69000      8.23000    202.74000 "Scour Surface"
    211.38000    139.00000    138.57000      0.55000     48.80000     48.56000    202.80000 "Disc. Conductive Fracture"
    211.45000     11.64000     11.90000      0.55000     22.34000     22.89000    202.83000 "Cross Bedding"
    211.58000      9.52000      9.83000      0.55000     21.98000     22.52000    202.89000 "Cross Bedding"
    211.68000      8.56000      8.88000      0.55000     22.72000     23.26000    202.94000 "Cross Bedding"
    211.76000    325.28000    330.84000      0.55000      4.51000      4.83000    202.98000 "Bed Boundary"
    212.00000    335.24000    336.59000      0.56000     16.75000     17.13000    203.15000 "Bed Boundary"
    212.34000    339.94000    341.80000      0.56000     11.45000     11.86000    203.57000 "Bed Boundary"
    212.67000    347.01000    348.96000      0.57000      9.54000     10.01000    204.07000 "Bed Boundary"
    212.92000    327.68000    330.54000      0.57000      9.22000      9.54000    204.43000 "Bed Boundary"
    213.15000    296.83000    299.78000      0.58000     11.01000     11.04000    204.70000 "Bed Boundary"
    213.36000    297.31000    300.22000      0.58000     11.17000     11.21000    204.96000 "Scour Surface"
    213.42000    296.60000    297.86000      0.58000     24.69000     24.71000    205.01000 "Cross Bedding"
    213.51000    313.69000    314.88000      0.58000     24.47000     24.66000    205.08000 "Cross Bedding"
    213.61000    308.78000    309.96000      0.58000     25.13000     25.27000    205.20000 "Cross Bedding"
    213.70000    311.87000    313.10000      0.58000     24.00000     24.17000    205.30000 "Cross Bedding"
    213.94000    350.60000    352.29000      0.57000     10.57000     11.05000    205.54000 "Bed Boundary"
    214.16000    343.18000    345.18000      0.57000     10.55000     10.97000    205.87000 "Bed Boundary"
    214.43000      0.54000      1.67000      0.57000     11.84000     12.35000    206.35000 "Bed Boundary"
    214.77000    231.74000    232.97000      0.56000     11.32000     10.81000    207.08000 "Erosional Surface"
    215.12000      0.70000      1.25000      0.56000     24.46000     24.96000    207.90000 "Lat. Accretion"
    215.55000    353.30000    354.06000      0.55000     22.21000     22.66000    208.60000 "Lat. Accretion"
    215.91000    344.37000    345.48000      0.54000     18.35000     18.74000    208.80000 "Lat. Accretion"
    216.32000    330.53000    332.14000      0.53000     15.34000     15.63000    208.88000 "Lat. Accretion"
    216.58000      4.61000      5.34000      0.52000     15.95000     16.42000    209.02000 "Lat. Accretion"
    216.88000     11.89000     12.47000      0.52000     14.46000     14.95000    209.23000 "Lat. Accretion"
    216.98000    126.40000    126.10000      0.52000     60.52000     60.45000    209.30000 "Sealed Shear"
    217.11000     13.19000     13.60000      0.52000     18.81000     19.30000    209.41000 "Lat. Accretion"
    217.29000    358.70000    359.61000      0.52000     15.76000     16.21000    209.58000 "Lat. Accretion"
    217.48000     15.51000     15.82000      0.51000     21.59000     22.09000    209.77000 "Lat. Accretion"
    217.65000     20.90000     21.12000      0.51000     19.21000     19.72000    209.94000 "Lat. Accretion"
    217.83000     16.24000     16.63000      0.51000     17.39000     17.88000    210.17000 "Lat. Accretion"
    218.11000     20.72000     21.11000      0.51000     12.03000     12.53000    210.59000 "Lat. Accretion"
    218.34000     16.21000     16.82000      0.50000     11.21000     11.70000    210.92000 "Lat. Accretion"
