~VERSION INFORMATION
VERS.                                                 2.0:   CWLS Log ASCII Standard-VERSION 2.0
WRAP.                                                  NO:   One line per depth step
~Well Information Block
STRT.M                                           113.1921:   Top Depth
STOP.M                                           369.8200:   Bottom Depth
STEP.M                                             .00000:   Depth Increment
NULL.                                            -999.250:   Null Value
FLD .                                           UNDEFINED:   Field Name
WELL.                             SUNCOR FIREBAG 4-7-93-4:   NAME
UWI .                                    1AA040709304W400:   UWI
LIC .                                             0492309:   LICENSE NUMBER
BS1 .MM                                               251:   BIT SIZE 1
BS2 .MM                                               159:   BIT SIZE 2
CTRY.                                              Canada:   COUNTRY
CS1 .MM                                             177.8:   CSG 1 SIZE
CW1 .KG/M                                            25.3:   CSG 1 WT
DMF .                                                  KB:   DRILL MEAS FROM
EPD .M                                                  0:   ELEV PERM DATUM
EGL .M                                              652.3:   GROUND LEVEL
EKB .M                                              656.5:   KB ELEVATION
SRVC.                                         Weatherford:   LOGGING CONTRACTOR
LMF .                                                  KB:   LOGS MEAS FROM
COMP.                                  SUNCOR ENERGY INC.:   OPERATOR
PDAT.                                              GROUND:   PERM DATUM
PROV.                                             ALBERTA:   PROVINCE
DATE.                                          2019/03/01:   RUN DATE
BSD1.M                                                  0:   TD 1 DRILLER
BSD2.M                                              109.7:   TD 2 DRILLER
~PARAMETER INFORMATION (log)
LNAM.                                              MAIN.3:   NAME
LTYP.                                                CORR:   LOG TYPE
LVSN.                                                   1:   LOG VERSION
BHIS.                                                   T:   BRIEF HISTORY
FHIS.                                          TRANSCRIPT:   FULL HISTORY
~Curve Information Block
#MNEM.UNIT                                        API CODE    No Description
#=========                                        ========    == ===========
DEPT.M                                       00 001 00 00:     1  DEPTH
DPTR.DEG                                               01:     2  Computed Dip Magnitude
DPAZ.DEG                                               01:     3  Computed Dip Azimuth
ICCO.                                                  01:     4  Computed Dip Quality
DEVI.DEG                                               01:     5  Deviation
HAZI.DEG                                               01:     6  Hole Azimuth
ADIP.DEG                                               01:     7  Apparent Dip
AAZI.DEG                                               01:     8  Apparent Azimuth
TRALEN.MM                                              01:     9  Trace length of pick
WIDTH.DEG                                              01:    10  Width of pick
HEIGHT.MM                                              01:    11  Height of pick
LEFT.DEG                                               01:    12  Partial pick: Left end of pick in deg
RIGHT.DEG                                              01:    13  Partial pick: Right end of pick in deg
DIPTYPE.TEXT                                           01:    14  DIP TYPE
DIPCODE.                                               01:    15  DIP CODE
~ASCII
# ...
  327.4785 2.9994 190.1980 1.0000 .2331 322.7442 2.8470 193.6531 544.4296 .0000 .0000 .0000 .0000            BEDDING 2.0000
  327.6367 3.6559 206.7545 1.0000 .2249 318.5966 3.5783 210.0946 531.8248 .0000 .0000 .0000 .0000            BEDDING 2.0000
  327.9846 2.8182 46.8143 1.0000 .2173 329.4915 2.8737 42.5868 529.8022 .0000 .0000 .0000 .0000            BEDDING 2.0000
  328.2479 3.6660 76.2650 1.0000 .2362 328.1349 3.5995 72.6942 532.0598 .0000 .0000 .0000 .0000            BEDDING 2.0000
  328.4698 12.4968 252.2005 1.0000 .2173 332.2993 12.5360 253.1633 550.7468 .0000 .0000 .0000 .0000            BEDDING 2.0000
  328.5599 7.0268 254.9136 1.0000 .2300 325.6987 7.1058 256.6562 535.0714 .0000 .0000 .0000 .0000            BEDDING 2.0000
  328.7449 9.8380 248.8384 1.0000 .2093 327.1306 9.8825 250.0151 548.1649 .0000 .0000 .0000 .0000            BEDDING 2.0000
  328.9237 4.2120 252.3722 1.0000 .2473 325.1065 4.2919 255.5205 531.9627 .0000 .0000 .0000 .0000            BEDDING 2.0000
  329.2843 2.0616 259.0190 1.0000 .2256 327.4767 2.1547 264.6057 529.9866 .0000 .0000 .0000 .0000            BEDDING 2.0000
  329.4674 1.2964 273.2940 1.0000 .2291 331.1676 1.4314 281.0816 544.1227 .0000 .0000 .0000 .0000            BEDDING 2.0000
  329.6957 .8890 195.6709 1.0000 .2330 337.2504 .7211 207.2555 527.9847 .0000 .0000 .0000 .0000            BEDDING 2.0000
  330.0648 .8882 186.7151 1.0000 .2125 331.3905 .7253 196.4669 524.8832 .0000 .0000 .0000 .0000            BEDDING 2.0000
  330.2738 2.7374 277.0484 1.0000 .2439 333.2712 2.8801 281.0816 544.3666 .0000 .0000 .0000 .0000            BEDDING 2.0000
  330.5713 1.5226 214.8871 1.0000 .2262 327.6624 1.4501 223.1546 525.0776 .0000 .0000 .0000 .0000            BEDDING 2.0000
  330.9161 3.7040 210.8180 1.0000 .2014 333.9567 3.5978 213.5016 528.9487 .0000 .0000 .0000 .0000            BEDDING 2.0000
  331.2725 1.2108 312.4921 1.0000 .2412 328.5650 1.4441 315.1419 527.2241 .0000 .0000 .0000 .0000            BEDDING 2.0000
  331.6331 .2236 143.3474 1.0000 .2236 323.3475 .0000 315.1419 526.8879 .0000 .0000 .0000 .0000            BEDDING 2.0000
  331.7355 12.5345 308.7301 1.0000 .1869 327.7363 12.7113 309.0000 550.7880 .0000 .0000 .0000 .0000            DISCONTINUITY_BOUND 4.0000
  331.8047 26.4435 298.4948 1.0000 .2019 331.4623 26.6131 298.7143 373.6749 .0000 .0000 3.0000 233.0000            CROSS_BEDDING 5.0000
  331.8510 2.6913 346.6130 1.0000 .1822 332.6370 2.8684 345.7347 544.3561 .0000 .0000 .0000 .0000            SCOUR_SURFACE 7.0000
  331.8834 26.4726 294.0793 1.0000 .1822 332.6370 26.6153 294.3061 362.0837 .0000 .0000 6.0000 229.0000            CROSS_BEDDING 5.0000
  331.9287 4.3638 71.7889 1.0000 .1822 332.6370 4.3386 69.4174 544.8524 .0000 .0000 .0000 .0000            SCOUR_SURFACE 7.0000
  332.0180 3.7121 81.7427 1.0000 .2373 325.9096 3.6150 78.3596 526.4364 .0000 .0000 .0000 .0000            SCOUR_SURFACE 7.0000
  332.0942 21.5003 76.5364 1.0000 .1983 318.9300 21.4091 76.0883 545.4083 .0000 .0000 .0000 .0000            CROSS_BEDDING 5.0000
  332.1523 23.3287 70.9199 1.0000 .2276 325.3873 23.2687 70.4101 549.8118 .0000 .0000 .0000 .0000            CROSS_BEDDING 5.0000
  332.2179 21.4540 72.1021 1.0000 .2276 325.3873 21.3896 71.5457 545.8608 .0000 .0000 .0000 .0000            CROSS_BEDDING 5.0000
  332.2824 3.4264 276.0758 1.0000 .2530 318.9539 3.6158 278.8013 526.2269 .0000 .0000 .0000 .0000            SCOUR_SURFACE 7.0000
  332.5204 2.3912 175.7119 1.0000 .2257 335.8235 2.1804 177.7287 523.8095 .0000 .0000 .0000 .0000            BEDDING 2.0000
  332.6952 32.9537 336.9132 1.0000 .2222 337.7818 33.1758 336.9184 597.9307 .0000 .0000 .0000 .0000            CROSS_BEDDING 5.0000
  332.7477 2.6758 308.2875 1.0000 .2222 337.7818 2.8713 310.4694 544.3526 .0000 .0000 .0000 .0000            SCOUR_SURFACE 7.0000
  332.8440 2.8191 41.9894 1.0000 .2097 330.2544 2.8917 38.0442 526.5040 .0000 .0000 .0000 .0000            SCOUR_SURFACE 7.0000
  332.8701 29.4858 304.1915 1.0000 .2018 325.6005 29.6738 304.3209 272.9121 .0000 .0000 212.0000 25.0000            CROSS_BEDDING 5.0000
  332.8898 31.0967 309.3708 1.0000 .2018 325.6005 31.2905 309.4637 371.7858 .0000 .0000 19.0000 249.0000            CROSS_BEDDING 5.0000
  332.9370 3.0448 187.2304 1.0000 .2018 325.6005 2.8971 189.8800 526.5023 .0000 .0000 .0000 .0000            SCOUR_SURFACE 7.0000
  333.0565 3.4711 18.9631 1.0000 .1889 330.5019 3.5991 16.7147 527.7515 .0000 .0000 .0000 .0000            BEDDING 2.0000
  333.3960 5.0475 232.6969 1.0000 .2103 325.5980 5.0412 235.0789 528.3120 .0000 .0000 .0000 .0000            BEDDING 2.0000
  333.6191 2.6969 359.9073 1.0000 .1921 335.0305 2.8723 358.2965 530.0333 .0000 .0000 .0000 .0000            BEDDING 2.0000
  333.7957 4.3989 111.6813 1.0000 .1694 343.9433 4.2973 109.8980 544.8652 .0000 .0000 .0000 .0000            BEDDING 2.0000
  334.0432 5.6708 39.8889 1.0000 .1921 331.5052 5.7444 38.1128 528.5377 .0000 .0000 .0000 .0000            BEDDING 2.0000
  334.3288 .5752 17.6258 1.0000 .1760 337.3633 .7186 8.5174 529.7709 .0000 .0000 .0000 .0000            BEDDING 2.0000
  334.6883 19.4615 177.3437 1.0000 .1495 337.2992 19.3212 177.4898 560.8406 .0000 .0000 .0000 .0000            DEFORMED_BED_BOUND 3.0000
  334.9104 2.9769 88.3814 1.0000 .1857 329.0688 2.8905 85.1735 526.7516 .0000 .0000 .0000 .0000            BEDDING 2.0000
  335.2689 7.1923 26.2550 1.0000 .2332 300.2990 7.2124 24.4164 527.1706 .0000 .0000 .0000 .0000            BEDDING 2.0000
  335.5703 .9353 144.3742 1.0000 .2168 326.7455 .7187 143.6593 529.6948 .0000 .0000 .0000 .0000            BEDDING 2.0000
  335.9013 3.5718 41.8206 1.0000 .2080 324.3501 3.6226 38.6120 525.2870 .0000 .0000 .0000 .0000            BEDDING 2.0000
  336.2799 5.1501 89.1871 1.0000 .2424 327.5139 5.0271 86.8414 527.1629 .0000 .0000 .0000 .0000            BEDDING 2.0000
  336.4020 3.0574 114.0492 1.0000 .2311 329.6432 2.8726 111.3673 544.4444 .0000 .0000 .0000 .0000            SCOUR_SURFACE 7.0000
  336.4503 24.0789 304.4145 1.0000 .2770 321.2367 24.3442 304.5919 570.5617 .0000 .0000 .0000 .0000            CROSS_BEDDING 5.0000
  336.5217 21.6559 296.9615 1.0000 .2770 321.2367 21.9087 297.2449 565.1292 .0000 .0000 .0000 .0000            CROSS_BEDDING 5.0000
  336.5802 6.2657 314.9485 1.0000 .2222 320.6278 6.4869 315.1419 526.2803 .0000 .0000 .0000 .0000            SCOUR_SURFACE 7.0000
  336.6309 6.9267 304.0867 1.0000 .2222 320.6278 7.1400 304.5918 546.0764 .0000 .0000 .0000 .0000            SCOUR_SURFACE 7.0000
  336.6519 21.5887 297.0132 1.0000 .2709 317.0420 21.8434 297.2449 564.9894 .0000 .0000 .0000 .0000            CROSS_BEDDING 5.0000
  336.7506 2.6251 315.4399 1.0000 .2473 326.0305 2.8685 316.3469 544.3414 .0000 .0000 .0000 .0000            SCOUR_SURFACE 7.0000
  336.8052 30.7463 339.9564 1.0000 .2473 326.0305 30.9864 339.8571 589.8773 .0000 .0000 .0000 .0000            CROSS_BEDDING 5.0000
  336.8668 2.0274 266.9335 1.0000 .2744 324.0493 2.1886 272.9758 530.8108 .0000 .0000 .0000 .0000            BEDDING 2.0000
  337.0191 5.9185 185.7560 1.0000 .2609 327.1652 5.7169 187.3817 532.4276 .0000 .0000 .0000 .0000            SCOUR_SURFACE 7.0000
  337.0741 25.8227 314.9225 1.0000 .2191 344.1646 26.0141 315.1420 561.5083 .0000 .0000 .0000 .0000            CROSS_BEDDING 5.0000
  337.1132 .2191 164.1646 1.0000 .2191 344.1646 .0000 315.1420 531.3256 .0000 .0000 .0000 .0000            SCOUR_SURFACE 7.0000
  337.1978 5.5274 29.4796 1.0000 .2604 331.5159 5.6698 27.2555 536.6913 .0000 .0000 .0000 .0000            SCOUR_SURFACE 7.0000
  337.2404 30.5253 321.3105 1.0000 .2604 331.5159 30.7816 321.3880 374.7484 .0000 .0000 193.0000 62.0000            CROSS_BEDDING 5.0000
  337.2550 30.7490 324.7122 1.0000 .2477 336.2790 30.9917 324.7950 262.2739 .0000 .0000 55.0000 216.0000            CROSS_BEDDING 5.0000
  337.2846 3.7462 141.8287 1.0000 .2477 336.2790 3.5068 140.8202 542.7480 .0000 .0000 .0000 .0000            SCOUR_SURFACE 7.0000
  337.3723 2.3558 133.0595 1.0000 .2899 340.1156 2.1017 129.4637 543.4130 .0000 .0000 .0000 .0000            SCOUR_SURFACE 7.0000
