~VERSION INFORMATION
VERS.                                                 2.0:   CWLS Log ASCII Standard-VERSION 2.0
WRAP.                                                  NO:   One line per depth step
~Well Information Block
STRT.M                                           113.1921:   Top Depth
STOP.M                                           369.8200:   Bottom Depth
STEP.M                                             .00000:   Depth Increment
NULL.                                            -999.250:   Null Value
FLD .                                           UNDEFINED:   Field Name
WELL.                             SUNCOR FIREBAG 4-7-93-4:   NAME
UWI .                                    1AA040709304W400:   UWI
LIC .                                             0492309:   LICENSE NUMBER
BS1 .MM                                               251:   BIT SIZE 1
BS2 .MM                                               159:   BIT SIZE 2
CTRY.                                              Canada:   COUNTRY
CS1 .MM                                             177.8:   CSG 1 SIZE
CW1 .KG/M                                            25.3:   CSG 1 WT
DMF .                                                  KB:   DRILL MEAS FROM
EPD .M                                                  0:   ELEV PERM DATUM
EGL .M                                              652.3:   GROUND LEVEL
EKB .M                                              656.5:   KB ELEVATION
SRVC.                                         Weatherford:   LOGGING CONTRACTOR
LMF .                                                  KB:   LOGS MEAS FROM
COMP.                                  SUNCOR ENERGY INC.:   OPERATOR
PDAT.                                              GROUND:   PERM DATUM
PROV.                                             ALBERTA:   PROVINCE
DATE.                                          2019/03/01:   RUN DATE
BSD1.M                                                  0:   TD 1 DRILLER
BSD2.M                                              109.7:   TD 2 DRILLER
~PARAMETER INFORMATION (log)
LNAM.                                              MAIN.3:   NAME
LTYP.                                                CORR:   LOG TYPE
LVSN.                                                   1:   LOG VERSION
BHIS.                                                   T:   BRIEF HISTORY
FHIS.                                          TRANSCRIPT:   FULL HISTORY
~Curve Information Block
#MNEM.UNIT                                        API CODE    No Description
#=========                                        ========    == ===========
DEPT.M                                       00 001 00 00:     1  DEPTH
DPTR.DEG                                               01:     2  Computed Dip Magnitude
DPAZ.DEG                                               01:     3  Computed Dip Azimuth
ICCO.                                                  01:     4  Computed Dip Quality
DEVI.DEG                                               01:     5  Deviation
HAZI.DEG                                               01:     6  Hole Azimuth
ADIP.DEG                                               01:     7  Apparent Dip
AAZI.DEG                                               01:     8  Apparent Azimuth
TRALEN.MM                                              01:     9  Trace length of pick
WIDTH.DEG                                              01:    10  Width of pick
HEIGHT.MM                                              01:    11  Height of pick
LEFT.DEG                                               01:    12  Partial pick: Left end of pick in deg
RIGHT.DEG                                              01:    13  Partial pick: Right end of pick in deg
DIPTYPE.TEXT                                           01:    14  DIP TYPE
DIPCODE.                                               01:    15  DIP CODE
~ASCII
# ...
  171.7858 3.3603 34.7600 1.0000 .3263 91.7989 3.5484 39.1798 536.2433 .0000 .0000 .0000 .0000            BEDDING 2.0000
  172.1210 3.4368 36.4322 1.0000 .3269 108.5109 3.5511 41.4511 535.8546 .0000 .0000 .0000 .0000            BEDDING 2.0000
  172.4626 2.8783 9.0567 1.0000 .3156 109.4335 2.8385 15.3312 536.1640 .0000 .0000 .0000 .0000            BEDDING 2.0000
  172.6995 1.4882 8.1578 1.0000 .3047 117.0696 1.4190 19.8738 536.5635 .0000 .0000 .0000 .0000            BEDDING 2.0000
  173.0517 3.4632 50.4648 1.0000 .2438 126.0891 3.5317 54.2949 535.5538 .0000 .0000 .0000 .0000            BEDDING 2.0000
  173.3457 4.0559 188.4263 1.0000 .2709 139.6990 4.2395 185.6782 538.5036 .0000 .0000 .0000 .0000            BEDDING 2.0000
  173.6439 4.3791 19.9651 1.0000 .2640 149.9005 4.2145 22.7129 541.8256 .0000 .0000 .0000 .0000            BEDDING 2.0000
  174.0087 2.9234 50.8471 1.0000 .1916 178.3597 2.8109 53.9432 541.6902 .0000 .0000 .0000 .0000            BEDDING 2.0000
  174.2731 4.2680 36.7589 1.0000 .0734 170.6341 4.2174 37.4763 541.4104 .0000 .0000 .0000 .0000            BEDDING 2.0000
  174.6454 5.6987 17.9485 1.0000 .0628 230.9663 5.6462 17.6025 539.0267 .0000 .0000 .0000 .0000            BEDDING 2.0000
  174.8474 5.6617 8.5174 1.0000 .0228 189.9223 5.6389 8.5117 537.5231 .0000 .0000 .0000 .0000            RESISTIVE_NODULAR_EVENT 13.0000
  174.8981 1.4095 182.8391 1.0000 .0127 5.3436 1.3968 182.8163 540.1810 .0000 .0000 .0000 .0000            RESISTIVE_NODULAR_EVENT 13.0000
  175.0642 3.4532 34.3901 1.0000 .1515 12.7738 3.5944 33.5016 529.3779 .0000 .0000 .0000 .0000            BEDDING 2.0000
  175.5337 .2150 229.8168 1.0000 .2150 49.8168 .0000 33.5016 537.1761 .0000 .0000 .0000 .0000            BEDDING 2.0000
  175.7727 1.1497 18.8144 1.0000 .3367 57.3448 1.4286 27.2555 532.9283 .0000 .0000 .0000 .0000            BEDDING 2.0000
  176.1365 3.1406 197.7616 1.0000 .3616 52.4300 2.8506 193.6278 534.1832 .0000 .0000 .0000 .0000            BEDDING 2.0000
  176.5733 2.2355 196.1542 1.0000 .3129 80.3251 2.1180 188.5173 539.2115 .0000 .0000 .0000 .0000            BEDDING 2.0000
  176.9899 4.8974 196.4761 1.0000 .3434 109.1035 4.9251 192.4921 540.7726 .0000 .0000 .0000 .0000            BEDDING 2.0000
  177.2617 4.2676 21.0716 1.0000 .3341 117.2408 4.2447 25.5520 537.9155 .0000 .0000 .0000 .0000            BEDDING 2.0000
  177.6223 4.9108 28.3318 1.0000 .2010 115.3897 4.9252 30.6625 540.7643 .0000 .0000 .0000 .0000            BEDDING 2.0000
  177.8909 4.9603 26.0363 1.0000 .1461 160.8367 4.8585 27.2555 548.2435 .0000 .0000 .0000 .0000            BEDDING 2.0000
  178.1892 2.9985 359.0785 1.0000 .2211 174.6255 2.7782 359.4322 548.0987 .0000 .0000 .0000 .0000            BEDDING 2.0000
  178.4715 .0796 .0120 1.0000 .0796 180.0120 .0000 359.4322 551.1234 .0000 .0000 .0000 .0000            BEDDING 2.0000
  178.8945 .6473 357.4867 1.0000 .0916 2.7766 .7386 358.1417 544.9932 .0000 .0000 .0000 .0000            BEDDING 2.0000
  179.2414 3.6403 207.8804 1.0000 .1243 355.4624 3.5359 208.9590 538.2126 .0000 .0000 .0000 .0000            BEDDING 2.0000
  179.5132 2.6999 24.5464 1.0000 .1934 358.8607 2.8754 22.8775 534.5923 .0000 .0000 .0000 .0000            BEDDING 2.0000
  179.8347 2.0135 37.5985 1.0000 .2112 350.5505 2.1629 33.5016 527.9719 .0000 .0000 .0000 .0000            BEDDING 2.0000
  180.1699 .5127 19.2251 1.0000 .2059 9.5832 .7165 16.4669 531.3188 .0000 .0000 .0000 .0000            BEDDING 2.0000
  180.6680 4.9040 12.4019 1.0000 .1130 16.4206 5.0167 12.4921 530.8472 .0000 .0000 .0000 .0000            BEDDING 2.0000
  181.0657 3.5731 13.3340 1.0000 .1056 137.0978 3.5155 14.7634 541.3265 .0000 .0000 .0000 .0000            BEDDING 2.0000
  181.2825 2.1838 6.8003 1.0000 .1161 140.5019 2.1052 9.0852 542.4856 .0000 .0000 .0000 .0000            BEDDING 2.0000
  181.5363 1.5649 357.7321 1.0000 .1709 158.7503 1.4044 360.0000 542.1691 .0000 .0000 .0000 .0000            BEDDING 2.0000
  181.8051 3.6402 77.8928 1.0000 .1626 171.5076 3.6336 80.4490 544.6085 .0000 .0000 .0000 .0000            BEDDING 2.0000
  181.9604 22.3608 60.2597 1.0000 .1053 125.5999 22.4049 60.4918 310.9370 .0000 .0000 148.0000 344.0000            RESISTIVE_NODULAR_EVENT 13.0000
  182.0124 16.0105 265.8098 1.0000 .1053 125.5999 15.9297 265.5738 318.2994 .0000 .0000 149.0000 354.0000            RESISTIVE_NODULAR_EVENT 13.0000
  182.1761 9.1679 5.7784 1.0000 .1334 151.7949 9.0576 6.2461 545.4116 .0000 .0000 .0000 .0000            RESISTIVE_NODULAR_EVENT 13.0000
  182.2977 2.2610 346.1844 1.0000 .1381 145.2804 2.1325 347.5079 535.5378 .0000 .0000 .0000 .0000            BEDDING 2.0000
  182.4214 2.7660 181.6983 1.0000 .1017 148.0800 2.8512 180.5678 533.9805 .0000 .0000 .0000 .0000            RESISTIVE_NODULAR_EVENT 13.0000
  182.6097 2.1496 3.9865 1.0000 .0851 101.4782 2.1401 6.2461 533.6148 .0000 .0000 .0000 .0000            BEDDING 2.0000
  183.0570 3.5915 180.9597 1.0000 .1676 83.6835 3.5741 178.2965 532.4366 .0000 .0000 .0000 .0000            BEDDING 2.0000
  183.9908 2.8472 11.9243 1.0000 .0141 25.0969 2.8609 11.9887 534.7556 .0000 .0000 .0000 .0000            BEDDING 2.0000
  184.3482 3.4692 33.6812 1.0000 .1319 331.8682 3.5334 31.7981 538.5433 .0000 .0000 .0000 .0000            BEDDING 2.0000
  184.7216 5.8919 180.9262 1.0000 .1683 13.2620 5.7276 180.5678 531.4100 .0000 .0000 .0000 .0000            BEDDING 2.0000
  185.1657 3.5911 204.9842 1.0000 .0459 301.3054 3.5864 205.7116 533.1157 .0000 .0000 .0000 .0000            BEDDING 2.0000
  185.6067 2.2052 237.1522 1.0000 .1302 105.8211 2.1214 234.5110 538.3359 .0000 .0000 .0000 .0000            BEDDING 2.0000
  186.0773 4.0046 205.5893 1.0000 .2891 145.6817 4.1570 202.1451 549.2084 .0000 .0000 .0000 .0000            BEDDING 2.0000
  186.4749 1.4320 32.8099 1.0000 .1606 154.2762 1.3551 38.6120 561.8663 .0000 .0000 .0000 .0000            BEDDING 2.0000
  186.9815 4.1147 12.5683 1.0000 .1184 112.8003 4.0953 14.1956 557.5542 .0000 .0000 .0000 .0000            BEDDING 2.0000
  187.4193 3.3480 37.3500 1.0000 .0887 65.2859 3.4266 38.0442 555.3372 .0000 .0000 .0000 .0000            BEDDING 2.0000
  187.6911 1.1978 9.2622 1.0000 .1860 38.3159 1.3634 13.0599 558.4500 .0000 .0000 .0000 .0000            BEDDING 2.0000
  187.9618 5.3674 22.4608 1.0000 .2293 47.3229 5.5763 23.4483 533.1583 .0000 .0000 .0000 .0000            BEDDING 2.0000
  188.3933 3.4724 12.9391 1.0000 .1463 97.9245 3.4882 15.3312 545.5486 .0000 .0000 .0000 .0000            BEDDING 2.0000
  188.7381 55.6658 330.8695 1.0000 .1774 85.8390 55.5910 330.9796 397.9187 .0000 .0000 240.0000 64.0000            DISC_COND_FRACTURE 17.0000
  188.8146 72.2154 304.1372 1.0000 .2206 86.3912 72.0411 304.1808 618.3183 .0000 .0000 221.0000 39.0000            DISC_COND_FRACTURE 17.0000
  188.9422 8.6382 19.2027 1.0000 .2042 87.6336 8.7153 20.4416 566.7662 .0000 .0000 .0000 .0000            BEDDING 2.0000
  189.2256 7.5790 14.2011 1.0000 .1612 84.2202 7.6356 15.3312 547.6460 .0000 .0000 .0000 .0000            BEDDING 2.0000
  189.5048 7.5589 19.8330 1.0000 .1787 81.8920 7.6443 21.0095 547.0015 .0000 .0000 .0000 .0000            BEDDING 2.0000
  189.7448 6.3296 32.9790 1.0000 .1767 77.2637 6.4573 34.0694 530.0158 .0000 .0000 .0000 .0000            BEDDING 2.0000
  189.8717 4.0623 56.3243 1.0000 .2145 89.7670 4.2429 57.9180 538.0795 .0000 .0000 .0000 .0000            RESISTIVE_NODULAR_EVENT 13.0000
  189.9310 5.4520 66.1338 1.0000 .2145 89.7670 5.6491 67.0032 538.6303 .0000 .0000 .0000 .0000            RESISTIVE_NODULAR_EVENT 13.0000
  190.1742 5.4970 8.3223 1.0000 .1886 85.7915 5.5410 10.2208 549.2311 .0000 .0000 .0000 .0000            BEDDING 2.0000
  190.6459 1.3740 336.3002 1.0000 .2016 67.5558 1.3844 344.6688 549.9877 .0000 .0000 .0000 .0000            BEDDING 2.0000
  191.0266 3.0765 47.2499 1.0000 .3016 86.3696 3.3159 50.5363 573.8505 .0000 .0000 .0000 .0000            BEDDING 2.0000
  191.3428 8.0997 51.3415 1.0000 .3091 122.8502 8.2030 53.3754 555.9494 .0000 .0000 .0000 .0000            BEDDING 2.0000
  191.8113 76.1351 215.8363 1.0000 .2678 141.5719 76.2079 215.7729 1531.4564 .0000 .0000 .0000 .0000            CONT_COND_FRACTURE 16.0000
