~VERSION INFORMATION
VERS.                                                 2.0:   CWLS Log ASCII Standard-VERSION 2.0
WRAP.                                                  NO:   One line per depth step
~Well Information Block
STRT.M                                           113.1921:   Top Depth
STOP.M                                           369.8200:   Bottom Depth
STEP.M                                             .00000:   Depth Increment
NULL.                                            -999.250:   Null Value
FLD .                                           UNDEFINED:   Field Name
WELL.                             SUNCOR FIREBAG 4-7-93-4:   NAME
UWI .                                    1AA040709304W400:   UWI
LIC .                                             0492309:   LICENSE NUMBER
BS1 .MM                                               251:   BIT SIZE 1
BS2 .MM                                               159:   BIT SIZE 2
CTRY.                                              Canada:   COUNTRY
CS1 .MM                                             177.8:   CSG 1 SIZE
CW1 .KG/M                                            25.3:   CSG 1 WT
DMF .                                                  KB:   DRILL MEAS FROM
EPD .M                                                  0:   ELEV PERM DATUM
EGL .M                                              652.3:   GROUND LEVEL
EKB .M                                              656.5:   KB ELEVATION
SRVC.                                         Weatherford:   LOGGING CONTRACTOR
LMF .                                                  KB:   LOGS MEAS FROM
COMP.                                  SUNCOR ENERGY INC.:   OPERATOR
PDAT.                                              GROUND:   PERM DATUM
PROV.                                             ALBERTA:   PROVINCE
DATE.                                          2019/03/01:   RUN DATE
BSD1.M                                                  0:   TD 1 DRILLER
BSD2.M                                              109.7:   TD 2 DRILLER
~PARAMETER INFORMATION (log)
LNAM.                                              MAIN.3:   NAME
LTYP.                                                CORR:   LOG TYPE
LVSN.                                                   1:   LOG VERSION
BHIS.                                                   T:   BRIEF HISTORY
FHIS.                                          TRANSCRIPT:   FULL HISTORY
~Curve Information Block
#MNEM.UNIT                                        API CODE    No Description
#=========                                        ========    == ===========
DEPT.M                                       00 001 00 00:     1  DEPTH
DPTR.DEG                                               01:     2  Computed Dip Magnitude
DPAZ.DEG                                               01:     3  Computed Dip Azimuth
ICCO.                                                  01:     4  Computed Dip Quality
DEVI.DEG                                               01:     5  Deviation
HAZI.DEG                                               01:     6  Hole Azimuth
ADIP.DEG                                               01:     7  Apparent Dip
AAZI.DEG                                               01:     8  Apparent Azimuth
TRALEN.MM                                              01:     9  Trace length of pick
WIDTH.DEG                                              01:    10  Width of pick
HEIGHT.MM                                              01:    11  Height of pick
LEFT.DEG                                               01:    12  Partial pick: Left end of pick in deg
RIGHT.DEG                                              01:    13  Partial pick: Right end of pick in deg
DIPTYPE.TEXT                                           01:    14  DIP TYPE
DIPCODE.                                               01:    15  DIP CODE
~ASCII
# ...
  145.2819 .5651 233.5747 1.0000 .2628 160.0756 .6876 212.0746 560.6273 .0000 .0000 .0000 .0000            BEDDING 2.0000
  147.2817 22.8061 328.9053 1.0000 .2331 98.1327 22.6594 329.3375 564.5889 .0000 .0000 .0000 .0000            DISCONTINUITY_BOUND 4.0000
  147.7597 6.3799 20.3613 1.0000 .3337 113.9877 6.3675 23.3473 539.1279 .0000 .0000 .0000 .0000            BEDDING 2.0000
  148.0590 5.0045 24.4284 1.0000 .2492 124.0545 4.9689 27.2555 536.0220 .0000 .0000 .0000 .0000            BEDDING 2.0000
  148.8077 2.0187 221.5769 1.0000 .3858 141.1364 2.1172 211.2303 539.3792 .0000 .0000 .0000 .0000            BEDDING 2.0000
  149.1334 1.7675 191.6669 1.0000 .3569 128.2895 1.9536 182.2713 584.5356 .0000 .0000 .0000 .0000            BEDDING 2.0000
  149.4232 5.1744 3.6891 1.0000 .2719 144.1972 4.9676 5.6782 612.8450 .0000 .0000 .0000 .0000            BEDDING 2.0000
  149.8631 4.3786 344.9026 1.0000 .2108 134.1084 4.1990 346.3723 543.8378 .0000 .0000 .0000 .0000            BEDDING 2.0000
  150.2290 5.7503 281.7364 1.0000 .2310 151.5912 5.6042 279.9369 543.1224 .0000 .0000 .0000 .0000            BEDDING 2.0000
  150.5484 3.9111 207.6179 1.0000 .2178 165.1376 4.0744 205.5520 560.3500 .0000 .0000 .0000 .0000            BEDDING 2.0000
  150.9873 .7929 347.8894 1.0000 .2056 125.9713 .6546 .0000 581.6404 .0000 .0000 .0000 .0000            BEDDING 2.0000
  151.3638 1.6521 255.6610 1.0000 .4087 117.8548 1.3769 244.1640 552.9966 .0000 .0000 .0000 .0000            BEDDING 2.0000
  151.7540 2.9552 247.0786 1.0000 .3852 122.8653 2.7571 240.4503 566.9848 .0000 .0000 .0000 .0000            BEDDING 2.0000
  152.0501 1.5808 244.0378 1.0000 .4192 116.4373 1.3660 229.9685 557.4222 .0000 .0000 .0000 .0000            BEDDING 2.0000
  152.6772 3.5680 250.0612 1.0000 .3813 125.2112 3.3647 244.7319 572.8249 .0000 .0000 .0000 .0000            BEDDING 2.0000
  152.9807 3.2868 206.8153 1.0000 .3509 129.4404 3.3808 201.0095 562.8625 .0000 .0000 .0000 .0000            BEDDING 2.0000
  153.8395 3.5834 352.6220 1.0000 .3535 117.2952 3.3947 357.5279 561.3630 .0000 .0000 .0000 .0000            BEDDING 2.0000
  154.8272 4.5971 195.4325 1.0000 .2252 135.1640 4.7128 193.0599 565.1275 .0000 .0000 .0000 .0000            BEDDING 2.0000
  155.2460 3.4254 35.3211 1.0000 .2036 135.1960 3.3964 38.7035 565.3065 .0000 .0000 .0000 .0000            BEDDING 2.0000
  155.5199 1.2540 210.8622 1.0000 .2106 145.1298 1.3542 202.7129 562.2332 .0000 .0000 .0000 .0000            BEDDING 2.0000
  155.9122 3.9492 158.0043 1.0000 .1149 152.7021 4.0636 157.8549 561.8646 .0000 .0000 .0000 .0000            BEDDING 2.0000
  156.3923 9.5315 52.6322 1.0000 .1406 170.8494 9.4658 53.3754 561.8972 .0000 .0000 .0000 .0000            BEDDING 2.0000
  156.7212 5.4486 78.6236 1.0000 .1426 154.3649 5.4854 80.0631 554.8087 .0000 .0000 .0000 .0000            BEDDING 2.0000
  157.0290 2.1347 268.3423 1.0000 .1347 146.4067 2.0667 265.1735 552.6046 .0000 .0000 .0000 .0000            BEDDING 2.0000
  157.3388 3.4381 49.9024 1.0000 .1443 128.8903 3.4686 52.2397 548.6291 .0000 .0000 .0000 .0000            BEDDING 2.0000
  157.6191 4.1408 20.8214 1.0000 .1412 126.8733 4.1040 22.7129 556.3793 .0000 .0000 .0000 .0000            BEDDING 2.0000
  158.0357 6.0761 76.5840 1.0000 .0994 120.4760 6.1481 77.2240 556.7545 .0000 .0000 .0000 .0000            BEDDING 2.0000
  158.3044 2.7472 224.0881 1.0000 .1006 141.5212 2.7620 222.0189 551.2487 .0000 .0000 .0000 .0000            BEDDING 2.0000
  158.7147 2.0726 355.2667 1.0000 .1632 125.9998 1.9700 358.8643 579.7194 .0000 .0000 .0000 .0000            BEDDING 2.0000
  159.3090 4.2586 264.4033 1.0000 .1162 97.5733 4.1455 264.0379 550.8357 .0000 .0000 .0000 .0000            BEDDING 2.0000
  159.5501 63.9647 114.7248 1.0000 .0818 76.9172 64.0293 114.7003 957.0252 .0000 .0000 .0000 .0000            CONT_COND_FRACTURE 16.0000
  159.9404 5.4336 51.1433 1.0000 .1315 104.7013 5.5127 52.2397 552.0341 .0000 .0000 .0000 .0000            BEDDING 2.0000
  160.2883 .1407 315.7460 1.0000 .1407 135.7460 .0000 52.2397 565.4352 .0000 .0000 .0000 .0000            BEDDING 2.0000
  160.5315 4.5769 133.7363 1.0000 .1570 141.9200 4.7324 134.0063 562.7659 .0000 .0000 .0000 .0000            BEDDING 2.0000
  160.9144 1.3168 34.3383 1.0000 .1639 107.2184 1.3740 40.8833 554.1140 .0000 .0000 .0000 .0000            BEDDING 2.0000
  161.1819 4.1463 353.9183 1.0000 .1247 111.9658 4.0891 355.4574 558.4142 .0000 .0000 .0000 .0000            BEDDING 2.0000
  161.4738 4.8218 10.1821 1.0000 .1739 156.6284 4.6778 11.3565 569.4581 .0000 .0000 .0000 .0000            BEDDING 2.0000
  161.8344 6.2245 317.7674 1.0000 .1070 158.5767 6.1247 317.4133 558.9835 .0000 .0000 .0000 .0000            BEDDING 2.0000
  162.2490 6.8916 35.9645 1.0000 .2315 119.2379 6.9225 37.8586 555.6857 .0000 .0000 .0000 .0000            BEDDING 2.0000
  162.7206 21.4120 46.2588 1.0000 .3493 124.9300 21.4833 47.1293 562.8326 .0000 .0000 .0000 .0000            RESISTIVE_NODULAR_EVENT 13.0000
  162.8528 2.7362 201.1023 1.0000 .4283 126.1547 2.8773 192.8449 533.2222 .0000 .0000 .0000 .0000            RESISTIVE_NODULAR_EVENT 13.0000
  162.9988 7.9397 359.1180 1.0000 .4051 118.8833 7.7465 1.7035 539.9465 .0000 .0000 .0000 .0000            BEDDING 2.0000
  163.2927 3.1664 151.6443 1.0000 .3991 119.7187 3.5115 148.2019 541.8395 .0000 .0000 .0000 .0000            BEDDING 2.0000
  163.6724 3.1783 145.7624 1.0000 .3889 114.9906 3.5181 142.5237 540.8121 .0000 .0000 .0000 .0000            BEDDING 2.0000
  164.0404 2.6442 172.9819 1.0000 .2776 113.4771 2.7953 168.0757 544.6440 .0000 .0000 .0000 .0000            BEDDING 2.0000
  164.4423 4.0926 170.3058 1.0000 .2541 105.2395 4.2060 167.1713 563.3879 .0000 .0000 .0000 .0000            BEDDING 2.0000
  164.7966 2.5637 149.6778 1.0000 .1484 121.7621 2.6957 148.2019 564.7838 .0000 .0000 .0000 .0000            BEDDING 2.0000
  165.2175 1.8166 136.8621 1.0000 .1482 121.4295 1.9598 135.7098 582.7010 .0000 .0000 .0000 .0000            BEDDING 2.0000
  165.6796 1.9523 157.6821 1.0000 .1381 91.7741 2.0126 154.0923 569.9694 .0000 .0000 .0000 .0000            BEDDING 2.0000
  166.1377 3.6664 268.9454 1.0000 .1634 114.5912 3.5199 267.7959 544.6165 .0000 .0000 .0000 .0000            BEDDING 2.0000
  166.3353 4.0990 196.0705 1.0000 .2633 115.7572 4.1514 192.4921 549.9849 .0000 .0000 .0000 .0000            BEDDING 2.0000
  166.7731 4.8003 15.8136 1.0000 .2455 109.9460 4.7889 18.7382 556.1843 .0000 .0000 .0000 .0000            BEDDING 2.0000
  167.0227 7.4512 72.1506 1.0000 .2345 107.2193 7.6443 73.1547 552.8841 .0000 .0000 .0000 .0000            DISCONTINUITY_BOUND 4.0000
  167.2807 7.6340 47.8130 1.0000 .2607 104.1195 7.7816 49.4006 537.2764 .0000 .0000 .0000 .0000            BEDDING 2.0000
  167.9819 3.3621 185.5012 1.0000 .3520 125.2292 3.5498 180.5678 536.0201 .0000 .0000 .0000 .0000            BEDDING 2.0000
  168.4525 2.7574 195.8407 1.0000 .1800 128.9158 2.8328 192.4921 537.4606 .0000 .0000 .0000 .0000            BEDDING 2.0000
  168.8052 25.4406 156.3882 1.0000 .1619 157.2776 25.6025 156.3934 573.9597 .0000 .0000 .0000 .0000            CROSS_BEDDING 5.0000
  169.3038 2.9212 55.1794 1.0000 .0897 220.2346 2.8346 55.6467 537.1509 .0000 .0000 .0000 .0000            BEDDING 2.0000
  169.7099 3.6414 36.6397 1.0000 .1084 246.3518 3.5476 35.7729 536.4420 .0000 .0000 .0000 .0000            BEDDING 2.0000
  170.0842 4.9382 30.0783 1.0000 .1031 319.3195 4.9732 28.9590 535.5319 .0000 .0000 .0000 .0000            BEDDING 2.0000
  170.3973 2.8833 207.0525 1.0000 .0826 333.6698 2.8348 208.3912 537.1082 .0000 .0000 .0000 .0000            BEDDING 2.0000
  170.7275 3.5568 95.9873 1.0000 .1486 18.2854 3.5913 93.6735 544.5832 .0000 .0000 .0000 .0000            BEDDING 2.0000
  170.9948 4.1144 23.1279 1.0000 .2631 42.1820 4.3640 24.2538 532.8421 .0000 .0000 .0000 .0000            BEDDING 2.0000
  171.2412 3.3891 42.9554 1.0000 .2408 72.7540 3.6001 44.8580 528.5261 .0000 .0000 .0000 .0000            BEDDING 2.0000
  171.5584 4.8184 25.4576 1.0000 .2721 76.2532 4.9948 27.8709 534.0214 .0000 .0000 .0000 .0000            BEDDING 2.0000
