~VERSION INFORMATION
VERS.                                                 2.0:   CWLS Log ASCII Standard-VERSION 2.0
WRAP.                                                  NO:   One line per depth step
~Well Information Block
STRT.M                                           113.1921:   Top Depth
STOP.M                                           369.8200:   Bottom Depth
STEP.M                                             .00000:   Depth Increment
NULL.                                            -999.250:   Null Value
FLD .                                           UNDEFINED:   Field Name
WELL.                             SUNCOR FIREBAG 4-7-93-4:   NAME
UWI .                                    1AA040709304W400:   UWI
LIC .                                             0492309:   LICENSE NUMBER
BS1 .MM                                               251:   BIT SIZE 1
BS2 .MM                                               159:   BIT SIZE 2
CTRY.                                              Canada:   COUNTRY
CS1 .MM                                             177.8:   CSG 1 SIZE
CW1 .KG/M                                            25.3:   CSG 1 WT
DMF .                                                  KB:   DRILL MEAS FROM
EPD .M                                                  0:   ELEV PERM DATUM
EGL .M                                              652.3:   GROUND LEVEL
EKB .M                                              656.5:   KB ELEVATION
SRVC.                                         Weatherford:   LOGGING CONTRACTOR
LMF .                                                  KB:   LOGS MEAS FROM
COMP.                                  SUNCOR ENERGY INC.:   OPERATOR
PDAT.                                              GROUND:   PERM DATUM
PROV.                                             ALBERTA:   PROVINCE
DATE.                                          2019/03/01:   RUN DATE
BSD1.M                                                  0:   TD 1 DRILLER
BSD2.M                                              109.7:   TD 2 DRILLER
~PARAMETER INFORMATION (log)
LNAM.                                              MAIN.3:   NAME
LTYP.                                                CORR:   LOG TYPE
LVSN.                                                   1:   LOG VERSION
BHIS.                                                   T:   BRIEF HISTORY
FHIS.                                          TRANSCRIPT:   FULL HISTORY
~Curve Information Block
#MNEM.UNIT                                        API CODE    No Description
#=========                                        ========    == ===========
DEPT.M                                       00 001 00 00:     1  DEPTH
DPTR.DEG                                               01:     2  Computed Dip Magnitude
DPAZ.DEG                                               01:     3  Computed Dip Azimuth
ICCO.                                                  01:     4  Computed Dip Quality
DEVI.DEG                                               01:     5  Deviation
HAZI.DEG                                               01:     6  Hole Azimuth
ADIP.DEG                                               01:     7  Apparent Dip
AAZI.DEG                                               01:     8  Apparent Azimuth
TRALEN.MM                                              01:     9  Trace length of pick
WIDTH.DEG                                              01:    10  Width of pick
HEIGHT.MM                                              01:    11  Height of pick
LEFT.DEG                                               01:    12  Partial pick: Left end of pick in deg
RIGHT.DEG                                              01:    13  Partial pick: Right end of pick in deg
DIPTYPE.TEXT                                           01:    14  DIP TYPE
DIPCODE.                                               01:    15  DIP CODE
~ASCII
# ...
  353.9682 7.0000 260.8391 1.0000 .2335 344.9050 7.0280 262.7233 544.6824 .0000 .0000 .0000 .0000            LATERAL_ACCRETION 6.0000
  354.1232 7.2791 130.6481 1.0000 .2625 341.4039 7.0547 129.5634 540.6078 .0000 .0000 .0000 .0000            BEDDING 2.0000
  354.2782 7.0488 247.9675 1.0000 .2272 333.9234 7.0684 249.7959 546.1488 .0000 .0000 .0000 .0000            BEDDING 2.0000
  354.3685 6.9481 285.7273 1.0000 .2270 342.9190 7.0737 287.2653 546.0891 .0000 .0000 .0000 .0000            SCOUR_SURFACE 7.0000
  354.5033 4.4114 219.9133 1.0000 .2371 342.1974 4.2894 222.5868 532.3372 .0000 .0000 .0000 .0000            LATERAL_ACCRETION 6.0000
  354.7624 4.4063 216.4513 1.0000 .1984 341.5678 4.2953 218.6120 531.6114 .0000 .0000 .0000 .0000            LATERAL_ACCRETION 6.0000
  354.9337 5.1530 217.7213 1.0000 .2017 344.8373 5.0339 219.5470 529.0270 .0000 .0000 .0000 .0000            LATERAL_ACCRETION 6.0000
  355.1357 5.1115 219.9550 1.0000 .2353 350.3640 4.9622 222.0189 536.8007 .0000 .0000 .0000 .0000            LATERAL_ACCRETION 6.0000
  355.3546 5.7790 222.4270 1.0000 .2743 341.1274 5.6524 224.8580 538.4752 .0000 .0000 .0000 .0000            LATERAL_ACCRETION 6.0000
  355.6592 6.6567 214.3808 1.0000 .2733 339.5493 6.5031 216.3407 526.4264 .0000 .0000 .0000 .0000            LATERAL_ACCRETION 6.0000
  355.9617 4.4851 208.4326 1.0000 .2697 332.3017 4.3406 211.3837 530.0981 .0000 .0000 .0000 .0000            LATERAL_ACCRETION 6.0000
  356.2535 5.8868 215.4326 1.0000 .2895 329.6493 5.7741 218.0442 528.8657 .0000 .0000 .0000 .0000            LATERAL_ACCRETION 6.0000
  356.5592 4.4483 205.3016 1.0000 .2649 340.0697 4.2658 207.8233 535.3071 .0000 .0000 .0000 .0000            LATERAL_ACCRETION 6.0000
  356.8172 7.9635 211.1591 1.0000 .3093 339.5870 7.7750 212.9337 537.9571 .0000 .0000 .0000 .0000            LATERAL_ACCRETION 6.0000
  357.0245 12.3245 181.1354 1.0000 .3098 338.1037 12.0399 181.7035 535.9514 .0000 .0000 .0000 .0000            LATERAL_ACCRETION 6.0000
  357.2476 15.0593 177.2790 1.0000 .2496 344.9256 14.8156 177.4808 538.8992 .0000 .0000 .0000 .0000            LATERAL_ACCRETION 6.0000
  357.5469 11.5326 199.7108 1.0000 .2482 343.5216 11.3332 200.4416 537.6814 .0000 .0000 .0000 .0000            LATERAL_ACCRETION 6.0000
  357.7891 19.9791 235.0813 1.0000 .2196 346.2966 19.9007 235.6467 549.6619 .0000 .0000 .0000 .0000            DISCONTINUITY_BOUND 4.0000
  357.9996 18.8682 359.3527 1.0000 .2495 352.3887 19.1159 359.2653 559.7780 .0000 .0000 .0000 .0000            SCOUR_SURFACE 7.0000
  358.0577 9.0203 10.4234 1.0000 .2226 336.3220 9.2055 9.6530 536.3890 .0000 .0000 .0000 .0000            BEDDING 2.0000
  358.3358 17.8566 33.0236 1.0000 .2437 331.9462 17.9757 32.3659 546.1805 .0000 .0000 .0000 .0000            DEFORMED_BED_BOUND 3.0000
  358.4473 85.0000 332.7907 1.0000 .2481 348.7402 67.7386 332.8188 703.4129 16.7000 702.9791 .0000 .0000            DRILL_INDUCED_FRAC 24.0000
  358.4712 6.9428 14.0012 1.0000 .2264 342.6437 7.1372 13.0599 532.6437 .0000 .0000 .0000 .0000            BEDDING 2.0000
  358.6257 86.9197 332.7794 1.0000 .2558 336.3312 87.1750 332.7803 3897.7273 -999.2500 -999.2500 50.0000 246.0000            DISC_COND_FRACTURE 17.0000
  358.6822 2.6110 318.0317 1.0000 .2329 337.3795 2.8318 319.5919 544.3381 .0000 .0000 .0000 .0000            BEDDING 2.0000
  358.8565 46.3404 152.8102 1.0000 .2186 331.1456 46.1219 152.8163 673.0085 .0000 .0000 .0000 .0000            CONT_RESIST_SHEAR 22.0000
  359.0056 10.0777 136.9164 1.0000 .2027 329.9969 9.8803 136.6531 548.3707 .0000 .0000 .0000 .0000            BEDDING 2.0000
  359.1442 15.2029 29.4477 1.0000 .2386 323.7793 15.3027 28.6531 554.0711 .0000 .0000 .0000 .0000            DEFORMED_BED_BOUND 3.0000
  359.2093 27.7606 116.3220 1.0000 .2195 331.2562 27.5809 116.0816 580.3679 .0000 .0000 .0000 .0000            DEFORMED_BED_BOUND 3.0000
  359.3500 40.8759 295.9500 1.0000 .2043 330.0364 41.0453 296.0816 635.8124 .0000 .0000 .0000 .0000            DEFORMED_BED_BOUND 3.0000
  359.4361 4.1319 280.7824 1.0000 .2043 330.0364 4.2680 282.8571 544.7693 .0000 .0000 .0000 .0000            BEDDING 2.0000
  359.5831 18.9773 24.7371 1.0000 .2070 329.3438 19.0955 24.2449 559.9703 .0000 .0000 .0000 .0000            DEFORMED_BED_BOUND 3.0000
  360.0099 5.2004 184.5689 1.0000 .2863 321.3003 4.9958 186.8139 533.2099 .0000 .0000 .0000 .0000            BEDDING 2.0000
  360.4568 5.8617 182.2577 1.0000 .2971 334.3975 5.6007 183.6735 545.4990 .0000 .0000 .0000 .0000            BEDDING 2.0000
  360.5292 3.7934 181.7620 1.0000 .2971 334.3975 3.5321 183.9748 538.8416 .0000 .0000 .0000 .0000            SCOUR_SURFACE 7.0000
  360.5578 29.8636 323.5701 1.0000 .2880 333.9248 30.1469 323.6593 320.7645 .0000 .0000 50.0000 247.0000            CROSS_BEDDING 5.0000
  360.5916 2.9858 208.7351 1.0000 .2880 333.9248 2.8297 213.5016 538.1005 .0000 .0000 .0000 .0000            SCOUR_SURFACE 7.0000
  360.7544 10.5743 214.9281 1.0000 .2797 333.1894 10.4447 216.2643 542.0721 .0000 .0000 .0000 .0000            SCOUR_SURFACE 7.0000
  361.0658 26.2819 77.6782 1.0000 .2824 326.4907 26.1810 77.1429 576.1904 .0000 .0000 .0000 .0000            CROSS_BEDDING 5.0000
  361.4211 5.5160 62.5720 1.0000 .3142 349.3490 5.6148 59.5102 538.0889 .0000 .0000 .0000 .0000            BEDDING 2.0000
  361.4883 8.5016 234.8154 1.0000 .2859 349.9539 8.3841 236.5714 540.1479 .0000 .0000 .0000 .0000            BEDDING 2.0000
  361.5528 6.6220 178.0854 1.0000 .2794 339.9822 6.3570 178.8643 538.6073 .0000 .0000 .0000 .0000            SCOUR_SURFACE 7.0000
  361.6195 24.9216 325.2112 1.0000 .2794 339.9822 25.1919 325.3628 564.9830 .0000 .0000 .0000 .0000            CROSS_BEDDING 5.0000
  361.6816 26.1004 333.3456 1.0000 .2620 329.7370 26.3619 333.3123 396.7035 .0000 .0000 35.0000 283.0000            CROSS_BEDDING 5.0000
  361.7400 28.2950 167.9224 1.0000 .2620 329.7370 28.0462 168.0757 573.6898 .0000 .0000 .0000 .0000            SCOUR_SURFACE 7.0000
  361.9776 2.5382 301.7911 1.0000 .2995 332.2633 2.8004 304.8980 539.7277 .0000 .0000 .0000 .0000            SCOUR_SURFACE 7.0000
  362.0573 27.0559 338.4855 1.0000 .2988 314.8251 27.3298 338.2532 574.1993 .0000 .0000 .0000 .0000            CROSS_BEDDING 5.0000
  362.1218 23.5607 341.5666 1.0000 .2988 314.8251 23.8279 341.2618 565.2635 .0000 .0000 .0000 .0000            CROSS_BEDDING 5.0000
  362.2180 23.5361 344.7622 1.0000 .2947 336.7233 23.8279 344.6688 566.7587 .0000 .0000 .0000 .0000            CROSS_BEDDING 5.0000
  362.2699 19.4017 354.2866 1.0000 .2089 334.1192 19.5979 354.0843 555.0740 .0000 .0000 .0000 .0000            SCOUR_SURFACE 7.0000
  362.3957 6.5492 172.9937 1.0000 .2155 347.3051 6.3347 173.1861 540.4778 .0000 .0000 .0000 .0000            SCOUR_SURFACE 7.0000
  362.5131 5.0093 233.5034 1.0000 .2962 340.9167 4.9288 236.7823 540.4094 .0000 .0000 .0000 .0000            LATERAL_ACCRETION 6.0000
  362.7849 6.2816 253.8238 1.0000 .2538 335.2336 6.3244 256.0883 539.3475 .0000 .0000 .0000 .0000            LATERAL_ACCRETION 6.0000
  362.9805 10.5224 254.8310 1.0000 .2344 341.2204 10.5397 256.0883 540.3423 .0000 .0000 .0000 .0000            LATERAL_ACCRETION 6.0000
  363.2111 9.6897 264.8834 1.0000 .2633 333.9338 9.7869 266.3091 543.2505 .0000 .0000 .0000 .0000            LATERAL_ACCRETION 6.0000
  363.3528 10.4489 259.6198 1.0000 .2914 348.7467 10.4574 261.1987 544.6276 .0000 .0000 .0000 .0000            LATERAL_ACCRETION 6.0000
  363.4913 9.8152 245.9089 1.0000 .2899 344.8901 9.7741 247.5710 537.9758 .0000 .0000 .0000 .0000            LATERAL_ACCRETION 6.0000
  363.7049 10.3874 259.1837 1.0000 .2744 335.8260 10.4541 260.6309 544.7440 .0000 .0000 .0000 .0000            LATERAL_ACCRETION 6.0000
  363.8593 15.7432 262.8734 1.0000 .3371 340.9084 15.8165 264.0378 550.1697 .0000 .0000 .0000 .0000            LATERAL_ACCRETION 6.0000
  363.9905 19.0075 270.5398 1.0000 .3139 346.3306 19.0869 271.4196 552.9194 .0000 .0000 .0000 .0000            LATERAL_ACCRETION 6.0000
  364.0994 30.0729 273.1078 1.0000 .3451 351.8523 30.1420 273.6909 580.8878 .0000 .0000 .0000 .0000            DISCONTINUITY_BOUND 4.0000
