~VERSION INFORMATION
VERS.                                                 2.0:   CWLS Log ASCII Standard-VERSION 2.0
WRAP.                                                  NO:   One line per depth step
~Well Information Block
STRT.M                                           113.1921:   Top Depth
STOP.M                                           369.8200:   Bottom Depth
STEP.M                                             .00000:   Depth Increment
NULL.                                            -999.250:   Null Value
FLD .                                           UNDEFINED:   Field Name
WELL.                             SUNCOR FIREBAG 4-7-93-4:   NAME
UWI .                                    1AA040709304W400:   UWI
LIC .                                             0492309:   LICENSE NUMBER
BS1 .MM                                               251:   BIT SIZE 1
BS2 .MM                                               159:   BIT SIZE 2
CTRY.                                              Canada:   COUNTRY
CS1 .MM                                             177.8:   CSG 1 SIZE
CW1 .KG/M                                            25.3:   CSG 1 WT
DMF .                                                  KB:   DRILL MEAS FROM
EPD .M                                                  0:   ELEV PERM DATUM
EGL .M                                              652.3:   GROUND LEVEL
EKB .M                                              656.5:   KB ELEVATION
SRVC.                                         Weatherford:   LOGGING CONTRACTOR
LMF .                                                  KB:   LOGS MEAS FROM
COMP.                                  SUNCOR ENERGY INC.:   OPERATOR
PDAT.                                              GROUND:   PERM DATUM
PROV.                                             ALBERTA:   PROVINCE
DATE.                                          2019/03/01:   RUN DATE
BSD1.M                                                  0:   TD 1 DRILLER
BSD2.M                                              109.7:   TD 2 DRILLER
~PARAMETER INFORMATION (log)
LNAM.                                              MAIN.3:   NAME
LTYP.                                                CORR:   LOG TYPE
LVSN.                                                   1:   LOG VERSION
BHIS.                                                   T:   BRIEF HISTORY
FHIS.                                          TRANSCRIPT:   FULL HISTORY
~Curve Information Block
#MNEM.UNIT                                        API CODE    No Description
#=========                                        ========    == ===========
DEPT.M                                       00 001 00 00:     1  DEPTH
DPTR.DEG                                               01:     2  Computed Dip Magnitude
DPAZ.DEG                                               01:     3  Computed Dip Azimuth
ICCO.                                                  01:     4  Computed Dip Quality
DEVI.DEG                                               01:     5  Deviation
HAZI.DEG                                               01:     6  Hole Azimuth
ADIP.DEG                                               01:     7  Apparent Dip
AAZI.DEG                                               01:     8  Apparent Azimuth
TRALEN.MM                                              01:     9  Trace length of pick
WIDTH.DEG                                              01:    10  Width of pick
HEIGHT.MM                                              01:    11  Height of pick
LEFT.DEG                                               01:    12  Partial pick: Left end of pick in deg
RIGHT.DEG                                              01:    13  Partial pick: Right end of pick in deg
DIPTYPE.TEXT                                           01:    14  DIP TYPE
DIPCODE.                                               01:    15  DIP CODE
~ASCII
# ...
  255.8936 6.3293 203.8486 1.0000 .0472 248.3340 6.3631 204.1452 540.8215 .0000 .0000 .0000 .0000            BEDDING 2.0000
  256.3684 4.9040 186.2421 1.0000 .1148 309.0003 4.8429 187.3817 550.0017 .0000 .0000 .0000 .0000            BEDDING 2.0000
  257.0410 2.8441 161.3215 1.0000 .1341 285.5515 2.7709 163.6123 552.8798 .0000 .0000 .0000 .0000            BEDDING 2.0000
  257.4661 1.4022 194.1030 1.0000 .2244 297.7384 1.3668 203.2808 557.0716 .0000 .0000 .0000 .0000            BEDDING 2.0000
  257.7675 .2385 123.9712 1.0000 .2385 303.9711 .0000 203.2808 525.7542 .0000 .0000 .0000 .0000            BEDDING 2.0000
  258.0012 7.2233 43.9852 1.0000 .2498 307.7375 7.2004 42.0189 528.0820 .0000 .0000 .0000 .0000            BEDDING 2.0000
  258.2318 5.6878 34.7416 1.0000 .2401 312.1956 5.7239 32.3659 531.6582 .0000 .0000 .0000 .0000            BEDDING 2.0000
  258.4761 5.6482 31.5606 1.0000 .1600 325.1299 5.7140 30.0946 532.5648 .0000 .0000 .0000 .0000            BEDDING 2.0000
  258.8695 2.8721 43.7514 1.0000 .1164 303.9693 2.8546 41.4511 533.3635 .0000 .0000 .0000 .0000            BEDDING 2.0000
  259.3115 1.4278 38.4322 1.0000 .0957 295.6251 1.4097 34.6372 540.1038 .0000 .0000 .0000 .0000            BEDDING 2.0000
  259.6573 4.9156 43.1884 1.0000 .2206 285.4812 4.8169 40.8698 546.0352 .0000 .0000 .0000 .0000            BEDDING 2.0000
  260.4790 3.4749 35.9500 1.0000 .2202 311.4280 3.5028 32.3659 543.2670 .0000 .0000 .0000 .0000            BEDDING 2.0000
  260.7499 3.5938 37.1159 1.0000 .1397 308.2989 3.5994 34.8953 544.5943 .0000 .0000 .0000 .0000            BEDDING 2.0000
  260.9475 4.3296 35.5743 1.0000 .1466 299.1861 4.3157 33.6438 541.5944 .0000 .0000 .0000 .0000            BEDDING 2.0000
  261.3924 3.7915 22.4694 1.0000 .0385 235.7028 3.7594 22.1484 544.6559 .0000 .0000 .0000 .0000            BEDDING 2.0000
  261.5017 5.6575 252.9555 1.0000 .0797 232.7483 5.7323 252.6814 530.8581 .0000 .0000 .0000 .0000            BEDDING 2.0000
  261.8909 2.0856 230.6799 1.0000 .0372 177.4609 2.1081 229.8698 530.9467 .0000 .0000 .0000 .0000            BEDDING 2.0000
  262.1119 32.2525 272.5552 1.0000 .0567 279.4949 32.3088 272.5660 576.0751 .0000 .0000 .0000 .0000            RESISTIVE_NODULAR_EVENT 13.0000
  262.1933 85.0000 51.8023 1.0000 .1450 276.0627 67.3962 51.7603 260.1426 3.1300 260.1023 .0000 .0000            DRILL_INDUCED_FRAC 24.0000
  262.3656 85.0000 178.9535 1.0000 .2386 281.7052 67.4475 179.0500 226.4041 16.7000 224.9534 .0000 .0000            DRILL_INDUCED_FRAC 24.0000
  262.5106 5.9775 109.1584 1.0000 .2418 287.7424 5.7358 109.2178 549.0355 .0000 .0000 .0000 .0000            RESISTIVE_NODULAR_EVENT 13.0000
  262.7855 4.3270 187.2003 1.0000 .2355 294.2711 4.2639 190.2208 535.5127 .0000 .0000 .0000 .0000            BEDDING 2.0000
  263.3439 6.8500 11.5274 1.0000 .2597 309.5573 6.9758 9.6530 545.0379 .0000 .0000 .0000 .0000            BEDDING 2.0000
  264.2502 4.8760 204.2448 1.0000 .2274 320.3017 4.7805 206.6877 557.1991 .0000 .0000 .0000 .0000            BEDDING 2.0000
  264.7769 2.9610 193.1363 1.0000 .2104 321.5375 2.8351 196.4669 537.0613 .0000 .0000 .0000 .0000            BEDDING 2.0000
  265.1861 2.8861 196.0637 1.0000 .1072 296.2188 2.8692 198.1703 530.6575 .0000 .0000 .0000 .0000            BEDDING 2.0000
  265.4336 7.0443 208.7679 1.0000 .1255 289.5803 7.0654 209.7672 533.3413 .0000 .0000 .0000 .0000            BEDDING 2.0000
  265.7096 7.7808 144.5329 1.0000 .0881 300.8124 7.7002 144.7950 543.1215 .0000 .0000 .0000 .0000            BEDDING 2.0000
  266.0427 4.1994 218.6120 1.0000 .0552 297.4208 4.2105 219.3481 543.7189 .0000 .0000 .0000 .0000            BEDDING 2.0000
  266.3197 5.3656 184.2178 1.0000 .1006 220.1586 5.4473 184.8367 545.2634 .0000 .0000 .0000 .0000            BEDDING 2.0000
  266.9512 1.4654 154.4117 1.0000 .2626 261.0289 1.4129 164.6688 538.9012 .0000 .0000 .0000 .0000            BEDDING 2.0000
  267.2836 7.2067 193.0568 1.0000 .2776 265.2988 7.2962 195.1225 546.2447 .0000 .0000 .0000 .0000            BEDDING 2.0000
  267.5233 .7306 156.0770 1.0000 .3138 261.5681 .7140 181.1357 533.1793 .0000 .0000 .0000 .0000            BEDDING 2.0000
  267.7845 .7589 7.2266 1.0000 .3056 257.2740 .7149 343.5331 532.5441 .0000 .0000 .0000 .0000            BEDDING 2.0000
  268.0933 2.7631 351.7636 1.0000 .3085 277.2588 2.8610 345.8044 532.1532 .0000 .0000 .0000 .0000            BEDDING 2.0000
  268.4592 3.6142 192.1214 1.0000 .3459 289.4746 3.5863 197.6025 530.6245 .0000 .0000 .0000 .0000            BEDDING 2.0000
  268.7860 4.3938 197.4740 1.0000 .2975 309.8733 4.2892 201.1438 529.5300 .0000 .0000 .0000 .0000            BEDDING 2.0000
  269.2365 .7421 197.9078 1.0000 .2774 306.4853 .7046 219.8190 536.6910 .0000 .0000 .0000 .0000            BEDDING 2.0000
  269.6214 5.5957 39.7017 1.0000 .2180 305.9701 5.5857 37.4763 544.8539 .0000 .0000 .0000 .0000            BEDDING 2.0000
  270.3035 4.9872 187.7859 1.0000 .2588 312.1978 4.8456 190.3052 553.7375 .0000 .0000 .0000 .0000            BEDDING 2.0000
  270.7699 5.7574 193.0131 1.0000 .2498 305.0156 5.6685 195.3474 554.6059 .0000 .0000 .0000 .0000            BEDDING 2.0000
  271.1612 2.1072 217.3182 1.0000 .2563 311.0192 2.1063 224.2902 542.1992 .0000 .0000 .0000 .0000            BEDDING 2.0000
  271.5863 .7948 207.3369 1.0000 .2626 337.0119 .6589 225.2020 542.6176 .0000 .0000 .0000 .0000            BEDDING 2.0000
  272.0569 4.8747 221.1199 1.0000 .2236 320.7810 4.8422 223.7224 550.0640 .0000 .0000 .0000 .0000            BEDDING 2.0000
  272.6259 8.9677 15.2291 1.0000 .2964 315.1241 9.1190 13.6278 541.5229 .0000 .0000 .0000 .0000            BEDDING 2.0000
  272.8733 3.7591 197.8374 1.0000 .3698 322.8216 3.5600 202.7129 534.6005 .0000 .0000 .0000 .0000            BEDDING 2.0000
  273.2826 2.2802 214.5791 1.0000 .3186 334.0388 2.1415 222.0189 533.2936 .0000 .0000 .0000 .0000            BEDDING 2.0000
  273.7490 3.8317 190.3188 1.0000 .3123 328.4721 3.6050 193.6278 527.9338 .0000 .0000 .0000 .0000            BEDDING 2.0000
  274.1181 12.5133 321.0941 1.0000 .1992 340.5121 12.7013 321.3880 537.2162 .0000 .0000 .0000 .0000            BEDDING 2.0000
  275.4209 1.4246 204.9842 1.0000 .1242 278.0361 1.4656 209.6332 536.3354 .0000 .0000 .0000 .0000            BEDDING 2.0000
  275.9455 2.0623 211.3115 1.0000 .1335 295.4702 2.0801 214.9709 530.3373 .0000 .0000 .0000 .0000            BEDDING 2.0000
  276.6921 2.7269 209.8119 1.0000 .3464 293.6298 2.7855 216.9085 546.5850 .0000 .0000 .0000 .0000            BEDDING 2.0000
  277.6809 5.5172 202.4643 1.0000 .3448 329.9148 5.3146 205.4082 545.3332 .0000 .0000 .0000 .0000            BEDDING 2.0000
  278.2456 3.0968 198.7820 1.0000 .3471 331.7890 2.8712 203.8486 530.3273 .0000 .0000 .0000 .0000            BEDDING 2.0000
  278.4476 5.8830 153.8652 1.0000 .3222 338.6207 5.5619 153.5909 545.5095 .0000 .0000 .0000 .0000            BEDDING 2.0000
  278.5883 4.8793 16.9506 1.0000 .2817 333.2494 5.0867 14.7634 523.4967 .0000 .0000 .0000 .0000            BEDDING 2.0000
  281.4880 3.5602 202.4783 1.0000 .2617 295.4258 3.5563 206.6877 535.0994 .0000 .0000 .0000 .0000            BEDDING 2.0000
  281.6551 1.8460 203.5368 1.0000 .2536 295.6008 1.8542 211.3889 544.1953 .0000 .0000 .0000 .0000            BEDDING 2.0000
  281.9798 2.7576 203.8340 1.0000 .2057 288.2314 2.7853 208.0468 546.2073 .0000 .0000 .0000 .0000            BEDDING 2.0000
  282.5530 5.1898 164.0434 1.0000 .2732 306.9120 4.9747 165.9380 534.1204 .0000 .0000 .0000 .0000            BEDDING 2.0000
  282.7972 4.1188 1.9916 1.0000 .2505 312.0885 4.2845 359.4322 532.8555 .0000 .0000 .0000 .0000            BEDDING 2.0000
  283.2308 1.9453 348.1644 1.0000 .2606 312.1481 2.1615 344.1010 530.8232 .0000 .0000 .0000 .0000            BEDDING 2.0000
  283.6168 3.3590 357.7112 1.0000 .2687 325.9716 3.5903 355.4574 529.9623 .0000 .0000 .0000 .0000            BEDDING 2.0000
  283.8501 1.5296 344.9685 1.0000 .2897 331.2459 1.8123 342.7959 544.1504 .0000 .0000 .0000 .0000            BEDDING 2.0000
  284.1255 3.3187 7.0679 1.0000 .2976 326.9239 3.5514 3.9748 535.7775 .0000 .0000 .0000 .0000            BEDDING 2.0000
