~VERSION INFORMATION
VERS.                                                 2.0:   CWLS Log ASCII Standard-VERSION 2.0
WRAP.                                                  NO:   One line per depth step
~Well Information Block
STRT.M                                           113.1921:   Top Depth
STOP.M                                           369.8200:   Bottom Depth
STEP.M                                             .00000:   Depth Increment
NULL.                                            -999.250:   Null Value
FLD .                                           UNDEFINED:   Field Name
WELL.                             SUNCOR FIREBAG 4-7-93-4:   NAME
UWI .                                    1AA040709304W400:   UWI
LIC .                                             0492309:   LICENSE NUMBER
BS1 .MM                                               251:   BIT SIZE 1
BS2 .MM                                               159:   BIT SIZE 2
CTRY.                                              Canada:   COUNTRY
CS1 .MM                                             177.8:   CSG 1 SIZE
CW1 .KG/M                                            25.3:   CSG 1 WT
DMF .                                                  KB:   DRILL MEAS FROM
EPD .M                                                  0:   ELEV PERM DATUM
EGL .M                                              652.3:   GROUND LEVEL
EKB .M                                              656.5:   KB ELEVATION
SRVC.                                         Weatherford:   LOGGING CONTRACTOR
LMF .                                                  KB:   LOGS MEAS FROM
COMP.                                  SUNCOR ENERGY INC.:   OPERATOR
PDAT.                                              GROUND:   PERM DATUM
PROV.                                             ALBERTA:   PROVINCE
DATE.                                          2019/03/01:   RUN DATE
BSD1.M                                                  0:   TD 1 DRILLER
BSD2.M                                              109.7:   TD 2 DRILLER
~PARAMETER INFORMATION (log)
LNAM.                                              MAIN.3:   NAME
LTYP.                                                CORR:   LOG TYPE
LVSN.                                                   1:   LOG VERSION
BHIS.                                                   T:   BRIEF HISTORY
FHIS.                                          TRANSCRIPT:   FULL HISTORY
~Curve Information Block
#MNEM.UNIT                                        API CODE    No Description
#=========                                        ========    == ===========
DEPT.M                                       00 001 00 00:     1  DEPTH
DPTR.DEG                                               01:     2  Computed Dip Magnitude
DPAZ.DEG                                               01:     3  Computed Dip Azimuth
ICCO.                                                  01:     4  Computed Dip Quality
DEVI.DEG                                               01:     5  Deviation
HAZI.DEG                                               01:     6  Hole Azimuth
ADIP.DEG                                               01:     7  Apparent Dip
AAZI.DEG                                               01:     8  Apparent Azimuth
TRALEN.MM                                              01:     9  Trace length of pick
WIDTH.DEG                                              01:    10  Width of pick
HEIGHT.MM                                              01:    11  Height of pick
LEFT.DEG                                               01:    12  Partial pick: Left end of pick in deg
RIGHT.DEG                                              01:    13  Partial pick: Right end of pick in deg
DIPTYPE.TEXT                                           01:    14  DIP TYPE
DIPCODE.                                               01:    15  DIP CODE
~ASCII
# ...
  284.4586 5.5126 337.7776 1.0000 .3161 328.6700 5.8249 337.2870 522.2930 .0000 .0000 .0000 .0000            BEDDING 2.0000
  284.7844 2.7086 20.0037 1.0000 .3179 323.6103 2.8967 14.7634 525.5689 .0000 .0000 .0000 .0000            BEDDING 2.0000
  285.1333 4.5292 184.5628 1.0000 .3510 327.9088 4.2527 187.3817 536.9999 .0000 .0000 .0000 .0000            BEDDING 2.0000
  285.5860 4.5394 208.4494 1.0000 .2999 343.8488 4.3310 211.2303 527.2557 .0000 .0000 .0000 .0000            BEDDING 2.0000
  285.9106 3.5487 271.8358 1.0000 .2654 350.4504 3.6104 275.9621 527.0544 .0000 .0000 .0000 .0000            BEDDING 2.0000
  286.0597 6.1753 331.8739 1.0000 .2796 352.4366 6.4379 332.7445 531.5507 .0000 .0000 .0000 .0000            RESISTIVE_NODULAR_EVENT 13.0000
  286.1866 11.4249 226.3670 1.0000 .3272 352.4948 11.2350 227.6972 540.6954 .0000 .0000 .0000 .0000            RESISTIVE_NODULAR_EVENT 13.0000
  286.5145 2.5559 9.2290 1.0000 .3362 342.9181 2.8611 6.2461 532.0768 .0000 .0000 .0000 .0000            BEDDING 2.0000
  286.8814 5.1056 232.5930 1.0000 .2886 344.7500 5.0039 235.6467 532.2998 .0000 .0000 .0000 .0000            BEDDING 2.0000
  287.2336 4.9040 41.4429 1.0000 .2486 347.8390 5.0555 39.1798 526.7559 .0000 .0000 .0000 .0000            BEDDING 2.0000
  287.5604 2.9248 56.1749 1.0000 .2009 321.9872 2.9170 52.2397 521.9512 .0000 .0000 .0000 .0000            BEDDING 2.0000
  287.8544 2.1356 231.1447 1.0000 .1646 298.0229 2.2054 235.0789 517.7968 .0000 .0000 .0000 .0000            BEDDING 2.0000
  288.2435 2.8534 228.6327 1.0000 .1982 284.1651 2.9701 231.7845 513.3683 .0000 .0000 .0000 .0000            BEDDING 2.0000
  289.5084 5.0885 201.8689 1.0000 .3008 317.8174 4.9642 204.9842 536.5662 .0000 .0000 .0000 .0000            BEDDING 2.0000
  289.8700 2.5903 16.6686 1.0000 .3683 330.6850 2.8585 11.3565 532.5864 .0000 .0000 .0000 .0000            BEDDING 2.0000
  290.5320 .7815 233.5150 1.0000 .3018 352.2519 .6892 256.0883 552.3600 .0000 .0000 .0000 .0000            BEDDING 2.0000
  290.9730 4.8062 225.9567 1.0000 .1915 357.8807 4.6804 227.6972 569.1354 .0000 .0000 .0000 .0000            BEDDING 2.0000
  291.6118 2.0496 75.0846 1.0000 .1267 343.9251 2.0510 71.5457 556.8202 .0000 .0000 .0000 .0000            BEDDING 2.0000
  292.1374 3.3798 231.6573 1.0000 .0500 284.8454 3.4100 232.3286 558.1724 .0000 .0000 .0000 .0000            BEDDING 2.0000
  292.9929 6.2538 62.3419 1.0000 .1315 299.2540 6.1830 61.3249 553.6833 .0000 .0000 .0000 .0000            BEDDING 2.0000
  293.5841 4.7845 39.0891 1.0000 .1040 340.8295 4.8400 38.0442 550.2791 .0000 .0000 .0000 .0000            BEDDING 2.0000
  295.2836 1.4441 184.6389 1.0000 .0999 315.4761 1.3808 187.7755 544.1397 .0000 .0000 .0000 .0000            BEDDING 2.0000
  295.7140 4.2505 75.7492 1.0000 .0987 313.4756 4.1987 74.6128 543.1302 .0000 .0000 .0000 .0000            BEDDING 2.0000
  296.0926 2.7892 30.5444 1.0000 .1063 307.7489 2.8045 28.3912 542.9008 .0000 .0000 .0000 .0000            BEDDING 2.0000
  296.4817 4.7421 335.6969 1.0000 .1493 312.7705 4.8799 335.0158 545.7401 .0000 .0000 .0000 .0000            BEDDING 2.0000
  296.7873 1.3567 32.7124 1.0000 .1489 318.9801 1.4057 26.8776 544.1295 .0000 .0000 .0000 .0000            BEDDING 2.0000
  297.4906 3.5127 245.6693 1.0000 .1579 321.7927 3.5539 248.1388 535.4532 .0000 .0000 .0000 .0000            BEDDING 2.0000
  297.8460 3.6388 219.0225 1.0000 .0889 332.6274 3.6041 220.3154 528.0022 .0000 .0000 .0000 .0000            BEDDING 2.0000
  298.1347 2.9950 108.3455 1.0000 .1519 309.2017 2.8536 107.2604 533.5351 .0000 .0000 .0000 .0000            BEDDING 2.0000
  298.4498 3.6311 65.8664 1.0000 .1561 310.9383 3.5681 63.5962 533.3455 .0000 .0000 .0000 .0000            BEDDING 2.0000
  298.7438 3.4028 319.8644 1.0000 .1299 314.9619 3.5322 319.6845 538.7140 .0000 .0000 .0000 .0000            BEDDING 2.0000
  299.2451 1.4445 210.4699 1.0000 .1336 308.0336 1.4331 215.7729 531.3032 .0000 .0000 .0000 .0000            BEDDING 2.0000
  299.6670 3.6422 215.8369 1.0000 .1913 313.8747 3.6204 218.8313 526.8035 .0000 .0000 .0000 .0000            BEDDING 2.0000
  299.8161 2.8477 242.0027 1.0000 .1412 318.6493 2.8836 244.7319 527.9880 .0000 .0000 .0000 .0000            BEDDING 2.0000
  300.0911 13.4085 27.3133 1.0000 .1633 320.7072 13.4741 26.6877 534.4032 .0000 .0000 .0000 .0000            RESISTIVE_NODULAR_EVENT 13.0000
  300.1419 11.4074 230.2948 1.0000 .1633 320.7072 11.4074 231.1041 532.2947 .0000 .0000 .0000 .0000            RESISTIVE_NODULAR_EVENT 13.0000
  300.3269 3.6207 216.0627 1.0000 .1617 304.4688 3.6288 218.6120 524.3997 .0000 .0000 .0000 .0000            BEDDING 2.0000
  300.5881 1.3253 26.8648 1.0000 .2217 321.0480 1.4305 18.7382 532.2418 .0000 .0000 .0000 .0000            BEDDING 2.0000
  301.0513 2.8070 25.6819 1.0000 .1267 314.9900 2.8514 23.2808 533.9614 .0000 .0000 .0000 .0000            BEDDING 2.0000
  301.7583 1.2316 321.5340 1.0000 .1665 327.3388 1.3974 322.2245 544.1158 .0000 .0000 .0000 .0000            BEDDING 2.0000
  302.2204 2.9407 160.2883 1.0000 .1442 319.6224 2.8062 161.3265 544.4152 .0000 .0000 .0000 .0000            BEDDING 2.0000
  302.9911 1.2631 358.4362 1.0000 .1392 316.6096 1.3700 354.5510 544.1192 .0000 .0000 .0000 .0000            BEDDING 2.0000
  303.2944 2.0648 233.5512 1.0000 .1182 316.9598 2.0817 236.7823 548.5948 .0000 .0000 .0000 .0000            BEDDING 2.0000
  303.7057 2.0128 249.3541 1.0000 .1534 316.3531 2.0776 253.2492 549.6816 .0000 .0000 .0000 .0000            BEDDING 2.0000
  304.0272 3.4838 239.2445 1.0000 .1035 303.5996 3.5298 240.7571 539.0997 .0000 .0000 .0000 .0000            BEDDING 2.0000
  304.4111 5.6917 225.0432 1.0000 .0949 312.1921 5.6972 225.9937 534.1632 .0000 .0000 .0000 .0000            BEDDING 2.0000
  304.8934 5.6136 236.9557 1.0000 .0876 311.8342 5.6371 237.8127 539.1132 .0000 .0000 .0000 .0000            BEDDING 2.0000
  305.7225 3.5162 236.6474 1.0000 .1227 305.5089 3.5623 238.4858 534.1811 .0000 .0000 .0000 .0000            BEDDING 2.0000
  306.1444 2.7673 232.4046 1.0000 .1958 293.6128 2.8668 235.8339 533.0363 .0000 .0000 .0000 .0000            BEDDING 2.0000
  306.7261 3.4398 233.9469 1.0000 .1495 301.8995 3.4987 236.2145 543.8944 .0000 .0000 .0000 .0000            BEDDING 2.0000
  306.9729 2.7968 254.4962 1.0000 .0883 318.8235 2.8362 256.1021 544.3803 .0000 .0000 .0000 .0000            BEDDING 2.0000
  307.1660 4.9292 231.0466 1.0000 .1565 308.8608 4.9646 232.8076 536.4614 .0000 .0000 .0000 .0000            BEDDING 2.0000
  307.4484 .7019 235.1000 1.0000 .1701 327.8465 .7143 248.8583 538.9008 .0000 .0000 .0000 .0000            BEDDING 2.0000
  307.8122 2.1318 226.6266 1.0000 .1457 323.8261 2.1185 230.5363 539.0801 .0000 .0000 .0000 .0000            BEDDING 2.0000
  308.0596 .7022 225.1204 1.0000 .2173 309.0375 .7567 241.7078 536.9671 .0000 .0000 .0000 .0000            BEDDING 2.0000
  308.4319 2.7596 247.7609 1.0000 .2266 319.7892 2.8377 252.1136 536.5187 .0000 .0000 .0000 .0000            BEDDING 2.0000
  308.7893 .8215 181.4104 1.0000 .2052 312.3293 .7044 194.1249 532.6365 .0000 .0000 .0000 .0000            BEDDING 2.0000
  309.1965 2.7701 225.9102 1.0000 .2263 311.5848 2.7963 230.5363 544.4874 .0000 .0000 .0000 .0000            BEDDING 2.0000
  310.3583 1.5352 169.9873 1.0000 .2065 304.6337 1.3978 176.0204 544.1511 .0000 .0000 .0000 .0000            BEDDING 2.0000
  311.0556 2.9113 206.1918 1.0000 .1724 334.2927 2.8082 208.9590 542.2119 .0000 .0000 .0000 .0000            BEDDING 2.0000
  311.2257 4.0289 348.9019 1.0000 .1978 333.6501 4.2200 348.1967 544.7339 .0000 .0000 .0000 .0000            RESISTIVE_NODULAR_EVENT 13.0000
  311.3454 5.7149 209.2923 1.0000 .1907 328.4379 5.6245 210.9836 545.4271 .0000 .0000 .0000 .0000            RESISTIVE_NODULAR_EVENT 13.0000
  311.4226 2.1308 210.5786 1.0000 .2181 337.4987 2.0073 215.5606 537.5330 .0000 .0000 .0000 .0000            BEDDING 2.0000
  311.8117 2.8553 190.4932 1.0000 .2179 316.3396 2.7334 194.1956 557.0562 .0000 .0000 .0000 .0000            BEDDING 2.0000
