~Version
 VERS              .         3.0                           : CWLS LOG ASCII STANDARD - VERSION 3.0
 WRAP              .         NO                            : ONE LINE PER DEPTH STEP
 DLM               .         SPACE                         : DELIMITING CHARACTER(SPACE TAB OR COMMA)
~Well Information
#_______________________________________________________________________________
#
#PARAMETER_NAME    .UNIT     VALUE                         : DESCRIPTION
#_______________________________________________________________________________
STRT               .m        92.2036                       : First reference value
STOP               .m        218.5203                      : Last reference value
STEP               .m        0                             : Step increment
NULL               .         -9999                         : Missing value
COMP               .         SUNCOR ENERGY INC.            : Company
WELL               .         SUNCOR LEWIS 3-8-92-7         : Well name
FLD                .         LEWIS                         : Field
LOC                .                                       : Location
SRVC               .         Weatherford                   : Service Company
CTRY               .         CA                            : Country
PROV               .         ALBERTA                       : Province
UWI                .         1AA030809207W400              : UNIQUE WELL ID
LIC                .         0486896                       : License number
DATE               .         25-Jan-2018                   : Service Date
LATI               .         56.960838 N                   : Latitude
LONG               .         111.095591 W                  : Longitude
GDAT               .                                       : Geodetic Datum
APD                .m        1.20                          : 
BHT                .degC     9                             : Bottom Hole Temperature
BLI                .m        220.00                        : First Reading
BS                 .mm       159.00                        : 
CBDR               .m        88.30                         : Casing Driller Depth
CBLO               .m        88.30                         : Casing Logger Depth
COUNTRY            .         Canada                        : State / Country
DFD                .kg/m3    1050.0                        : Drill Fluid Density
DFT                .         POLYMER                       : 
EGL                .m        477.4                         : Ground Level Elevation
EKB                .m        478.6                         : Kelly Bushing Elevation
EPD                .m        0                             : Elevation Above Permanent Datum
LMF                .         KB                            : Log Measured From
LUL                .         LLD                           : Equipment Base Location
LUN                .         14265                         : Equipment Number
MRT                .degC     9                             : Max Recorded Temperature
MST                .degC     9.8                           : Measured Temperature
ORIGINALWELLNAME   .         SUNCOR LEWIS 3-8-92-7         : 
PDAT               .         GROUND                        : Permanent Datum
PRODUCER-CODE      .         126                           : 
PRODUCER-NAME      .         Weatherford                   : 
RMB                .ohm.m    4.65                          : Resistivity at Bottom Hole Temperature
RMS                .ohm.m    4.45                          : Mud Resistivity at Measured Temperature
TDD                .m        230.00                        : Depth Driller
TDL                .m        230.10                        : Depth Logger
TLI                .m        91.50                         : Last Reading
~Parameter Information Block
#_______________________________________________________________________________
#
#PARAMETER_NAME    .UNIT     VALUE                         : DESCRIPTION
#_______________________________________________________________________________
SET                .         Dip                           : 
TLFamily_AvgCali   .         Caliper                       : 
TLFamily_Azimuth   .         True Dip Azimuth              : 
TLFamily_CMI_DYN_Azimuth .         Apparent Dip Azimuth          : 
TLFamily_CMI_DYN_DipHeight .         Height Of Dip Plane           : 
TLFamily_CMI_DYN_Dip_APP .         Apparent Dip Inclination      : 
TLFamily_DEPTH     .         Measured Depth                : 
TLFamily_Dip_TRU   .         True Dip Inclination          : 
TLFamily_HAzi      .         Hole Azimuth                  : 
TLFamily_HDev      .         Hole Deviation                : 
TLFamily_Quality   .         Dip Quality                   : 
TLFamily_Type      .         Dip Classification            : 
~Curve Information
#_______________________________________________________________________________
#
#LOGNAME           .UNIT     LOG_ID                        : DESCRIPTION
#_______________________________________________________________________________
DEPTH              .m                                      :  {F}
AvgCali            .in                                     :  {F}
Azimuth            .dega                                   :  {F}
CMI_DYN_Azimuth    .dega                                   :  {F}
CMI_DYN_Dip_APP    .dega                                   :  {F}
CMI_DYN_DipHeight  .m                                      :  {F}
Dip_TRU            .dega                                   :  {F}
HAzi               .deg                                    :  {F}
HDev               .deg                                    :  {F}
Quality            .                                       :  {F}
Type               .                                       :  {S}
~Ascii
# ...
164.6549   6.1806     336.8387   219.7325   0.0125     0          0.4694     158.1808   0.4752     1          "Lateral Accretion"
165.0435   6.1293     52.3754    57.7583    5.2787     0.0156     5.3474     152.8277   0.5055     1          "Lateral Accretion"
165.5448   6.213      2.2454     5.6841     2.6007     0.0077     3.0785     164.3317   0.507      1          "Lateral Accretion"
165.9023   6.2199     46.5561    49.7468    7.7662     0.0233     7.9709     163.0501   0.4861     1          "Lateral Accretion"
166.1238   6.2267     35.1861    43.7383    2.6056     0.0078     2.8666     162.0042   0.4842     1          "Lateral Accretion"
166.5474   6.233      41.0093    45.7412    5.1979     0.0156     5.4623     164.3097   0.5147     1          "Lateral Accretion"
167.1342   6.223      72.4344    81.7925    2.6173     0.0078     2.6294     168.7437   0.4282     1          "Lateral Accretion"
167.4956   6.213      68.2411    73.781     5.2133     0.0156     5.2849     169.0248   0.5138     1          "Lateral Accretion"
167.9114   6.244      53.6953    63.7666    2.599      0.0078     2.8615     177.3345   0.5463     1          "Lateral Accretion"
168.1057   6.2433     56.3102    61.7639    5.19       0.0156     5.3828     169.8936   0.5399     1          "Lateral Accretion"
168.6343   6.1964     308.3724   307.6016   24.5579    0.0777     24.9812    167.9796   0.5513     1          Cross-Bedding
168.7159   6.1962     306.44     305.5986   24.5586    0.0777     24.9775    168.769    0.5742     1          Cross-Bedding
168.9646   6.1799     19.0923    21.707     5.239      0.0156     5.729      173.2623   0.5504     1          "Lateral Accretion"
169.2447   6.2046     357.0994   357.6729   5.2198     0.0156     5.7869     171.8215   0.5698     1          "Lateral Accretion"
169.7071   6.2763     85.9378    99.8181    2.5866     0.0078     2.5067     175.5236   0.6218     1          "Lateral Accretion"
170.2667   6.2373     79.4047    91.8066    2.5957     0.0078     2.5631     172.2766   0.5585     1          "Lateral Accretion"
170.7291   6.2085     98.7202    109.8323   2.6024     0.0077     2.406      172.3282   0.5231     1          "Lateral Accretion"
172.3846   6.1812     24.2207    27.7156    5.238      0.0156     5.7023     170.1776   0.5722     1          "Scour Surface"
172.851    6.3121     33.5659    35.9836    7.6723     0.0233     8.0426     172.6507   0.4969     1          "Scour Surface"
173.1269   6.2308     264.7028   263.7953   30.5859    0.1011     30.5708    175.9695   0.5343     1          Cross-Bedding
173.2823   6.1893     238.8166   237.7584   24.5808    0.0777     24.3243    176.4316   0.5469     1          Cross-Bedding
173.3872   6.1734     216.7684   215.7269   17.7951    0.0544     17.4078    175.8192   0.5091     1          Cross-Bedding
174.215    6.1413     349.9152   349.6611   7.8773     0.0233     8.3187     174.4615   0.4431     1          "Lateral Accretion"
174.351    6.1652     10.9875    11.6926    7.8494     0.0233     8.3145     179.194    0.4756     1          "Lateral Accretion"
174.9728   6.1663     353.8749   353.6667   17.8129    0.0544     18.3451    181.0729   0.5366     1          "Scour Surface"
175.1515   6.1997     341.9341   341.6499   24.5559    0.0778     25.0807    175.987    0.5406     1          Cross-Bedding
175.3614   6.185      341.8494   341.6499   30.7543    0.101      31.1941    177.2065   0.4454     1          Cross-Bedding
175.5401   6.2113     357.7026   357.6729   34.3655    0.1166     34.8743    181.2558   0.5047     1          Cross-Bedding
175.6606   6.1488     5.182      5.6841     12.9626    0.0389     13.4697    172.4817   0.5202     1          "Lateral Accretion"
176.1774   6.1367     334.9152   333.6384   7.8726     0.0233     8.3129     176.6735   0.4755     1          "Lateral Accretion"
176.4028   6.1203     342.5045   341.6499   7.902      0.0233     8.3723     176.6342   0.4852     1          "Lateral Accretion"
176.8614   6.1121     344.7081   343.6526   5.2924     0.0156     5.7862     175.9129   0.5036     1          "Lateral Accretion"
177.0324   6.11       348.265    347.6584   7.9141     0.0233     8.4282     177.8874   0.5207     1          "Lateral Accretion"
177.6697   6.1313     333.5713   331.6357   7.889      0.0233     8.3543     183.2858   0.5407     1          "Lateral Accretion"
177.9417   6.1857     327.8513   325.627    5.2345     0.0156     5.6853     171.9506   0.4982     1          "Lateral Accretion"
178.3498   6.1607     334.7445   333.6384   7.8446     0.0233     8.3175     172.5631   0.4984     1          "Lateral Accretion"
178.5091   6.1705     338.7422   337.6443   7.8332     0.0233     8.328      175.6976   0.5189     1          "Lateral Accretion"
178.8511   6.1578     344.7425   343.6526   7.8581     0.0233     8.3633     181.2692   0.5286     1          "Lateral Accretion"
179.2358   6.142      330.8007   329.6328   12.9754    0.0389     13.411     182.9041   0.5095     1          "Lateral Accretion"
179.5661   6.1815     344.2298   343.6526   12.8915    0.0388     13.4153    178.4083   0.5408     1          "Lateral Accretion"
179.8148   6.173      333.1721   331.6357   7.8403     0.0233     8.3328     176.3209   0.5388     1          "Lateral Accretion"
180.0985   6.1726     338.7735   337.6443   7.8307     0.0233     8.361      175.0623   0.554      1          "Lateral Accretion"
180.4444   6.1862     15.842     17.7012    5.234      0.0156     5.7202     176.7374   0.5163     1          "Lateral Accretion"
181.004    6.158      7.1393     7.687      12.9453    0.0389     13.4832    173.9673   0.5531     1          "Lateral Accretion"
181.6219   6.1376     359.5297   359.6755   7.8817     0.0233     8.4146     177.3841   0.5333     1          "Lateral Accretion"
181.9988   6.1477     332.4938   331.6357   12.9548    0.0388     13.4034    176.1252   0.4909     1          "Scour Surface"
182.5817   6.1504     49.2357    49.7468    44.0189    0.1632     44.3238    171.3374   0.5874     1          "Scour Surface"
186.5727   6.1651     13.1388    13.6953    20.1704    0.0622     20.7113    172.3057   0.58       1          Cross-Bedding
186.6621   6.1657     355.6136   355.6699   17.8238    0.0544     18.3808    173.8068   0.5572     1          Cross-Bedding
186.8409   6.1673     339.9366   339.647    20.1643    0.0622     20.7467    170.9781   0.5973     1          Cross-Bedding
187.0624   6.158      7.3934     7.687      20.1811    0.0622     20.7662    177.0856   0.5947     1          Cross-Bedding
187.1634   6.1433     359.2754   359.6755   17.8708    0.0544     18.4809    167.2894   0.6236     1          Cross-Bedding
187.5909   6.1263     335.552    333.6384   5.2605     0.0155     5.8091     173.2397   0.5798     1          "Scour Surface"
189.1298   6.1494     341.9347   341.6499   24.7109    0.0777     25.276     174.9274   0.5832     1          Cross-Bedding
190.5249   6.176      197.3389   195.955    12.9116    0.0389     12.4114    164.8806   0.5891     1          "Scour Surface"
190.6065   6.1757     77.8702    79.7896    17.7801    0.0544     17.7848    169.3582   0.616      1          Cross-Bedding
190.7386   6.1716     44.6848    47.7441    10.3966    0.0311     10.6073    155.1847   0.6054     1          "Scour Surface"
190.7619   6.1705     46.7517    47.7441    28.8287    0.0933     29.0695    160.2953   0.5991     1          Cross-Bedding
190.8824   6.1643     56.795     57.7583    28.8588    0.0933     29.1198    173.3285   0.5943     1          Cross-Bedding
191.0106   6.1614     66.4933    67.7725    24.6717    0.0777     24.8454    173.5602   0.615      1          Cross-Bedding
191.1233   6.1639     59.5617    65.7695    5.2515     0.0156     5.4433     170.8967   0.6115     1          "Scour Surface"
191.7373   6.2134     90.9233    93.8096    10.3431    0.0311     10.2828    176.0819   0.5262     1          "Scour Surface"
191.9705   6.2062     353.7097   353.6667   24.5262    0.0777     25.1224    175.6542   0.5971     1          Cross-Bedding
