~VERSION INFORMATION
VERS.                                                 2.0:   CWLS Log ASCII Standard-VERSION 2.0
WRAP.                                                  NO:   One line per depth step
~Well Information Block
STRT.M                                           113.1921:   Top Depth
STOP.M                                           369.8200:   Bottom Depth
STEP.M                                             .00000:   Depth Increment
NULL.                                            -999.250:   Null Value
FLD .                                           UNDEFINED:   Field Name
WELL.                             SUNCOR FIREBAG 4-7-93-4:   NAME
UWI .                                    1AA040709304W400:   UWI
LIC .                                             0492309:   LICENSE NUMBER
BS1 .MM                                               251:   BIT SIZE 1
BS2 .MM                                               159:   BIT SIZE 2
CTRY.                                              Canada:   COUNTRY
CS1 .MM                                             177.8:   CSG 1 SIZE
CW1 .KG/M                                            25.3:   CSG 1 WT
DMF .                                                  KB:   DRILL MEAS FROM
EPD .M                                                  0:   ELEV PERM DATUM
EGL .M                                              652.3:   GROUND LEVEL
EKB .M                                              656.5:   KB ELEVATION
SRVC.                                         Weatherford:   LOGGING CONTRACTOR
LMF .                                                  KB:   LOGS MEAS FROM
COMP.                                  SUNCOR ENERGY INC.:   OPERATOR
PDAT.                                              GROUND:   PERM DATUM
PROV.                                             ALBERTA:   PROVINCE
DATE.                                          2019/03/01:   RUN DATE
BSD1.M                                                  0:   TD 1 DRILLER
BSD2.M                                              109.7:   TD 2 DRILLER
~PARAMETER INFORMATION (log)
LNAM.                                              MAIN.3:   NAME
LTYP.                                                CORR:   LOG TYPE
LVSN.                                                   1:   LOG VERSION
BHIS.                                                   T:   BRIEF HISTORY
FHIS.                                          TRANSCRIPT:   FULL HISTORY
~Curve Information Block
#MNEM.UNIT                                        API CODE    No Description
#=========                                        ========    == ===========
DEPT.M                                       00 001 00 00:     1  DEPTH
DPTR.DEG                                               01:     2  Computed Dip Magnitude
DPAZ.DEG                                               01:     3  Computed Dip Azimuth
ICCO.                                                  01:     4  Computed Dip Quality
DEVI.DEG                                               01:     5  Deviation
HAZI.DEG                                               01:     6  Hole Azimuth
ADIP.DEG                                               01:     7  Apparent Dip
AAZI.DEG                                               01:     8  Apparent Azimuth
TRALEN.MM                                              01:     9  Trace length of pick
WIDTH.DEG                                              01:    10  Width of pick
HEIGHT.MM                                              01:    11  Height of pick
LEFT.DEG                                               01:    12  Partial pick: Left end of pick in deg
RIGHT.DEG                                              01:    13  Partial pick: Right end of pick in deg
DIPTYPE.TEXT                                           01:    14  DIP TYPE
DIPCODE.                                               01:    15  DIP CODE
~ASCII
# ...
  192.4416 6.8543 62.1547 1.0000 .1100 170.4243 6.8206 63.0284 557.5632 .0000 .0000 .0000 .0000            BEDDING 2.0000
  192.7271 2.1672 351.5122 1.0000 .1528 171.9028 2.0145 351.4826 566.9362 .0000 .0000 .0000 .0000            BEDDING 2.0000
  193.0549 3.6028 342.2317 1.0000 .2343 133.9579 3.3982 344.1010 560.0660 .0000 .0000 .0000 .0000            BEDDING 2.0000
  193.2633 5.6206 355.2227 1.0000 .2041 146.6098 5.4423 356.2483 560.3606 .0000 .0000 .0000 .0000            BEDDING 2.0000
  193.5562 4.6688 198.2899 1.0000 .1134 132.3330 4.7161 197.0347 564.7557 .0000 .0000 .0000 .0000            BEDDING 2.0000
  193.8967 3.4555 336.8846 1.0000 .0575 132.2827 3.4033 337.2871 559.1871 .0000 .0000 .0000 .0000            BEDDING 2.0000
  194.2690 4.2009 337.6711 1.0000 .0977 111.7806 4.1335 338.6413 545.9216 .0000 .0000 .0000 .0000            BEDDING 2.0000
  194.5926 4.1537 352.1754 1.0000 .1913 119.7688 4.0399 354.3218 565.2469 .0000 .0000 .0000 .0000            BEDDING 2.0000
  194.8855 11.3595 297.6935 1.0000 .1264 131.7130 11.2370 297.5394 574.3196 .0000 .0000 .0000 .0000            BEDDING 2.0000
  195.2007 2.1401 349.5549 1.0000 .1333 157.5182 2.0100 350.3470 568.2057 .0000 .0000 .0000 .0000            BEDDING 2.0000
  195.5623 3.4923 16.2234 1.0000 .1221 189.4773 3.3711 16.4669 564.5543 .0000 .0000 .0000 .0000            BEDDING 2.0000
  195.8035 6.2272 .7766 1.0000 .1889 169.1649 6.0423 1.1356 566.6595 .0000 .0000 .0000 .0000            BEDDING 2.0000
  196.1197 3.6296 13.5561 1.0000 .2403 192.5431 3.3893 13.6278 561.5488 .0000 .0000 .0000 .0000            BEDDING 2.0000
  196.4517 10.1543 327.8079 1.0000 .2399 180.6778 9.9537 327.0663 572.5198 .0000 .0000 .0000 .0000            BEDDING 2.0000
  196.8663 1.9967 251.3594 1.0000 .2337 155.5159 1.9865 244.6421 572.2527 .0000 .0000 .0000 .0000            BEDDING 2.0000
  197.2999 5.7029 9.6457 1.0000 .2699 152.0939 5.4914 11.3565 554.3229 .0000 .0000 .0000 .0000            BEDDING 2.0000
  197.6563 7.1660 340.0281 1.0000 .2761 143.0486 6.9024 340.6940 551.0814 .0000 .0000 .0000 .0000            BEDDING 2.0000
  198.0274 3.4615 222.8845 1.0000 .2637 116.8735 3.3982 218.6120 560.0217 .0000 .0000 .0000 .0000            BEDDING 2.0000
  198.3648 4.9083 352.5581 1.0000 .2127 128.9361 4.7566 354.3218 560.0250 .0000 .0000 .0000 .0000            BEDDING 2.0000
  198.6831 2.2392 337.2578 1.0000 .2561 117.6309 2.0485 341.8297 556.0014 .0000 .0000 .0000 .0000            BEDDING 2.0000
  199.0194 3.5486 346.7041 1.0000 .2129 122.3272 3.3997 349.2114 559.8043 .0000 .0000 .0000 .0000            BEDDING 2.0000
  199.2869 5.3753 349.6007 1.0000 .2462 121.3790 5.2145 351.6122 545.2679 .0000 .0000 .0000 .0000            BEDDING 2.0000
  199.5397 2.8788 337.2621 1.0000 .1844 130.8688 2.7149 338.9905 560.8621 .0000 .0000 .0000 .0000            BEDDING 2.0000
  199.8612 2.7135 351.0334 1.0000 .0609 119.7419 2.6758 352.0505 569.0193 .0000 .0000 .0000 .0000            BEDDING 2.0000
  200.2081 4.0575 22.1451 1.0000 .0184 95.5383 4.0628 22.3938 562.7510 .0000 .0000 .0000 .0000            BEDDING 2.0000
  200.5169 3.4779 24.9842 1.0000 .0320 35.2987 3.5094 25.0775 547.1644 .0000 .0000 .0000 .0000            BEDDING 2.0000
  200.7517 3.4533 50.5363 1.0000 .0114 156.2365 3.4502 50.7185 548.4371 .0000 .0000 .0000 .0000            BEDDING 2.0000
  201.0478 4.7577 15.5926 1.0000 .0553 52.2289 4.8021 15.9854 549.7161 .0000 .0000 .0000 .0000            BEDDING 2.0000
  201.4898 5.7843 247.0573 1.0000 .1659 49.2932 5.6265 247.5710 540.9644 .0000 .0000 .0000 .0000            BEDDING 2.0000
  201.8325 7.9414 241.4848 1.0000 .1972 66.9188 7.7451 241.3475 540.4920 .0000 .0000 .0000 .0000            BEDDING 2.0000
  202.1920 7.3315 266.0230 1.0000 .3387 67.9587 7.0103 266.8770 542.6195 .0000 .0000 .0000 .0000            BEDDING 2.0000
  202.5473 7.8856 246.0421 1.0000 .3338 70.0203 7.5526 245.8675 553.9354 .0000 .0000 .0000 .0000            BEDDING 2.0000
  202.7948 9.8059 254.2789 1.0000 .3282 66.3548 9.4809 254.5497 545.3549 .0000 .0000 .0000 .0000            BEDDING 2.0000
  203.0835 9.7848 258.7153 1.0000 .3069 72.0840 9.4801 258.9274 561.2520 .0000 .0000 .0000 .0000            BEDDING 2.0000
  203.3606 7.3012 254.0506 1.0000 .3851 78.2726 6.9173 253.8170 549.9692 .0000 .0000 .0000 .0000            BEDDING 2.0000
  203.7339 5.1874 247.8741 1.0000 .2957 74.8083 4.8940 247.4573 542.6901 .0000 .0000 .0000 .0000            BEDDING 2.0000
  204.0670 7.8075 247.3818 1.0000 .2894 93.0664 7.5477 246.4353 554.2463 .0000 .0000 .0000 .0000            BEDDING 2.0000
  204.2701 9.9928 258.6720 1.0000 .2972 109.2307 9.7380 257.7918 546.2841 .0000 .0000 .0000 .0000            BEDDING 2.0000
  204.7132 10.5932 270.9195 1.0000 .2744 115.9432 10.3452 270.2839 550.7981 .0000 .0000 .0000 .0000            BEDDING 2.0000
  205.1023 11.6701 248.9738 1.0000 .2207 119.5200 11.5311 248.1388 559.5997 .0000 .0000 .0000 .0000            BEDDING 2.0000
  205.4862 8.2629 239.2050 1.0000 .1825 118.3549 8.1708 238.1137 552.2678 .0000 .0000 .0000 .0000            BEDDING 2.0000
  205.9040 5.6915 252.1365 1.0000 .1454 123.5638 5.6020 250.9779 543.3026 .0000 .0000 .0000 .0000            BEDDING 2.0000
  206.2974 7.7125 249.6873 1.0000 .0917 106.8514 7.6397 249.2745 547.4341 .0000 .0000 .0000 .0000            BEDDING 2.0000
  206.7214 7.9021 288.7011 1.0000 .2308 97.8974 7.6755 289.0221 544.9753 .0000 .0000 .0000 .0000            BEDDING 2.0000
  207.1360 8.0158 279.5838 1.0000 .2531 97.6427 7.7628 279.6466 548.1203 .0000 .0000 .0000 .0000            BEDDING 2.0000
  207.6129 7.0666 266.4458 1.0000 .2272 90.5836 6.8400 266.3091 556.0928 .0000 .0000 .0000 .0000            BEDDING 2.0000
  208.0116 4.3499 260.3909 1.0000 .2138 86.7593 4.1374 260.0631 551.9464 .0000 .0000 .0000 .0000            BEDDING 2.0000
  208.3691 7.0618 263.4729 1.0000 .1379 113.7433 6.9430 262.9022 559.8489 .0000 .0000 .0000 .0000            BEDDING 2.0000
  208.7773 9.0976 259.2890 1.0000 .1478 101.9863 8.9614 258.9275 551.3087 .0000 .0000 .0000 .0000            BEDDING 2.0000
  209.2257 11.8812 261.5266 1.0000 .1019 123.8152 11.8060 261.1987 546.4198 .0000 .0000 .0000 .0000            BEDDING 2.0000
  209.5556 4.8452 260.6586 1.0000 .0625 133.9338 4.8081 260.0631 553.9735 .0000 .0000 .0000 .0000            BEDDING 2.0000
  209.8464 5.6566 280.0034 1.0000 .0535 149.2126 5.6218 279.5919 544.6923 .0000 .0000 .0000 .0000            BEDDING 2.0000
  210.2367 4.2677 327.6341 1.0000 .0233 63.5492 4.2654 327.9446 535.0052 .0000 .0000 .0000 .0000            BEDDING 2.0000
  210.9019 4.1911 322.7106 1.0000 .1959 48.0129 4.2117 325.3628 542.1210 .0000 .0000 .0000 .0000            BEDDING 2.0000
  211.2657 4.8117 335.3183 1.0000 .3232 51.8954 4.8968 338.9905 543.8705 .0000 .0000 .0000 .0000            BEDDING 2.0000
  211.5417 6.9185 322.3561 1.0000 .3654 59.0623 6.8854 325.3628 552.3083 .0000 .0000 .0000 .0000            BEDDING 2.0000
  211.8272 3.5553 320.9226 1.0000 .3022 79.6106 3.4205 325.3628 556.3913 .0000 .0000 .0000 .0000            BEDDING 2.0000
  212.1751 4.4640 315.7630 1.0000 .3400 98.8041 4.1973 318.5489 544.0906 .0000 .0000 .0000 .0000            BEDDING 2.0000
  212.5125 .3490 307.9461 1.0000 .3490 127.9461 .0000 318.5489 541.5278 .0000 .0000 .0000 .0000            BEDDING 2.0000
  212.9715 2.0861 225.4648 1.0000 .2323 118.8020 2.0317 219.1798 562.1072 .0000 .0000 .0000 .0000            BEDDING 2.0000
  213.2464 2.0674 42.2968 1.0000 .1318 148.1794 2.0353 45.8664 546.7599 .0000 .0000 .0000 .0000            BEDDING 2.0000
  213.5753 2.7385 225.1459 1.0000 .1226 136.2350 2.7436 222.5867 554.9505 .0000 .0000 .0000 .0000            BEDDING 2.0000
  213.9211 6.3902 251.9291 1.0000 .1489 64.1375 6.2427 252.1136 548.4182 .0000 .0000 .0000 .0000            BEDDING 2.0000
  214.2225 2.4043 243.2369 1.0000 .2977 45.8153 2.1221 245.6425 536.3926 .0000 .0000 .0000 .0000            BEDDING 2.0000
  214.6286 4.4663 248.5546 1.0000 .3951 61.0944 4.0749 249.2744 560.4813 .0000 .0000 .0000 .0000            BEDDING 2.0000
