~VERSION INFORMATION
VERS.                                                 2.0:   CWLS Log ASCII Standard-VERSION 2.0
WRAP.                                                  NO:   One line per depth step
~Well Information Block
STRT.M                                           113.1921:   Top Depth
STOP.M                                           369.8200:   Bottom Depth
STEP.M                                             .00000:   Depth Increment
NULL.                                            -999.250:   Null Value
FLD .                                           UNDEFINED:   Field Name
WELL.                             SUNCOR FIREBAG 4-7-93-4:   NAME
UWI .                                    1AA040709304W400:   UWI
LIC .                                             0492309:   LICENSE NUMBER
BS1 .MM                                               251:   BIT SIZE 1
BS2 .MM                                               159:   BIT SIZE 2
CTRY.                                              Canada:   COUNTRY
CS1 .MM                                             177.8:   CSG 1 SIZE
CW1 .KG/M                                            25.3:   CSG 1 WT
DMF .                                                  KB:   DRILL MEAS FROM
EPD .M                                                  0:   ELEV PERM DATUM
EGL .M                                              652.3:   GROUND LEVEL
EKB .M                                              656.5:   KB ELEVATION
SRVC.                                         Weatherford:   LOGGING CONTRACTOR
LMF .                                                  KB:   LOGS MEAS FROM
COMP.                                  SUNCOR ENERGY INC.:   OPERATOR
PDAT.                                              GROUND:   PERM DATUM
PROV.                                             ALBERTA:   PROVINCE
DATE.                                          2019/03/01:   RUN DATE
BSD1.M                                                  0:   TD 1 DRILLER
BSD2.M                                              109.7:   TD 2 DRILLER
~PARAMETER INFORMATION (log)
LNAM.                                              MAIN.3:   NAME
LTYP.                                                CORR:   LOG TYPE
LVSN.                                                   1:   LOG VERSION
BHIS.                                                   T:   BRIEF HISTORY
FHIS.                                          TRANSCRIPT:   FULL HISTORY
~Curve Information Block
#MNEM.UNIT                                        API CODE    No Description
#=========                                        ========    == ===========
DEPT.M                                       00 001 00 00:     1  DEPTH
DPTR.DEG                                               01:     2  Computed Dip Magnitude
DPAZ.DEG                                               01:     3  Computed Dip Azimuth
ICCO.                                                  01:     4  Computed Dip Quality
DEVI.DEG                                               01:     5  Deviation
HAZI.DEG                                               01:     6  Hole Azimuth
ADIP.DEG                                               01:     7  Apparent Dip
AAZI.DEG                                               01:     8  Apparent Azimuth
TRALEN.MM                                              01:     9  Trace length of pick
WIDTH.DEG                                              01:    10  Width of pick
HEIGHT.MM                                              01:    11  Height of pick
LEFT.DEG                                               01:    12  Partial pick: Left end of pick in deg
RIGHT.DEG                                              01:    13  Partial pick: Right end of pick in deg
DIPTYPE.TEXT                                           01:    14  DIP TYPE
DIPCODE.                                               01:    15  DIP CODE
~ASCII
# ...
  214.9533 3.1797 233.9082 1.0000 .3712 62.2870 2.8130 232.8076 541.3479 .0000 .0000 .0000 .0000            BEDDING 2.0000
  215.3710 5.2301 248.7690 1.0000 .3739 54.6130 4.8685 249.8423 547.2350 .0000 .0000 .0000 .0000            BEDDING 2.0000
  215.7168 7.4935 258.8477 1.0000 .4275 58.1120 7.0954 260.0631 536.1461 .0000 .0000 .0000 .0000            BEDDING 2.0000
  216.1895 4.6980 241.8272 1.0000 .3690 82.8410 4.3555 240.0900 546.4887 .0000 .0000 .0000 .0000            BEDDING 2.0000
  216.5364 4.5700 261.8251 1.0000 .3436 82.5471 4.2264 261.7666 539.8459 .0000 .0000 .0000 .0000            BEDDING 2.0000
  216.8812 4.3539 293.7823 1.0000 .3610 65.1980 4.1239 297.5394 553.7579 .0000 .0000 .0000 .0000            BEDDING 2.0000
  217.2798 2.9517 295.7570 1.0000 .3860 66.3423 2.7164 301.9473 546.4133 .0000 .0000 .0000 .0000            BEDDING 2.0000
  217.4036 2.5417 21.2996 1.0000 .4110 67.2101 2.8430 27.2555 535.4674 .0000 .0000 .0000 .0000            RESISTIVE_NODULAR_EVENT 13.0000
  217.5358 6.7070 297.0063 1.0000 .3669 73.4745 6.4459 299.2429 531.1627 .0000 .0000 .0000 .0000            RESISTIVE_NODULAR_EVENT 13.0000
  217.6658 7.2745 314.7862 1.0000 .2985 96.6654 7.0421 316.2776 539.1859 .0000 .0000 .0000 .0000            BEDDING 2.0000
  217.7314 6.6514 262.4249 1.0000 .2985 96.6654 6.3625 261.7666 538.8218 .0000 .0000 .0000 .0000            RESISTIVE_NODULAR_EVENT 13.0000
  217.7864 1.2022 57.1373 1.0000 .2488 89.0954 1.4194 62.4606 536.3730 .0000 .0000 .0000 .0000            RESISTIVE_NODULAR_EVENT 13.0000
  218.0571 2.0003 59.5334 1.0000 .1716 75.1759 2.1661 60.7571 527.1898 .0000 .0000 .0000 .0000            BEDDING 2.0000
  218.4981 7.9493 258.9736 1.0000 .0908 26.1404 7.8948 259.4953 529.6823 .0000 .0000 .0000 .0000            BEDDING 2.0000
  218.8630 .6568 66.2482 1.0000 .0826 24.7135 .7207 61.8927 528.2265 .0000 .0000 .0000 .0000            BEDDING 2.0000
  219.2564 4.1970 34.0161 1.0000 .1385 357.9383 4.3097 32.9338 530.9719 .0000 .0000 .0000 .0000            BEDDING 2.0000
  219.6265 2.0095 25.4537 1.0000 .1747 357.4037 2.1652 23.2808 527.4150 .0000 .0000 .0000 .0000            BEDDING 2.0000
  220.0939 4.1186 2.2121 1.0000 .1895 46.0245 4.2573 3.9748 536.2662 .0000 .0000 .0000 .0000            BEDDING 2.0000
  220.4345 3.2456 25.4992 1.0000 .2717 48.7616 3.4968 27.2555 544.1411 .0000 .0000 .0000 .0000            BEDDING 2.0000
  220.7560 3.6996 201.2895 1.0000 .2159 35.1490 3.4904 200.4417 545.2764 .0000 .0000 .0000 .0000            BEDDING 2.0000
  221.1282 1.5541 205.5905 1.0000 .1489 36.7704 1.4084 204.4164 540.6392 .0000 .0000 .0000 .0000            BEDDING 2.0000
  221.4730 1.2190 27.8423 1.0000 .1981 27.7065 1.4171 27.8233 537.2750 .0000 .0000 .0000 .0000            BEDDING 2.0000
  222.0165 3.1936 200.2012 1.0000 .3368 22.9821 2.8572 199.8738 532.9683 .0000 .0000 .0000 .0000            BEDDING 2.0000
  222.4258 3.1887 196.0682 1.0000 .3405 37.1474 2.8736 193.6278 529.9236 .0000 .0000 .0000 .0000            BEDDING 2.0000
  222.8975 3.0262 177.8729 1.0000 .3473 54.2563 2.8486 172.0505 534.5363 .0000 .0000 .0000 .0000            BEDDING 2.0000
  223.1381 11.0231 307.0514 1.0000 .3076 48.6125 10.9655 308.6066 409.6421 .0000 .0000 351.0000 258.0000            RESISTIVE_NODULAR_EVENT 13.0000
  223.1776 5.2985 113.9415 1.0000 .3801 50.9400 5.4815 110.4098 424.2329 .0000 .0000 344.0000 263.0000            RESISTIVE_NODULAR_EVENT 13.0000
  223.2327 5.2943 190.2098 1.0000 .3801 50.9400 5.0124 187.3817 531.4748 .0000 .0000 .0000 .0000            BEDDING 2.0000
  223.5679 3.1491 188.3461 1.0000 .3464 52.0722 2.9086 183.6292 531.6367 .0000 .0000 .0000 .0000            BEDDING 2.0000
  223.8916 2.4112 213.0578 1.0000 .3095 62.8111 2.1480 208.9590 531.7215 .0000 .0000 .0000 .0000            BEDDING 2.0000
  224.3082 3.1132 230.8487 1.0000 .2721 72.5911 2.8623 228.8328 531.9902 .0000 .0000 .0000 .0000            BEDDING 2.0000
  224.6847 6.5268 179.9952 1.0000 .1761 60.6642 6.4424 178.6354 531.2362 .0000 .0000 .0000 .0000            BEDDING 2.0000
  224.9597 2.8371 152.9319 1.0000 .1503 63.8333 2.8434 149.9054 535.4635 .0000 .0000 .0000 .0000            RESISTIVE_NODULAR_EVENT 13.0000
  225.0094 3.6080 176.5548 1.0000 .1503 63.8333 3.5526 174.3218 535.6688 .0000 .0000 .0000 .0000            RESISTIVE_NODULAR_EVENT 13.0000
  225.1891 2.9637 229.0392 1.0000 .1598 85.3562 2.8366 227.1293 536.7819 .0000 .0000 .0000 .0000            BEDDING 2.0000
  225.4863 1.2074 61.2552 1.0000 .1852 119.6761 1.3139 68.1526 534.5483 .0000 .0000 .0000 .0000            BEDDING 2.0000
  225.9411 5.4281 77.5452 1.0000 .2244 80.8683 5.6521 77.6766 546.2387 .0000 .0000 .0000 .0000            BEDDING 2.0000
  226.3545 2.6500 89.4084 1.0000 .2546 67.4553 2.8878 87.5207 550.0479 .0000 .0000 .0000 .0000            BEDDING 2.0000
  226.7871 3.9631 100.8900 1.0000 .3169 71.6289 4.2424 98.8013 538.1081 .0000 .0000 .0000 .0000            BEDDING 2.0000
  227.1519 4.0785 103.3679 1.0000 .2467 59.5207 4.2598 101.0726 534.4150 .0000 .0000 .0000 .0000            BEDDING 2.0000
  227.5115 1.9893 41.3660 1.0000 .1438 54.6878 2.1295 42.2574 532.1160 .0000 .0000 .0000 .0000            BEDDING 2.0000
  227.7734 1.6620 56.7425 1.0000 .1776 51.7924 1.8390 56.2653 544.1680 .0000 .0000 .0000 .0000            BEDDING 2.0000
  227.9906 3.4314 40.2717 1.0000 .1560 28.1284 3.5841 39.7476 528.8888 .0000 .0000 .0000 .0000            BEDDING 2.0000
  228.4590 5.6623 42.9845 1.0000 .0639 4.4758 5.7124 42.5868 532.7222 .0000 .0000 .0000 .0000            BEDDING 2.0000
  228.8070 7.7927 37.4763 1.0000 .0520 11.8965 7.8396 37.3133 536.6092 .0000 .0000 .0000 .0000            BEDDING 2.0000
  229.0883 3.4928 20.5310 1.0000 .0780 16.4297 3.5705 20.4416 534.3333 .0000 .0000 .0000 .0000            BEDDING 2.0000
  229.4859 4.9223 35.2525 1.0000 .0754 349.9681 4.9757 34.6372 535.2587 .0000 .0000 .0000 .0000            BEDDING 2.0000
  229.9142 5.5600 17.3059 1.0000 .0915 .2638 5.6476 17.0347 538.8319 .0000 .0000 .0000 .0000            BEDDING 2.0000
  230.2198 6.2191 40.9432 1.0000 .2024 359.6743 6.3726 39.7476 537.0643 .0000 .0000 .0000 .0000            BEDDING 2.0000
  230.5360 8.3675 56.7634 1.0000 .2060 2.7625 8.4902 55.6467 537.0622 .0000 .0000 .0000 .0000            BEDDING 2.0000
  230.8269 5.5221 38.0425 1.0000 .2367 2.9167 5.7173 36.6820 532.3582 .0000 .0000 .0000 .0000            BEDDING 2.0000
  231.1653 6.1694 25.7665 1.0000 .2875 33.7558 6.4543 26.1199 530.1860 .0000 .0000 .0000 .0000            BEDDING 2.0000
  231.4794 4.8082 39.2249 1.0000 .2807 34.0818 5.0878 38.9423 522.4779 .0000 .0000 .0000 .0000            BEDDING 2.0000
  231.7755 6.1999 34.3508 1.0000 .2841 54.2723 6.4678 35.2050 529.0837 .0000 .0000 .0000 .0000            BEDDING 2.0000
  232.1022 6.9388 30.0329 1.0000 .2127 74.4770 7.0922 31.2303 536.0514 .0000 .0000 .0000 .0000            BEDDING 2.0000
  232.4618 3.4272 42.8024 1.0000 .2184 91.4178 3.5753 45.4259 532.2049 .0000 .0000 .0000 .0000            BEDDING 2.0000
  232.6955 4.8765 38.5218 1.0000 .2469 95.5593 5.0151 40.8833 531.0092 .0000 .0000 .0000 .0000            BEDDING 2.0000
  232.9176 .5985 40.4120 1.0000 .1752 93.5066 .7176 51.6719 530.5362 .0000 .0000 .0000 .0000            BEDDING 2.0000
  233.1830 5.6628 35.4306 1.0000 .1133 89.1323 5.7306 36.3407 531.0215 .0000 .0000 .0000 .0000            BEDDING 2.0000
  233.4876 5.6371 44.5274 1.0000 .1053 62.9175 5.7371 44.8580 530.4058 .0000 .0000 .0000 .0000            BEDDING 2.0000
  233.7520 4.1290 28.4204 1.0000 .2185 63.6700 4.3093 30.0946 528.8544 .0000 .0000 .0000 .0000            BEDDING 2.0000
  234.1369 7.7215 37.0360 1.0000 .2464 71.7402 7.9253 38.0442 527.4682 .0000 .0000 .0000 .0000            BEDDING 2.0000
  234.4574 3.3577 46.2367 1.0000 .2939 80.0386 3.6056 48.8328 527.2595 .0000 .0000 .0000 .0000            BEDDING 2.0000
  234.7693 4.8067 28.5148 1.0000 .2982 67.9322 5.0407 30.6625 528.2728 .0000 .0000 .0000 .0000            BEDDING 2.0000
  235.1448 6.3070 42.9292 1.0000 .2327 65.8551 6.5220 43.7224 524.7057 .0000 .0000 .0000 .0000            BEDDING 2.0000
