~VERSION INFORMATION
VERS.                                                 2.0:   CWLS Log ASCII Standard-VERSION 2.0
WRAP.                                                  NO:   One line per depth step
~Well Information Block
STRT.M                                           113.1921:   Top Depth
STOP.M                                           369.8200:   Bottom Depth
STEP.M                                             .00000:   Depth Increment
NULL.                                            -999.250:   Null Value
FLD .                                           UNDEFINED:   Field Name
WELL.                             SUNCOR FIREBAG 4-7-93-4:   NAME
UWI .                                    1AA040709304W400:   UWI
LIC .                                             0492309:   LICENSE NUMBER
BS1 .MM                                               251:   BIT SIZE 1
BS2 .MM                                               159:   BIT SIZE 2
CTRY.                                              Canada:   COUNTRY
CS1 .MM                                             177.8:   CSG 1 SIZE
CW1 .KG/M                                            25.3:   CSG 1 WT
DMF .                                                  KB:   DRILL MEAS FROM
EPD .M                                                  0:   ELEV PERM DATUM
EGL .M                                              652.3:   GROUND LEVEL
EKB .M                                              656.5:   KB ELEVATION
SRVC.                                         Weatherford:   LOGGING CONTRACTOR
LMF .                                                  KB:   LOGS MEAS FROM
COMP.                                  SUNCOR ENERGY INC.:   OPERATOR
PDAT.                                              GROUND:   PERM DATUM
PROV.                                             ALBERTA:   PROVINCE
DATE.                                          2019/03/01:   RUN DATE
BSD1.M                                                  0:   TD 1 DRILLER
BSD2.M                                              109.7:   TD 2 DRILLER
~PARAMETER INFORMATION (log)
LNAM.                                              MAIN.3:   NAME
LTYP.                                                CORR:   LOG TYPE
LVSN.                                                   1:   LOG VERSION
BHIS.                                                   T:   BRIEF HISTORY
FHIS.                                          TRANSCRIPT:   FULL HISTORY
~Curve Information Block
#MNEM.UNIT                                        API CODE    No Description
#=========                                        ========    == ===========
DEPT.M                                       00 001 00 00:     1  DEPTH
DPTR.DEG                                               01:     2  Computed Dip Magnitude
DPAZ.DEG                                               01:     3  Computed Dip Azimuth
ICCO.                                                  01:     4  Computed Dip Quality
DEVI.DEG                                               01:     5  Deviation
HAZI.DEG                                               01:     6  Hole Azimuth
ADIP.DEG                                               01:     7  Apparent Dip
AAZI.DEG                                               01:     8  Apparent Azimuth
TRALEN.MM                                              01:     9  Trace length of pick
WIDTH.DEG                                              01:    10  Width of pick
HEIGHT.MM                                              01:    11  Height of pick
LEFT.DEG                                               01:    12  Partial pick: Left end of pick in deg
RIGHT.DEG                                              01:    13  Partial pick: Right end of pick in deg
DIPTYPE.TEXT                                           01:    14  DIP TYPE
DIPCODE.                                               01:    15  DIP CODE
~ASCII
# ...
  235.5138 4.1646 37.6811 1.0000 .0768 58.1927 4.2365 38.0442 538.9212 .0000 .0000 .0000 .0000            BEDDING 2.0000
  235.7888 2.1024 351.4826 1.0000 .0359 132.8218 2.0745 352.1011 537.1263 .0000 .0000 .0000 .0000            BEDDING 2.0000
  235.9596 7.1809 152.9072 1.0000 .1024 174.0612 7.2765 153.1967 311.1143 .0000 .0000 259.0000 103.0000            RESISTIVE_NODULAR_EVENT 13.0000
  235.9923 7.2583 1.1291 1.0000 .1024 174.0612 7.1566 1.2295 314.2534 .0000 .0000 259.0000 105.0000            RESISTIVE_NODULAR_EVENT 13.0000
  236.0786 4.3178 12.3489 1.0000 .1246 187.5146 4.1936 12.4921 544.5130 .0000 .0000 .0000 .0000            BEDDING 2.0000
  236.4297 4.3625 27.9054 1.0000 .2021 170.2278 4.2044 29.5857 542.3598 .0000 .0000 .0000 .0000            BEDDING 2.0000
  236.8284 5.0996 24.5543 1.0000 .2404 154.3407 4.9492 26.6877 538.2087 .0000 .0000 .0000 .0000            BEDDING 2.0000
  237.0927 5.8975 12.3323 1.0000 .2701 148.7603 5.7049 14.1956 533.5394 .0000 .0000 .0000 .0000            BEDDING 2.0000
  237.3836 5.1771 10.4032 1.0000 .3607 128.5608 5.0169 14.0279 537.0961 .0000 .0000 .0000 .0000            BEDDING 2.0000
  237.7653 4.3254 22.3195 1.0000 .3301 117.5894 4.3076 26.6877 530.0519 .0000 .0000 .0000 .0000            BEDDING 2.0000
  238.1260 5.7298 17.1470 1.0000 .2736 108.4117 5.7303 19.8738 531.0788 .0000 .0000 .0000 .0000            BEDDING 2.0000
  238.4369 4.1864 33.7481 1.0000 .1462 96.4307 4.2555 35.4943 532.4506 .0000 .0000 .0000 .0000            BEDDING 2.0000
  238.7943 4.8434 42.3372 1.0000 .1490 50.7443 4.9909 42.5868 533.5877 .0000 .0000 .0000 .0000            BEDDING 2.0000
  239.0841 4.0972 45.9076 1.0000 .1506 48.3415 4.2477 45.9937 532.0186 .0000 .0000 .0000 .0000            BEDDING 2.0000
  239.5230 2.7751 48.4828 1.0000 .1240 56.6996 2.8978 48.8328 525.3756 .0000 .0000 .0000 .0000            BEDDING 2.0000
  239.8328 .0829 323.7711 1.0000 .0829 143.7711 .0000 48.8328 532.8690 .0000 .0000 .0000 .0000            BEDDING 2.0000
  240.1659 1.4812 23.0969 1.0000 .0699 197.6682 1.4116 23.3655 534.7374 .0000 .0000 .0000 .0000            BEDDING 2.0000
  240.6154 .6321 187.7556 1.0000 .1436 250.8999 .7086 198.1703 537.2713 .0000 .0000 .0000 .0000            BEDDING 2.0000
  240.9189 1.3509 190.4069 1.0000 .1371 243.2290 1.4379 194.7634 529.4951 .0000 .0000 .0000 .0000            BEDDING 2.0000
  241.1917 .7633 26.2504 1.0000 .0845 266.5877 .7252 20.4416 524.9536 .0000 .0000 .0000 .0000            BEDDING 2.0000
  241.5354 1.4754 190.3277 1.0000 .1437 290.1868 1.4577 195.8991 522.3135 .0000 .0000 .0000 .0000            BEDDING 2.0000
  241.7373 1.7358 356.8990 1.0000 .1182 342.9982 1.8508 356.0204 544.1787 .0000 .0000 .0000 .0000            BEDDING 2.0000
  242.0272 7.9203 313.9919 1.0000 .1627 34.7601 7.9480 315.1420 526.0706 .0000 .0000 .0000 .0000            BEDDING 2.0000
  242.3857 1.7285 215.8213 1.0000 .3120 60.5438 1.4510 210.6625 524.7801 .0000 .0000 .0000 .0000            BEDDING 2.0000
  242.6649 5.1773 185.0128 1.0000 .2435 71.1230 5.0835 182.5094 524.0757 .0000 .0000 .0000 .0000            BEDDING 2.0000
  242.9885 4.1214 22.5941 1.0000 .2288 76.0633 4.2615 25.0619 544.9159 .0000 .0000 .0000 .0000            BEDDING 2.0000
  243.2804 .9547 238.4367 1.0000 .2918 87.0391 .7124 227.1293 534.4548 .0000 .0000 .0000 .0000            BEDDING 2.0000
  243.5173 4.2948 204.6862 1.0000 .1908 111.2204 4.2875 202.1451 532.5332 .0000 .0000 .0000 .0000            BEDDING 2.0000
  243.8821 6.9985 204.9939 1.0000 .1127 165.4368 7.0857 204.4164 536.5818 .0000 .0000 .0000 .0000            BEDDING 2.0000
  244.2427 9.1817 193.7795 1.0000 .0934 178.3986 9.2717 193.6277 531.7377 .0000 .0000 .0000 .0000            BEDDING 2.0000
  244.5959 8.6070 203.8486 1.0000 .0757 196.8837 8.6821 203.7885 528.7739 .0000 .0000 .0000 .0000            BEDDING 2.0000
  244.9123 9.1387 206.8775 1.0000 .0498 224.7876 9.1861 206.9723 547.5941 .0000 .0000 .0000 .0000            RESISTIVE_NODULAR_EVENT 13.0000
  244.9523 8.5429 212.7365 1.0000 .0876 232.7092 8.6252 212.9338 528.6503 .0000 .0000 .0000 .0000            RESISTIVE_NODULAR_EVENT 13.0000
  245.3108 9.9839 206.1284 1.0000 .0987 292.4521 9.9907 206.6877 532.1893 .0000 .0000 .0000 .0000            BEDDING 2.0000
  245.5393 10.6755 222.9691 1.0000 .1521 292.6979 10.7291 223.7224 530.7180 .0000 .0000 .0000 .0000            BEDDING 2.0000
  245.8470 3.4657 263.3303 1.0000 .2121 304.9381 3.6270 265.5529 525.7509 .0000 .0000 .0000 .0000            BEDDING 2.0000
  246.1590 4.8673 280.4253 1.0000 .2457 337.3228 5.0058 282.7760 535.5261 .0000 .0000 .0000 .0000            BEDDING 2.0000
  246.4054 4.2553 263.1789 1.0000 .2812 344.7772 4.3054 266.8770 530.3069 .0000 .0000 .0000 .0000            BEDDING 2.0000
  246.7438 6.6331 232.1409 1.0000 .2574 359.4696 6.4802 233.9432 528.2905 .0000 .0000 .0000 .0000            BEDDING 2.0000
  247.0124 5.5653 38.9877 1.0000 .2379 15.3069 5.7840 38.0442 526.0432 .0000 .0000 .0000 .0000            BEDDING 2.0000
  247.3402 4.9712 55.5670 1.0000 .1510 17.0370 5.0901 54.5110 523.1771 .0000 .0000 .0000 .0000            BEDDING 2.0000
  247.8658 5.7303 28.0871 1.0000 .0602 1.7207 5.7842 27.8233 526.0934 .0000 .0000 .0000 .0000            BEDDING 2.0000
  248.2064 2.1690 48.2650 1.0000 .0351 290.9093 2.1532 47.4366 526.5014 .0000 .0000 .0000 .0000            BEDDING 2.0000
  248.7034 3.5710 275.3943 1.0000 .0714 286.5930 3.6410 275.6121 537.6738 .0000 .0000 .0000 .0000            BEDDING 2.0000
  248.9379 1.8326 84.9184 1.0000 .0461 295.0405 1.7929 84.1791 544.1931 .0000 .0000 .0000 .0000            BEDDING 2.0000
  249.0884 5.7531 46.5615 1.0000 .0648 75.4641 5.8099 46.8693 530.3708 .0000 .0000 .0000 .0000            BEDDING 2.0000
  249.2840 10.3983 90.0765 1.0000 .0946 114.0240 10.4848 90.2839 543.1235 .0000 .0000 .0000 .0000            BEDDING 2.0000
  249.4319 10.7361 85.9220 1.0000 .0760 153.2153 10.7657 86.2910 548.9633 .0000 .0000 .0000 .0000            BEDDING 2.0000
  249.6721 4.9828 52.8016 1.0000 .1375 152.0821 4.9625 54.3647 541.1631 .0000 .0000 .0000 .0000            BEDDING 2.0000
  249.9259 3.6166 48.2620 1.0000 .0953 228.1529 3.5213 48.2650 540.4528 .0000 .0000 .0000 .0000            BEDDING 2.0000
  250.3246 3.5833 47.9128 1.0000 .1411 282.7688 3.5040 46.0284 541.5999 .0000 .0000 .0000 .0000            BEDDING 2.0000
  250.7709 5.0241 89.0610 1.0000 .1316 287.3003 4.8993 88.5804 543.6838 .0000 .0000 .0000 .0000            BEDDING 2.0000
  251.2436 6.2161 75.5205 1.0000 .0213 4.6293 6.2231 75.3357 550.6956 .0000 .0000 .0000 .0000            BEDDING 2.0000
  251.5884 4.1739 48.2650 1.0000 .0518 138.9235 4.1736 48.9755 547.0419 .0000 .0000 .0000 .0000            BEDDING 2.0000
  251.8908 2.7270 166.0456 1.0000 .1540 127.1304 2.8484 164.1010 534.4915 .0000 .0000 .0000 .0000            BEDDING 2.0000
  252.2218 2.6258 156.9285 1.0000 .2036 146.0693 2.8260 156.1514 538.7127 .0000 .0000 .0000 .0000            BEDDING 2.0000
  252.6396 4.6653 169.5206 1.0000 .1928 146.8515 4.8438 168.6435 549.7986 .0000 .0000 .0000 .0000            BEDDING 2.0000
  252.9335 1.8699 164.6060 1.0000 .2210 181.4974 2.0824 166.3722 548.3850 .0000 .0000 .0000 .0000            BEDDING 2.0000
  253.4063 1.9831 166.9407 1.0000 .1606 195.2187 2.1259 168.9902 543.8121 .0000 .0000 .0000 .0000            BEDDING 2.0000
  253.7690 3.4917 147.1083 1.0000 .1399 225.7774 3.5219 149.3375 540.3221 .0000 .0000 .0000 .0000            BEDDING 2.0000
  254.0968 1.3557 148.9809 1.0000 .0692 195.8576 1.4038 151.0410 542.3572 .0000 .0000 .0000 .0000            BEDDING 2.0000
  254.4818 4.0896 163.1381 1.0000 .0938 155.3954 4.1826 162.9653 545.8745 .0000 .0000 .0000 .0000            BEDDING 2.0000
  254.9355 2.0125 173.6556 1.0000 .1077 126.3599 2.0870 171.4827 547.1804 .0000 .0000 .0000 .0000            BEDDING 2.0000
  255.2988 1.7593 177.5411 1.0000 .0962 101.9902 1.7857 174.5510 544.1823 .0000 .0000 .0000 .0000            BEDDING 2.0000
  255.5213 4.9444 237.7464 1.0000 .0687 87.2984 4.8848 237.3502 545.2764 .0000 .0000 .0000 .0000            BEDDING 2.0000
