~Version
 VERS              .         3.0                           : CWLS LOG ASCII STANDARD - VERSION 3.0
 WRAP              .         NO                            : ONE LINE PER DEPTH STEP
 DLM               .         SPACE                         : DELIMITING CHARACTER(SPACE TAB OR COMMA)
~Well Information
#_______________________________________________________________________________
#
#PARAMETER_NAME    .UNIT     VALUE                         : DESCRIPTION
#_______________________________________________________________________________
STRT               .m        92.2036                       : First reference value
STOP               .m        218.5203                      : Last reference value
STEP               .m        0                             : Step increment
NULL               .         -9999                         : Missing value
COMP               .         SUNCOR ENERGY INC.            : Company
WELL               .         SUNCOR LEWIS 3-8-92-7         : Well name
FLD                .         LEWIS                         : Field
LOC                .                                       : Location
SRVC               .         Weatherford                   : Service Company
CTRY               .         CA                            : Country
PROV               .         ALBERTA                       : Province
UWI                .         1AA030809207W400              : UNIQUE WELL ID
LIC                .         0486896                       : License number
DATE               .         25-Jan-2018                   : Service Date
LATI               .         56.960838 N                   : Latitude
LONG               .         111.095591 W                  : Longitude
GDAT               .                                       : Geodetic Datum
APD                .m        1.20                          : 
BHT                .degC     9                             : Bottom Hole Temperature
BLI                .m        220.00                        : First Reading
BS                 .mm       159.00                        : 
CBDR               .m        88.30                         : Casing Driller Depth
CBLO               .m        88.30                         : Casing Logger Depth
COUNTRY            .         Canada                        : State / Country
DFD                .kg/m3    1050.0                        : Drill Fluid Density
DFT                .         POLYMER                       : 
EGL                .m        477.4                         : Ground Level Elevation
EKB                .m        478.6                         : Kelly Bushing Elevation
EPD                .m        0                             : Elevation Above Permanent Datum
LMF                .         KB                            : Log Measured From
LUL                .         LLD                           : Equipment Base Location
LUN                .         14265                         : Equipment Number
MRT                .degC     9                             : Max Recorded Temperature
MST                .degC     9.8                           : Measured Temperature
ORIGINALWELLNAME   .         SUNCOR LEWIS 3-8-92-7         : 
PDAT               .         GROUND                        : Permanent Datum
PRODUCER-CODE      .         126                           : 
PRODUCER-NAME      .         Weatherford                   : 
RMB                .ohm.m    4.65                          : Resistivity at Bottom Hole Temperature
RMS                .ohm.m    4.45                          : Mud Resistivity at Measured Temperature
TDD                .m        230.00                        : Depth Driller
TDL                .m        230.10                        : Depth Logger
TLI                .m        91.50                         : Last Reading
~Parameter Information Block
#_______________________________________________________________________________
#
#PARAMETER_NAME    .UNIT     VALUE                         : DESCRIPTION
#_______________________________________________________________________________
SET                .         Dip                           : 
TLFamily_AvgCali   .         Caliper                       : 
TLFamily_Azimuth   .         True Dip Azimuth              : 
TLFamily_CMI_DYN_Azimuth .         Apparent Dip Azimuth          : 
TLFamily_CMI_DYN_DipHeight .         Height Of Dip Plane           : 
TLFamily_CMI_DYN_Dip_APP .         Apparent Dip Inclination      : 
TLFamily_DEPTH     .         Measured Depth                : 
TLFamily_Dip_TRU   .         True Dip Inclination          : 
TLFamily_HAzi      .         Hole Azimuth                  : 
TLFamily_HDev      .         Hole Deviation                : 
TLFamily_Quality   .         Dip Quality                   : 
TLFamily_Type      .         Dip Classification            : 
~Curve Information
#_______________________________________________________________________________
#
#LOGNAME           .UNIT     LOG_ID                        : DESCRIPTION
#_______________________________________________________________________________
DEPTH              .m                                      :  {F}
AvgCali            .in                                     :  {F}
Azimuth            .dega                                   :  {F}
CMI_DYN_Azimuth    .dega                                   :  {F}
CMI_DYN_Dip_APP    .dega                                   :  {F}
CMI_DYN_DipHeight  .m                                      :  {F}
Dip_TRU            .dega                                   :  {F}
HAzi               .deg                                    :  {F}
HDev               .deg                                    :  {F}
Quality            .                                       :  {F}
Type               .                                       :  {S}
~Ascii
# ...
128.1924   6.3818     21.5767    23.7097    7.5955     0.0233     7.8313     151.8117   0.3729     1          Bedding   
128.6005   6.3055     28.3392    33.7239    2.5755     0.0078     2.8659     169.5048   0.3871     1          Bedding   
128.8958   6.5003     25.9427    29.7183    4.9907     0.0155     5.0821     133.1891   0.345      1          Bedding   
129.3038   6.4996     356.0881   359.6755   4.9911     0.0155     5.3382     134.8929   0.4746     1          Bedding   
129.9722   6.3951     12.9445    17.7012    5.0664     0.0155     5.4565     146.9881   0.5862     1          Bedding   
130.4891   6.4396     4.4019     9.6897     2.5258     0.0078     2.9119     154.0071   0.4601     1          Bedding   
131.2002   6.5072     42.5585    47.7441    4.9955     0.0156     4.9551     129.9883   0.453      1          Bedding   
131.8648   6.4532     231.0414   230.0034   21.6127    0.07       21.681     131.117    0.4176     1          "Resistive Nodular Event"
132.2339   6.7179     60.988     71.7783    2.4285     0.0078     2.3876     151.239    0.4549     1          Bedding   
133.1588   6.7876     40.6913    47.7441    4.8042     0.0156     5.0374     155.206    0.6497     1          Bedding   
133.8855   6.7146     6.595      7.687      7.2489     0.0233     7.7904     172.1984   0.5602     1          Bedding   
134.2586   6.5895     23.0033    29.7183    2.4628     0.0077     2.8695     168.7764   0.5124     1          Bedding   
134.8221   6.5932     56.7796    63.7666    4.9256     0.0155     4.9959     156.9324   0.6099     1          Bedding   
135.3506   6.3077     142.7414   145.8837   5.1411     0.0156     4.3284     162.0954   0.8531     1          Bedding   
135.8247   6.2885     114.4633   129.8608   2.5819     0.0078     1.9997     168.9482   0.8426     1          Bedding   
136.1589   6.3845     39.817     55.7554    2.546      0.0078     2.9032     162.8926   0.8349     1          Bedding   
136.7263   6.5194     89.9802    103.8237   2.4971     0.0078     2.1501     155.3622   0.6577     1          Bedding   
137.0488   6.2784     196.6484   195.6984   22.1118    0.07       21.4922    165.0244   0.7335     1          "Resistive Nodular Event"
137.1304   6.2574     14.2111    15.6982    12.7612    0.0389     13.3708    165.3784   0.7004     1          "Resistive Nodular Event"
137.8221   6.5856     10.8935    15.6982    4.9309     0.0155     5.3808     149.3436   0.6244     1          Bedding   
138.5916   6.364      16.6583    19.9607    5.0992     0.0156     5.3562     148.6883   0.3967     1          Bedding   
139.567    6.4947     13.5756    21.9636    2.5157     0.0078     2.7916     143.0481   0.4764     1          Bedding   
140.0722   6.4329     14.8208    23.9664    2.5283     0.0078     2.7773     139.7813   0.4907     1          Bedding   
140.5035   6.6261     4.4718     11.9495    2.4598     0.0078     2.8127     143.8765   0.4923     1          Bedding   
141.3196   6.4495     5.0852     5.9408     7.5224     0.0233     8.0955     173.9315   0.585      1          Bedding   
142.3611   6.1791     332.5496   1.9352     0.0081     0          0.5744     152.1478   0.5674     1          Bedding   
142.602    6.2876     353.154    359.9323   2.5823     0.0078     3.1501     145.6475   0.6605     1          Bedding   
143.2199   6.4315     120.3025   123.8523   5.0441     0.0155     4.2798     142.8463   0.8167     1          Bedding   
143.6396   6.4461     68.0237    81.7925    2.5234     0.0078     2.5122     163.8741   0.6037     1          Bedding   
144.0787   6.4949     108.6235   119.8466   2.496      0.0077     2.2395     175.4103   0.5289     1          Bedding   
145.3961   6.2457     99.1344    109.8323   2.5881     0.0077     2.0483     143.3013   0.6899     1          Bedding   
147.2109   6.2924     341.1457   279.8181   0.0123     0          0.5743     162.2333   0.5685     1          Bedding   
147.8327   6.2941     289.3285   285.8268   5.1413     0.0155     5.5751     144.7496   0.5435     1          Bedding   
148.8975   6.2635     277.1787   263.7953   2.5915     0.0078     2.917      153.7711   0.7192     1          Bedding   
149.562    6.2302     48.4305    53.7524    5.2043     0.0156     5.4561     167.9665   0.5565     1          Bedding   
149.8846   6.263      42.7517    45.7412    7.7273     0.0233     7.9714     164.8736   0.4789     1          Bedding   
150.2537   6.2859     34.8065    39.7324    5.1475     0.0155     5.4415     160.0377   0.5427     1          Bedding   
150.8755   6.0983     39.2833    45.7412    5.3034     0.0156     5.6009     158.2265   0.6843     1          Bedding   
151.3108   6.094      31.6339    43.7383    2.6684     0.0078     3.0842     161.92     0.7337     1          Bedding   
151.7577   5.9817     194.6115   193.952    31.5374    0.101      30.998     157.7969   0.6731     1          "Scour Surface"
152.4409   5.9619     40.4206    45.7412    5.4146     0.0156     5.6586     158.3714   0.5707     1          Bedding   
153.1404   6.0634     75.3939    87.801     2.6704     0.0078     2.4981     154.5406   0.5845     1          Bedding   
153.9837   6.1608     10.6157    17.7012    2.6314     0.0078     3.0797     155.8481   0.5704     1          Bedding   
154.4384   6.2533     350.3557   351.6641   7.7383     0.0233     8.3        152.7457   0.5917     1          Bedding   
155.2933   6.191      56.0491    67.7725    2.6195     0.0078     2.6463     154.7438   0.5388     1          Bedding   
156.3037   6.2068     35.7899    47.7441    2.6134     0.0078     2.8577     154.8507   0.6198     1          Bedding   
156.6729   6.1952     41.8693    47.744     5.2169     0.0155     5.4539     158.2045   0.5976     1          Bedding   
156.9604   6.2169     52.4668    65.7695    2.5992     0.0077     2.6957     157.9938   0.6212     1          Bedding   
157.52     6.1291     328.6532   327.8867   5.2789     0.0156     5.8481     155.7605   0.5742     1          Bedding   
157.8776   6.2011     62.8162    65.7695    10.346     0.0311     10.391     158.9881   0.5422     1          Bedding   
158.2895   6.1365     355.7997   359.6755   2.641      0.0078     3.1578     156.8822   0.5524     1          "Scour Surface"
158.4177   6.1809     239.4018   227.7441   2.6279     0.0078     2.4568     161.8027   0.544      1          "Lateral Accretion"
159.1716   6.3341     53.8256    65.7695    2.5647     0.0078     2.6461     158.2373   0.5488     1          "Lateral Accretion"
159.7157   6.2498     34.3047    43.7383    2.5967     0.0078     2.8766     160.7783   0.5298     1          "Lateral Accretion"
160.0421   6.3201     338.6338   205.7126   0.0022     0          0.5581     158.7953   0.5596     1          "Lateral Accretion"
160.5823   6.0493     74.3661    79.7896    5.3368     0.0155     5.334      166.7642   0.5063     1          "Lateral Accretion"
161.0447   6.11       70.4214    81.7925    2.6516     0.0078     2.5906     159.4106   0.5234     1          "Lateral Accretion"
161.4256   6.2438     29.3603    37.7297    2.599      0.0078     2.9762     166.2824   0.5544     1          "Lateral Accretion"
161.7986   6.142      105.8414   115.8409   2.6226     0.0077     2.2615     160.6234   0.5575     1          "Lateral Accretion"
162.2883   6.1821     351.1463   351.9209   5.2271     0.0155     5.7827     163.9101   0.5606     1          "Lateral Accretion"
162.7857   6.1868     349.6303   351.9209   2.6109     0.0077     3.1225     158.1409   0.5242     1          "Lateral Accretion"
163.2326   6.1676     340.2076   337.9009   0.0125     0          0.528      160.2637   0.5155     1          "Lateral Accretion"
163.7067   6.1829     52.426     57.7583    5.2367     0.0156     5.3911     162.3768   0.5192     1          "Lateral Accretion"
164.0642   6.2298     37.4341    41.7354    5.2003     0.0156     5.4601     162.4855   0.4778     1          "Lateral Accretion"
164.2974   6.2223     343.2577   45.7412    0.0022     0          0.4894     163.0303   0.4884     1          "Lateral Accretion"
