~VERSION INFORMATION
VERS.                                                 2.0:   CWLS Log ASCII Standard-VERSION 2.0
WRAP.                                                  NO:   One line per depth step
~Well Information Block
STRT.M                                           113.1921:   Top Depth
STOP.M                                           369.8200:   Bottom Depth
STEP.M                                             .00000:   Depth Increment
NULL.                                            -999.250:   Null Value
FLD .                                           UNDEFINED:   Field Name
WELL.                             SUNCOR FIREBAG 4-7-93-4:   NAME
UWI .                                    1AA040709304W400:   UWI
LIC .                                             0492309:   LICENSE NUMBER
BS1 .MM                                               251:   BIT SIZE 1
BS2 .MM                                               159:   BIT SIZE 2
CTRY.                                              Canada:   COUNTRY
CS1 .MM                                             177.8:   CSG 1 SIZE
CW1 .KG/M                                            25.3:   CSG 1 WT
DMF .                                                  KB:   DRILL MEAS FROM
EPD .M                                                  0:   ELEV PERM DATUM
EGL .M                                              652.3:   GROUND LEVEL
EKB .M                                              656.5:   KB ELEVATION
SRVC.                                         Weatherford:   LOGGING CONTRACTOR
LMF .                                                  KB:   LOGS MEAS FROM
COMP.                                  SUNCOR ENERGY INC.:   OPERATOR
PDAT.                                              GROUND:   PERM DATUM
PROV.                                             ALBERTA:   PROVINCE
DATE.                                          2019/03/01:   RUN DATE
BSD1.M                                                  0:   TD 1 DRILLER
BSD2.M                                              109.7:   TD 2 DRILLER
~PARAMETER INFORMATION (log)
LNAM.                                              MAIN.3:   NAME
LTYP.                                                CORR:   LOG TYPE
LVSN.                                                   1:   LOG VERSION
BHIS.                                                   T:   BRIEF HISTORY
FHIS.                                          TRANSCRIPT:   FULL HISTORY
~Curve Information Block
#MNEM.UNIT                                        API CODE    No Description
#=========                                        ========    == ===========
DEPT.M                                       00 001 00 00:     1  DEPTH
DPTR.DEG                                               01:     2  Computed Dip Magnitude
DPAZ.DEG                                               01:     3  Computed Dip Azimuth
ICCO.                                                  01:     4  Computed Dip Quality
DEVI.DEG                                               01:     5  Deviation
HAZI.DEG                                               01:     6  Hole Azimuth
ADIP.DEG                                               01:     7  Apparent Dip
AAZI.DEG                                               01:     8  Apparent Azimuth
TRALEN.MM                                              01:     9  Trace length of pick
WIDTH.DEG                                              01:    10  Width of pick
HEIGHT.MM                                              01:    11  Height of pick
LEFT.DEG                                               01:    12  Partial pick: Left end of pick in deg
RIGHT.DEG                                              01:    13  Partial pick: Right end of pick in deg
DIPTYPE.TEXT                                           01:    14  DIP TYPE
DIPCODE.                                               01:    15  DIP CODE
~ASCII
# ...
  337.4199 29.0853 326.3759 1.0000 .2899 340.1156 29.3671 326.4984 367.0232 .0000 .0000 211.0000 74.0000            CROSS_BEDDING 5.0000
  337.4415 5.5125 256.0716 1.0000 .2899 340.1156 5.5501 259.0408 545.3308 .0000 .0000 .0000 .0000            SCOUR_SURFACE 7.0000
  337.5003 25.2602 312.0870 1.0000 .2653 334.8951 25.5049 312.3028 572.5783 .0000 .0000 .0000 .0000            CROSS_BEDDING 5.0000
  337.5532 1.6460 133.9168 1.0000 .2472 332.9968 1.4147 130.6428 543.9334 .0000 .0000 .0000 .0000            SCOUR_SURFACE 7.0000
  337.5986 10.1395 328.0864 1.0000 .2472 332.9968 10.3858 328.2019 548.1904 .0000 .0000 .0000 .0000            SCOUR_SURFACE 7.0000
  337.6558 24.7209 308.7786 1.0000 .2235 322.8885 24.9378 308.8959 571.0488 .0000 .0000 .0000 .0000            CROSS_BEDDING 5.0000
  337.7139 25.8680 304.2069 1.0000 .2235 322.8885 26.0798 304.3533 573.9919 .0000 .0000 .0000 .0000            CROSS_BEDDING 5.0000
  337.7731 5.8605 141.4270 1.0000 .2930 333.0925 5.5739 140.8202 546.1458 .0000 .0000 .0000 .0000            SCOUR_SURFACE 7.0000
  337.7935 34.2190 305.2100 1.0000 .2930 333.0925 34.4781 305.4099 224.9540 .0000 .0000 55.0000 192.0000            CROSS_BEDDING 5.0000
  337.8398 2.3915 154.6434 1.0000 .2930 333.0925 2.0987 154.8598 544.9380 .0000 .0000 .0000 .0000            SCOUR_SURFACE 7.0000
  337.8949 28.1072 309.7984 1.0000 .2837 336.0966 28.3618 310.0315 421.7161 .0000 .0000 179.0000 77.0000            CROSS_BEDDING 5.0000
  337.9921 6.6246 128.0808 1.0000 .2995 340.9946 6.3753 126.6246 537.0521 .0000 .0000 .0000 .0000            SCOUR_SURFACE 7.0000
  338.0724 25.7558 315.4615 1.0000 .2749 341.5693 26.0029 315.7098 561.2599 .0000 .0000 .0000 .0000            CROSS_BEDDING 5.0000
  338.1390 6.6848 144.3808 1.0000 .2749 341.5693 6.4227 143.6593 533.0917 .0000 .0000 .0000 .0000            SCOUR_SURFACE 7.0000
  338.2755 6.9326 321.6262 1.0000 .2788 345.5707 7.1883 322.5237 528.8093 .0000 .0000 .0000 .0000            BEDDING 2.0000
  338.5092 1.8694 345.0301 1.0000 .3139 346.4668 2.1833 345.2366 523.2740 .0000 .0000 .0000 .0000            SCOUR_SURFACE 7.0000
  338.5938 28.8910 324.0294 1.0000 .3391 343.0339 29.2118 324.2271 561.0676 .0000 .0000 .0000 .0000            CROSS_BEDDING 5.0000
  338.6541 26.0466 320.5961 1.0000 .3173 341.0369 26.3441 320.8202 553.6238 .0000 .0000 .0000 .0000            CROSS_BEDDING 5.0000
  338.7196 1.8649 336.6498 1.0000 .3173 341.0369 2.1814 337.2870 523.4605 .0000 .0000 .0000 .0000            SCOUR_SURFACE 7.0000
  338.7767 5.0068 263.1534 1.0000 .3315 346.4442 5.0562 266.8770 526.7201 .0000 .0000 .0000 .0000            BEDDING 2.0000
  338.9904 5.8868 95.1227 1.0000 .2825 342.0406 5.7819 92.5552 526.3825 .0000 .0000 .0000 .0000            SCOUR_SURFACE 7.0000
  339.0506 16.6799 302.0518 1.0000 .2978 335.4227 16.9293 302.5903 537.9196 .0000 .0000 .0000 .0000            SCOUR_SURFACE 7.0000
  339.1247 32.1011 279.5461 1.0000 .2978 335.4227 32.2690 279.9369 575.1657 .0000 .0000 .0000 .0000            CROSS_BEDDING 5.0000
  339.1934 28.2869 283.4578 1.0000 .2738 347.1288 28.4093 283.9117 565.0079 .0000 .0000 .0000 .0000            CROSS_BEDDING 5.0000
  339.2770 26.6865 283.9893 1.0000 .2840 344.7300 26.8263 284.4795 571.6296 .0000 .0000 .0000 .0000            CROSS_BEDDING 5.0000
  339.3404 4.5149 158.8179 1.0000 .2840 344.7300 4.2326 158.4227 539.5561 .0000 .0000 .0000 .0000            SCOUR_SURFACE 7.0000
  339.4271 3.0843 155.6539 1.0000 .2782 336.3633 2.8061 155.5836 542.6501 .0000 .0000 .0000 .0000            SCOUR_SURFACE 7.0000
  339.4948 28.1271 301.0981 1.0000 .2787 354.5264 28.2940 301.5142 580.4580 .0000 .0000 .0000 .0000            CROSS_BEDDING 5.0000
  339.5530 27.6015 295.9514 1.0000 .3014 335.5758 27.8343 296.3159 578.1328 .0000 .0000 .0000 .0000            CROSS_BEDDING 5.0000
  339.6037 4.5042 160.3526 1.0000 .3014 335.5758 4.2039 160.6940 543.2418 .0000 .0000 .0000 .0000            SCOUR_SURFACE 7.0000
  339.6337 25.3063 295.4288 1.0000 .3014 335.5758 25.5374 295.8359 325.6383 .0000 .0000 202.0000 45.0000            CROSS_BEDDING 5.0000
  339.6534 27.3261 290.3118 1.0000 .2727 342.4047 27.4944 290.7256 311.3300 .0000 .0000 22.0000 214.0000            CROSS_BEDDING 5.0000
  339.7158 5.1601 158.6325 1.0000 .2727 342.4047 4.8880 158.4227 545.0104 .0000 .0000 .0000 .0000            SCOUR_SURFACE 7.0000
  339.7501 28.0895 290.8959 1.0000 .2842 334.1216 28.2973 291.2578 309.5512 .0000 .0000 197.0000 27.0000            CROSS_BEDDING 5.0000
  339.8311 5.8552 164.7022 1.0000 .2842 334.1216 5.5761 165.2366 545.9277 .0000 .0000 .0000 .0000            SCOUR_SURFACE 7.0000
  339.8695 26.6422 328.7051 1.0000 .2789 335.4490 26.9192 328.7697 447.4234 .0000 .0000 16.0000 291.0000            CROSS_BEDDING 5.0000
  339.9231 7.9119 174.7706 1.0000 .2789 335.4490 7.6493 175.4574 546.8688 .0000 .0000 .0000 .0000            SCOUR_SURFACE 7.0000
  339.9675 6.5628 164.2994 1.0000 .2312 334.0824 6.3353 164.6688 540.4332 .0000 .0000 .0000 .0000            SCOUR_SURFACE 7.0000
  339.9938 27.7358 308.1372 1.0000 .2312 334.0824 27.9439 308.3281 280.3190 .0000 .0000 229.0000 44.0000            CROSS_BEDDING 5.0000
  340.0267 9.3404 161.0861 1.0000 .2312 334.0824 9.1109 161.2618 542.3004 .0000 .0000 .0000 .0000            SCOUR_SURFACE 7.0000
  340.3091 6.7809 173.3939 1.0000 .2302 330.1135 6.5701 174.1836 523.6348 .0000 .0000 .0000 .0000            BEDDING 2.0000
  340.6517 3.8410 174.2207 1.0000 .2031 331.3278 3.6548 175.4574 520.7241 .0000 .0000 .0000 .0000            BEDDING 2.0000
  340.7882 31.3035 324.1878 1.0000 .2191 330.5008 31.5213 324.2271 565.6992 .0000 .0000 .0000 .0000            CROSS_BEDDING 5.0000
  340.8347 32.8762 317.9077 1.0000 .2191 330.5008 33.0900 317.9811 571.2511 .0000 .0000 .0000 .0000            CROSS_BEDDING 5.0000
  340.9119 25.6855 307.6393 1.0000 .2104 323.8213 25.8876 307.7603 549.4977 .0000 .0000 .0000 .0000            CROSS_BEDDING 5.0000
  340.9595 2.3839 168.1039 1.0000 .2065 323.4771 2.1978 170.3470 519.6389 .0000 .0000 .0000 .0000            SCOUR_SURFACE 7.0000
  341.2027 6.7869 185.5396 1.0000 .2607 331.2621 6.5731 186.8139 520.5826 .0000 .0000 .0000 .0000            BEDDING 2.0000
  341.4914 3.8510 196.3613 1.0000 .2691 331.9061 3.6638 199.3060 519.4485 .0000 .0000 .0000 .0000            BEDDING 2.0000
  341.6334 3.1602 176.9455 1.0000 .2704 334.6855 2.9118 178.9592 544.4713 .0000 .0000 .0000 .0000            BEDDING 2.0000
  341.8669 3.1424 168.4721 1.0000 .2527 335.6438 2.8966 169.5807 521.4236 .0000 .0000 .0000 .0000            BEDDING 2.0000
  342.1979 5.3407 181.2105 1.0000 .2962 331.9228 5.0844 182.8391 523.9249 .0000 .0000 .0000 .0000            BEDDING 2.0000
  342.3810 4.5488 181.4276 1.0000 .2644 327.6768 4.3314 183.3674 544.9217 .0000 .0000 .0000 .0000            BEDDING 2.0000
  342.6304 3.8403 183.0135 1.0000 .2642 331.9581 3.6166 185.1701 522.4848 .0000 .0000 .0000 .0000            BEDDING 2.0000
  342.9312 4.6686 158.7618 1.0000 .3065 344.1052 4.3635 158.3877 544.9680 .0000 .0000 .0000 .0000            BEDDING 2.0000
  343.1232 2.4656 171.3970 1.0000 .2850 332.9041 2.1971 173.7539 519.8245 .0000 .0000 .0000 .0000            BEDDING 2.0000
  343.4066 1.7153 176.3740 1.0000 .2759 336.8446 1.4582 180.0000 522.1906 .0000 .0000 .0000 .0000            BEDDING 2.0000
  343.6636 3.8353 175.7924 1.0000 .2147 331.8730 3.6401 177.1609 525.1591 .0000 .0000 .0000 .0000            BEDDING 2.0000
  343.7947 6.0471 132.8818 1.0000 .2332 327.5449 5.8218 132.3028 522.8309 .0000 .0000 .0000 .0000            DISCONTINUITY_BOUND 4.0000
  343.8910 34.3639 308.8282 1.0000 .2228 320.9117 34.5818 308.8959 577.4329 .0000 .0000 .0000 .0000            CROSS_BEDDING 5.0000
  344.0136 36.2780 309.3667 1.0000 .1898 331.5142 36.4539 309.4637 586.8083 .0000 .0000 .0000 .0000            CROSS_BEDDING 5.0000
  344.0602 35.2593 306.5102 1.0000 .2283 327.4089 35.4726 306.6246 582.9891 .0000 .0000 .0000 .0000            CROSS_BEDDING 5.0000
  344.1183 7.0450 301.8763 1.0000 .2283 327.4089 7.2516 302.6498 524.2054 .0000 .0000 .0000 .0000            SCOUR_SURFACE 7.0000
