~VERSION INFORMATION
VERS.                                                 2.0:   CWLS Log ASCII Standard-VERSION 2.0
WRAP.                                                  NO:   One line per depth step
~Well Information Block
STRT.M                                           113.1921:   Top Depth
STOP.M                                           369.8200:   Bottom Depth
STEP.M                                             .00000:   Depth Increment
NULL.                                            -999.250:   Null Value
FLD .                                           UNDEFINED:   Field Name
WELL.                             SUNCOR FIREBAG 4-7-93-4:   NAME
UWI .                                    1AA040709304W400:   UWI
LIC .                                             0492309:   LICENSE NUMBER
BS1 .MM                                               251:   BIT SIZE 1
BS2 .MM                                               159:   BIT SIZE 2
CTRY.                                              Canada:   COUNTRY
CS1 .MM                                             177.8:   CSG 1 SIZE
CW1 .KG/M                                            25.3:   CSG 1 WT
DMF .                                                  KB:   DRILL MEAS FROM
EPD .M                                                  0:   ELEV PERM DATUM
EGL .M                                              652.3:   GROUND LEVEL
EKB .M                                              656.5:   KB ELEVATION
SRVC.                                         Weatherford:   LOGGING CONTRACTOR
LMF .                                                  KB:   LOGS MEAS FROM
COMP.                                  SUNCOR ENERGY INC.:   OPERATOR
PDAT.                                              GROUND:   PERM DATUM
PROV.                                             ALBERTA:   PROVINCE
DATE.                                          2019/03/01:   RUN DATE
BSD1.M                                                  0:   TD 1 DRILLER
BSD2.M                                              109.7:   TD 2 DRILLER
~PARAMETER INFORMATION (log)
LNAM.                                              MAIN.3:   NAME
LTYP.                                                CORR:   LOG TYPE
LVSN.                                                   1:   LOG VERSION
BHIS.                                                   T:   BRIEF HISTORY
FHIS.                                          TRANSCRIPT:   FULL HISTORY
~Curve Information Block
#MNEM.UNIT                                        API CODE    No Description
#=========                                        ========    == ===========
DEPT.M                                       00 001 00 00:     1  DEPTH
DPTR.DEG                                               01:     2  Computed Dip Magnitude
DPAZ.DEG                                               01:     3  Computed Dip Azimuth
ICCO.                                                  01:     4  Computed Dip Quality
DEVI.DEG                                               01:     5  Deviation
HAZI.DEG                                               01:     6  Hole Azimuth
ADIP.DEG                                               01:     7  Apparent Dip
AAZI.DEG                                               01:     8  Apparent Azimuth
TRALEN.MM                                              01:     9  Trace length of pick
WIDTH.DEG                                              01:    10  Width of pick
HEIGHT.MM                                              01:    11  Height of pick
LEFT.DEG                                               01:    12  Partial pick: Left end of pick in deg
RIGHT.DEG                                              01:    13  Partial pick: Right end of pick in deg
DIPTYPE.TEXT                                           01:    14  DIP TYPE
DIPCODE.                                               01:    15  DIP CODE
~ASCII
# ...
  344.3415 6.8286 162.5801 1.0000 .2673 333.0320 6.5651 162.9653 519.4184 .0000 .0000 .0000 .0000            SCOUR_SURFACE 7.0000
  344.3886 40.0923 286.5216 1.0000 .2087 329.3324 40.2455 286.6893 306.7072 .0000 .0000 196.0000 18.0000            CROSS_BEDDING 5.0000
  344.4494 32.4475 283.6781 1.0000 .2087 329.3324 32.5937 283.9117 569.2433 .0000 .0000 .0000 .0000            CROSS_BEDDING 5.0000
  344.5026 31.2633 284.1818 1.0000 .2333 335.3097 31.4102 284.4795 331.0623 .0000 .0000 8.0000 215.0000            CROSS_BEDDING 5.0000
  344.5445 6.0440 151.2051 1.0000 .2333 335.3097 5.8112 151.0410 523.7834 .0000 .0000 .0000 .0000            SCOUR_SURFACE 7.0000
  344.7550 8.7695 186.1513 1.0000 .2231 339.5580 8.5706 186.8139 531.6522 .0000 .0000 .0000 .0000            SCOUR_SURFACE 7.0000
  344.7949 20.3579 300.7283 1.0000 .2231 339.5580 20.5322 301.1021 333.9746 .0000 .0000 213.0000 65.0000            CROSS_BEDDING 5.0000
  344.8893 12.2054 223.3690 1.0000 .2194 339.0331 12.1119 224.2902 532.5457 .0000 .0000 .0000 .0000            SCOUR_SURFACE 7.0000
  344.9961 11.9281 352.8287 1.0000 .1892 339.0268 12.1119 352.6183 529.2671 .0000 .0000 .0000 .0000            SCOUR_SURFACE 7.0000
  345.2795 21.4555 292.6342 1.0000 .2029 350.4052 21.5644 293.0685 541.4055 .0000 .0000 .0000 .0000            LATERAL_ACCRETION 6.0000
  345.4276 18.1414 291.3307 1.0000 .2151 345.8003 18.2672 291.8612 537.3165 .0000 .0000 .0000 .0000            LATERAL_ACCRETION 6.0000
  345.6687 17.5397 305.0725 1.0000 .2329 339.9233 17.7313 305.4890 532.4139 .0000 .0000 .0000 .0000            LATERAL_ACCRETION 6.0000
  345.8485 18.3436 308.3889 1.0000 .2569 349.7933 18.5371 308.8959 529.2564 .0000 .0000 .0000 .0000            LATERAL_ACCRETION 6.0000
  346.0071 18.4120 305.6100 1.0000 .2498 342.6181 18.6120 306.0568 527.0775 .0000 .0000 .0000 .0000            LATERAL_ACCRETION 6.0000
  346.2175 19.0913 306.2422 1.0000 .2143 344.8031 19.2593 306.6246 530.0532 .0000 .0000 .0000 .0000            LATERAL_ACCRETION 6.0000
  346.4312 21.4562 295.4068 1.0000 .2556 337.1582 21.6475 295.8360 538.7127 .0000 .0000 .0000 .0000            LATERAL_ACCRETION 6.0000
  346.5887 21.3666 296.4909 1.0000 .2544 344.6792 21.5370 296.9716 541.5806 .0000 .0000 .0000 .0000            LATERAL_ACCRETION 6.0000
  346.7724 7.0547 23.5841 1.0000 .2252 342.2051 7.2251 22.4096 546.1526 .0000 .0000 .0000 .0000            BEDDING 2.0000
  346.8214 17.5150 308.5042 1.0000 .2252 342.2051 17.7028 308.8959 533.2933 .0000 .0000 .0000 .0000            LATERAL_ACCRETION 6.0000
  347.0118 16.1960 289.6650 1.0000 .2133 332.3258 16.3535 290.1577 531.7610 .0000 .0000 .0000 .0000            LATERAL_ACCRETION 6.0000
  347.2455 11.9436 290.6526 1.0000 .2180 329.7546 12.1136 291.2934 532.2043 .0000 .0000 .0000 .0000            LATERAL_ACCRETION 6.0000
  347.4147 13.4575 287.8735 1.0000 .2120 329.4297 13.6169 288.4543 528.6434 .0000 .0000 .0000 .0000            LATERAL_ACCRETION 6.0000
  347.6262 15.4098 292.4733 1.0000 .2291 332.0606 15.5870 292.9968 533.9499 .0000 .0000 .0000 .0000            LATERAL_ACCRETION 6.0000
  347.8197 18.1505 283.3968 1.0000 .2186 334.4922 18.2886 283.9117 536.6589 .0000 .0000 .0000 .0000            LATERAL_ACCRETION 6.0000
  348.0080 16.9812 312.6852 1.0000 .1962 329.6590 17.1690 312.8707 528.1223 .0000 .0000 .0000 .0000            LATERAL_ACCRETION 6.0000
  348.1782 17.6977 303.4172 1.0000 .2009 339.5959 17.8602 303.7855 528.5567 .0000 .0000 .0000 .0000            LATERAL_ACCRETION 6.0000
  348.3665 18.2290 290.1611 1.0000 .2233 347.1194 18.3517 290.7256 537.6227 .0000 .0000 .0000 .0000            LATERAL_ACCRETION 6.0000
  348.5547 19.3859 295.4070 1.0000 .2049 343.3099 19.5239 295.8360 540.7556 .0000 .0000 .0000 .0000            LATERAL_ACCRETION 6.0000
  348.6943 14.6914 306.0516 1.0000 .2404 345.3192 14.8783 306.6246 534.2353 .0000 .0000 .0000 .0000            LATERAL_ACCRETION 6.0000
  348.8223 16.6980 298.0428 1.0000 .2687 343.5980 16.8873 298.6751 537.0586 .0000 .0000 .0000 .0000            LATERAL_ACCRETION 6.0000
  348.9439 14.6798 302.1827 1.0000 .2079 338.7334 14.8472 302.6498 535.8382 .0000 .0000 .0000 .0000            LATERAL_ACCRETION 6.0000
  349.0655 14.6792 301.4584 1.0000 .2370 345.6680 14.8500 302.0820 535.2859 .0000 .0000 .0000 .0000            LATERAL_ACCRETION 6.0000
  349.1935 18.0509 301.6410 1.0000 .2094 345.4570 18.2025 302.0820 539.2161 .0000 .0000 .0000 .0000            LATERAL_ACCRETION 6.0000
  349.4145 18.8821 308.6343 1.0000 .2110 333.9978 19.0730 308.8959 533.9078 .0000 .0000 .0000 .0000            LATERAL_ACCRETION 6.0000
  349.4983 26.8531 306.1517 1.0000 .1939 340.6595 27.0131 306.3673 577.7646 .0000 .0000 .0000 .0000            RESISTIVE_NODULAR_EVENT 13.0000
  349.5805 14.3233 263.8846 1.0000 .2092 326.2664 14.4215 264.6057 525.1973 .0000 .0000 .0000 .0000            RESISTIVE_NODULAR_EVENT 13.0000
  349.6702 8.8231 274.3681 1.0000 .2214 337.6941 8.9247 275.6284 527.8593 .0000 .0000 .0000 .0000            LATERAL_ACCRETION 6.0000
  349.8068 13.4455 275.1482 1.0000 .2099 343.9689 13.5227 275.9621 532.4520 .0000 .0000 .0000 .0000            LATERAL_ACCRETION 6.0000
  349.9411 9.8584 286.2281 1.0000 .2469 337.4513 10.0149 287.3186 530.7726 .0000 .0000 .0000 .0000            LATERAL_ACCRETION 6.0000
  350.1473 10.5359 281.4177 1.0000 .2889 343.7557 10.6731 282.7760 533.4459 .0000 .0000 .0000 .0000            LATERAL_ACCRETION 6.0000
  350.2859 14.6643 282.8578 1.0000 .3137 345.4699 14.8112 283.9117 536.7324 .0000 .0000 .0000 .0000            LATERAL_ACCRETION 6.0000
  350.5133 14.6107 288.4500 1.0000 .2346 328.5154 14.7909 289.0221 537.4352 .0000 .0000 .0000 .0000            LATERAL_ACCRETION 6.0000
  350.6772 14.1369 287.6026 1.0000 .2753 343.9795 14.2911 288.5030 527.6448 .0000 .0000 .0000 .0000            LATERAL_ACCRETION 6.0000
  350.8072 13.5388 292.3083 1.0000 .2063 346.5005 13.6605 292.9969 526.9827 .0000 .0000 .0000 .0000            LATERAL_ACCRETION 6.0000
  350.9511 12.1800 288.1006 1.0000 .2426 341.5566 12.3260 288.9930 526.9243 .0000 .0000 .0000 .0000            LATERAL_ACCRETION 6.0000
  351.0811 12.0269 289.2901 1.0000 .2276 344.4668 12.1583 290.1577 530.2722 .0000 .0000 .0000 .0000            LATERAL_ACCRETION 6.0000
  351.2874 12.6511 286.9070 1.0000 .2713 342.0319 12.8081 287.8864 532.7330 .0000 .0000 .0000 .0000            LATERAL_ACCRETION 6.0000
  351.4830 13.4481 273.9623 1.0000 .2118 352.1925 13.4929 274.8265 533.6769 .0000 .0000 .0000 .0000            LATERAL_ACCRETION 6.0000
  351.6913 11.2886 275.8665 1.0000 .2715 341.9476 11.4014 277.0978 532.4675 .0000 .0000 .0000 .0000            LATERAL_ACCRETION 6.0000
  351.9356 13.2964 292.2061 1.0000 .2441 342.9824 13.4521 292.9968 535.1830 .0000 .0000 .0000 .0000            LATERAL_ACCRETION 6.0000
  352.1260 11.9722 287.5369 1.0000 .2511 339.2552 12.1293 288.4543 531.5208 .0000 .0000 .0000 .0000            LATERAL_ACCRETION 6.0000
  352.2889 13.3828 287.6898 1.0000 .2399 337.7643 13.5380 288.4543 531.7568 .0000 .0000 .0000 .0000            LATERAL_ACCRETION 6.0000
  352.4253 12.0188 298.4977 1.0000 .2399 340.6678 12.1977 299.2429 528.4995 .0000 .0000 .0000 .0000            LATERAL_ACCRETION 6.0000
  352.6135 9.1739 281.3752 1.0000 .2698 339.7597 9.3182 282.7760 529.9041 .0000 .0000 .0000 .0000            LATERAL_ACCRETION 6.0000
  352.7880 9.7581 288.2304 1.0000 .2807 346.0026 9.9106 289.5899 536.3901 .0000 .0000 .0000 .0000            LATERAL_ACCRETION 6.0000
  352.9382 12.4299 281.0018 1.0000 .2957 346.3008 12.5562 282.2082 543.5406 .0000 .0000 .0000 .0000            LATERAL_ACCRETION 6.0000
  353.0735 9.1022 268.2128 1.0000 .2632 335.9265 9.2052 269.7161 536.4642 .0000 .0000 .0000 .0000            LATERAL_ACCRETION 6.0000
  353.2988 9.0477 258.8397 1.0000 .2868 344.5653 9.0736 260.6309 535.4612 .0000 .0000 .0000 .0000            LATERAL_ACCRETION 6.0000
  353.5621 8.6321 248.1572 1.0000 .2593 349.2902 8.5857 249.8423 531.1830 .0000 .0000 .0000 .0000            LATERAL_ACCRETION 6.0000
  353.7260 6.4126 255.0226 1.0000 .2311 350.9003 6.3930 257.0746 530.0570 .0000 .0000 .0000 .0000            LATERAL_ACCRETION 6.0000
