~VERSION INFORMATION
VERS.                                                 2.0:   CWLS Log ASCII Standard-VERSION 2.0
WRAP.                                                  NO:   One line per depth step
~Well Information Block
STRT.M                                           113.1921:   Top Depth
STOP.M                                           369.8200:   Bottom Depth
STEP.M                                             .00000:   Depth Increment
NULL.                                            -999.250:   Null Value
FLD .                                           UNDEFINED:   Field Name
WELL.                             SUNCOR FIREBAG 4-7-93-4:   NAME
UWI .                                    1AA040709304W400:   UWI
LIC .                                             0492309:   LICENSE NUMBER
BS1 .MM                                               251:   BIT SIZE 1
BS2 .MM                                               159:   BIT SIZE 2
CTRY.                                              Canada:   COUNTRY
CS1 .MM                                             177.8:   CSG 1 SIZE
CW1 .KG/M                                            25.3:   CSG 1 WT
DMF .                                                  KB:   DRILL MEAS FROM
EPD .M                                                  0:   ELEV PERM DATUM
EGL .M                                              652.3:   GROUND LEVEL
EKB .M                                              656.5:   KB ELEVATION
SRVC.                                         Weatherford:   LOGGING CONTRACTOR
LMF .                                                  KB:   LOGS MEAS FROM
COMP.                                  SUNCOR ENERGY INC.:   OPERATOR
PDAT.                                              GROUND:   PERM DATUM
PROV.                                             ALBERTA:   PROVINCE
DATE.                                          2019/03/01:   RUN DATE
BSD1.M                                                  0:   TD 1 DRILLER
BSD2.M                                              109.7:   TD 2 DRILLER
~PARAMETER INFORMATION (log)
LNAM.                                              MAIN.3:   NAME
LTYP.                                                CORR:   LOG TYPE
LVSN.                                                   1:   LOG VERSION
BHIS.                                                   T:   BRIEF HISTORY
FHIS.                                          TRANSCRIPT:   FULL HISTORY
~Curve Information Block
#MNEM.UNIT                                        API CODE    No Description
#=========                                        ========    == ===========
DEPT.M                                       00 001 00 00:     1  DEPTH
DPTR.DEG                                               01:     2  Computed Dip Magnitude
DPAZ.DEG                                               01:     3  Computed Dip Azimuth
ICCO.                                                  01:     4  Computed Dip Quality
DEVI.DEG                                               01:     5  Deviation
HAZI.DEG                                               01:     6  Hole Azimuth
ADIP.DEG                                               01:     7  Apparent Dip
AAZI.DEG                                               01:     8  Apparent Azimuth
TRALEN.MM                                              01:     9  Trace length of pick
WIDTH.DEG                                              01:    10  Width of pick
HEIGHT.MM                                              01:    11  Height of pick
LEFT.DEG                                               01:    12  Partial pick: Left end of pick in deg
RIGHT.DEG                                              01:    13  Partial pick: Right end of pick in deg
DIPTYPE.TEXT                                           01:    14  DIP TYPE
DIPCODE.                                               01:    15  DIP CODE
~ASCII
  113.1921 6.4394 71.5055 1.0000 .1232 105.9682 6.5414 72.1136 544.4341 .0000 .0000 .0000 .0000            BEDDING 2.0000
  113.7579 2.1477 31.7961 1.0000 .1805 145.7240 2.0811 36.3407 548.7764 .0000 .0000 .0000 .0000            BEDDING 2.0000
  114.2041 8.9874 250.0569 1.0000 .2162 149.6695 8.9509 248.7066 551.8799 .0000 .0000 .0000 .0000            BEDDING 2.0000
  114.6684 8.1633 62.0580 1.0000 .1879 110.8250 8.2884 63.0284 580.0048 .0000 .0000 .0000 .0000            BEDDING 2.0000
  114.8788 1.8969 70.6377 1.0000 .2050 111.6218 2.0560 74.3849 555.4183 .0000 .0000 .0000 .0000            BEDDING 2.0000
  115.2395 4.9805 322.3104 1.0000 .2364 99.2784 4.8104 324.2271 560.1230 .0000 .0000 .0000 .0000            BEDDING 2.0000
  115.5123 3.6234 312.9002 1.0000 .2979 99.0662 3.3800 315.7098 563.1009 .0000 .0000 .0000 .0000            BEDDING 2.0000
  115.8761 5.5911 296.3123 1.0000 .2946 104.3188 5.3033 296.9716 574.0436 .0000 .0000 .0000 .0000            BEDDING 2.0000
  116.4207 1.9186 34.1938 1.0000 .3263 101.7385 2.0654 42.5868 552.9096 .0000 .0000 .0000 .0000            BEDDING 2.0000
  116.8088 2.5768 178.1107 1.0000 .1811 121.7379 2.6813 174.8896 567.8291 .0000 .0000 .0000 .0000            BEDDING 2.0000
  118.2608 6.9654 189.6723 1.0000 .2780 138.7317 7.1438 187.9495 586.2056 .0000 .0000 .0000 .0000            BEDDING 2.0000
  118.9757 4.5153 234.6144 1.0000 .3236 134.4313 4.4694 230.5363 595.9941 .0000 .0000 .0000 .0000            BEDDING 2.0000
  119.3438 2.2538 17.7944 1.0000 .3799 157.0135 1.9817 24.9842 576.3326 .0000 .0000 .0000 .0000            BEDDING 2.0000
  119.7604 3.0493 203.2543 1.0000 .2466 139.3143 3.1654 199.2448 573.4961 .0000 .0000 .0000 .0000            BEDDING 2.0000
  120.1845 3.3577 219.0273 1.0000 .5280 137.1335 3.4717 210.3779 583.7999 .0000 .0000 .0000 .0000            BEDDING 2.0000
  120.5546 18.7717 163.2670 1.0000 .3556 106.1369 18.9669 162.3975 581.7856 .0000 .0000 .0000 .0000            DEFORMED_BED_BOUND 3.0000
  121.9853 9.9278 3.6820 1.0000 .3253 142.1232 9.6867 4.9459 582.8592 .0000 .0000 .0000 .0000            BEDDING 2.0000
  123.5867 22.1565 348.0290 1.0000 .3152 103.0651 22.0248 348.7347 566.1898 .0000 .0000 .0000 .0000            DEFORMED_BED_BOUND 3.0000
  123.6601 65.4756 128.3839 1.0000 .2055 102.2327 65.6601 128.3428 270.7639 .0000 .0000 254.0000 12.0000            DISC_COND_FRACTURE 17.0000
  124.0190 22.0472 333.7716 1.0000 .2041 121.7733 21.8744 334.0408 565.9560 .0000 .0000 .0000 .0000            DEFORMED_BED_BOUND 3.0000
  124.2467 11.7202 333.9736 1.0000 .1276 147.7688 11.5933 334.0408 549.9242 .0000 .0000 .0000 .0000            DEFORMED_BED_BOUND 3.0000
  125.3696 19.1067 295.4074 1.0000 .2380 126.9501 18.8736 295.2682 620.4244 .0000 .0000 .0000 .0000            DEFORMED_BED_BOUND 3.0000
  125.6953 18.9278 299.8434 1.0000 .2519 122.3556 18.6762 299.8107 606.8915 .0000 .0000 .0000 .0000            DEFORMED_BED_BOUND 3.0000
  125.8846 19.0609 293.8568 1.0000 .2510 97.2153 18.8205 294.0676 609.5424 .0000 .0000 .0000 .0000            DEFORMED_BED_BOUND 3.0000
  126.3890 9.2497 308.7676 1.0000 .3593 95.1023 8.9528 310.0316 594.4249 .0000 .0000 .0000 .0000            BEDDING 2.0000
  126.7018 11.9061 333.9347 1.0000 .2604 111.8942 11.7140 334.7755 550.1158 .0000 .0000 .0000 .0000            BEDDING 2.0000
  127.3651 14.5321 321.4686 1.0000 .2907 137.3397 14.2421 321.5510 553.1792 .0000 .0000 .0000 .0000            BEDDING 2.0000
  127.8368 3.9089 190.9706 1.0000 .2883 129.1596 4.0530 187.3817 563.3211 .0000 .0000 .0000 .0000            BEDDING 2.0000
  128.7892 36.5024 94.3939 1.0000 .1910 126.5399 36.6643 94.5306 439.2715 .0000 .0000 107.0000 3.0000            DISC_COND_FRACTURE 17.0000
  129.7812 72.4637 125.3595 1.0000 .2666 137.4987 72.7243 125.3770 404.5775 .0000 .0000 250.0000 22.0000            DISC_COND_FRACTURE 17.0000
  129.9225 14.6968 25.8100 1.0000 .3062 131.7906 14.6154 26.9388 553.3940 .0000 .0000 .0000 .0000            BEDDING 2.0000
  130.6139 8.8506 59.0353 1.0000 .2714 141.7882 8.8889 60.7571 555.6859 .0000 .0000 .0000 .0000            BEDDING 2.0000
  131.0284 8.8715 56.1400 1.0000 .3683 142.2339 8.9041 58.4858 554.7400 .0000 .0000 .0000 .0000            BEDDING 2.0000
  131.5530 7.4392 62.0179 1.0000 .3543 155.7087 7.4248 64.7319 563.2825 .0000 .0000 .0000 .0000            BEDDING 2.0000
  131.9358 3.8434 208.3112 1.0000 .3031 157.5065 4.0418 204.9842 564.8633 .0000 .0000 .0000 .0000            BEDDING 2.0000
  132.3705 7.3521 218.9550 1.0000 .3196 161.2046 7.5275 216.9085 555.4557 .0000 .0000 .0000 .0000            BEDDING 2.0000
  132.6538 85.5000 65.4070 1.0000 .2210 165.3978 85.4617 65.4242 -999.2500 44.9000 140.5957 .0000 .0000            BREAKOUT 25.0000
  132.6608 85.5000 260.0581 1.0000 .2210 165.3978 85.4821 260.0408 -999.2500 55.4000 175.7448 .0000 .0000            BREAKOUT 25.0000
  132.7046 1.9488 215.8944 1.0000 .2210 165.3978 2.0963 211.2303 544.7531 .0000 .0000 .0000 .0000            BEDDING 2.0000
  133.1530 4.8331 172.6070 1.0000 .1222 158.2090 4.9516 172.2561 535.8547 .0000 .0000 .0000 .0000            BEDDING 2.0000
  133.6247 3.5423 30.0389 1.0000 .1740 156.5040 3.4417 32.3659 552.9578 .0000 .0000 .0000 .0000            BEDDING 2.0000
  134.9974 1.4543 257.3253 1.0000 .4354 140.0480 1.3130 240.1893 579.8930 .0000 .0000 .0000 .0000            BEDDING 2.0000
  136.0464 4.2417 26.6359 1.0000 .3668 156.2256 4.0179 30.6625 568.3810 .0000 .0000 .0000 .0000            BEDDING 2.0000
  136.5181 4.1366 51.9728 1.0000 .3383 179.0058 3.9421 55.8946 567.7057 .0000 .0000 .0000 .0000            BEDDING 2.0000
  136.8237 2.2063 52.6879 1.0000 .3281 178.7458 2.0305 60.1893 562.4531 .0000 .0000 .0000 .0000            BEDDING 2.0000
  137.3261 2.9116 23.7664 1.0000 .1890 185.8586 2.7324 24.9842 557.2772 .0000 .0000 .0000 .0000            BEDDING 2.0000
  137.9786 3.4188 212.8830 1.0000 .1326 121.2604 3.4176 210.6625 556.8322 .0000 .0000 .0000 .0000            BEDDING 2.0000
  138.3857 3.4666 223.6947 1.0000 .2437 118.3163 3.4101 219.7476 558.0700 .0000 .0000 .0000 .0000            BEDDING 2.0000
  138.8087 4.6688 202.3984 1.0000 .3066 121.7341 4.7282 198.7382 563.3047 .0000 .0000 .0000 .0000            BEDDING 2.0000
  139.1767 1.9171 210.0121 1.0000 .3305 135.7733 2.0319 201.0095 562.0123 .0000 .0000 .0000 .0000            BEDDING 2.0000
  139.7002 3.2247 202.0240 1.0000 .4163 130.6600 3.3807 195.3312 562.8585 .0000 .0000 .0000 .0000            BEDDING 2.0000
  140.2269 4.6318 211.9279 1.0000 .3286 147.7670 4.7842 208.3912 556.6652 .0000 .0000 .0000 .0000            BEDDING 2.0000
  140.5716 .2178 341.3431 1.0000 .2178 161.3431 .0000 208.3912 558.9903 .0000 .0000 .0000 .0000            BEDDING 2.0000
  140.9640 6.5577 189.3082 1.0000 .2110 162.9919 6.7474 188.5173 563.4929 .0000 .0000 .0000 .0000            BEDDING 2.0000
  141.1996 23.4786 162.9647 1.0000 .1623 163.0595 23.6409 162.9653 373.1882 .0000 .0000 235.0000 101.0000            RESISTIVE_NODULAR_EVENT 13.0000
  141.2584 19.0979 349.7243 1.0000 .1165 166.8980 18.9815 349.7410 368.3960 .0000 .0000 233.0000 100.0000            RESISTIVE_NODULAR_EVENT 13.0000
  141.5509 4.7493 216.9085 1.0000 .0224 114.7471 4.7446 216.6447 560.8250 .0000 .0000 .0000 .0000            BEDDING 2.0000
  141.8301 3.4313 44.4373 1.0000 .0646 158.9409 3.4050 45.4259 558.8976 .0000 .0000 .0000 .0000            BEDDING 2.0000
  142.3938 4.0658 212.9029 1.0000 .1401 121.7185 4.0653 210.9316 562.2231 .0000 .0000 .0000 .0000            BEDDING 2.0000
  142.9574 2.0390 196.1891 1.0000 .2121 100.1853 2.0278 190.2208 563.1859 .0000 .0000 .0000 .0000            BEDDING 2.0000
  143.4672 2.7270 209.5658 1.0000 .3793 111.8283 2.7022 201.5773 563.4644 .0000 .0000 .0000 .0000            BEDDING 2.0000
  144.2043 5.2749 209.9187 1.0000 .4258 134.4747 5.3976 205.5521 563.8044 .0000 .0000 .0000 .0000            BEDDING 2.0000
  144.6431 5.0757 352.8703 1.0000 .3727 146.1341 4.7458 354.8896 561.3762 .0000 .0000 .0000 .0000            BEDDING 2.0000
  144.9054 2.4370 188.2248 1.0000 .3151 154.7344 2.7053 184.5426 562.7529 .0000 .0000 .0000 .0000            BEDDING 2.0000
