~Version
 VERS              .         3.0                           : CWLS LOG ASCII STANDARD - VERSION 3.0
 WRAP              .         NO                            : ONE LINE PER DEPTH STEP
 DLM               .         SPACE                         : DELIMITING CHARACTER(SPACE TAB OR COMMA)
~Well Information
#_______________________________________________________________________________
#
#PARAMETER_NAME    .UNIT     VALUE                         : DESCRIPTION
#_______________________________________________________________________________
STRT               .m        92.2036                       : First reference value
STOP               .m        218.5203                      : Last reference value
STEP               .m        0                             : Step increment
NULL               .         -9999                         : Missing value
COMP               .         SUNCOR ENERGY INC.            : Company
WELL               .         SUNCOR LEWIS 3-8-92-7         : Well name
FLD                .         LEWIS                         : Field
LOC                .                                       : Location
SRVC               .         Weatherford                   : Service Company
CTRY               .         CA                            : Country
PROV               .         ALBERTA                       : Province
UWI                .         1AA030809207W400              : UNIQUE WELL ID
LIC                .         0486896                       : License number
DATE               .         25-Jan-2018                   : Service Date
LATI               .         56.960838 N                   : Latitude
LONG               .         111.095591 W                  : Longitude
GDAT               .                                       : Geodetic Datum
APD                .m        1.20                          : 
BHT                .degC     9                             : Bottom Hole Temperature
BLI                .m        220.00                        : First Reading
BS                 .mm       159.00                        : 
CBDR               .m        88.30                         : Casing Driller Depth
CBLO               .m        88.30                         : Casing Logger Depth
COUNTRY            .         Canada                        : State / Country
DFD                .kg/m3    1050.0                        : Drill Fluid Density
DFT                .         POLYMER                       : 
EGL                .m        477.4                         : Ground Level Elevation
EKB                .m        478.6                         : Kelly Bushing Elevation
EPD                .m        0                             : Elevation Above Permanent Datum
LMF                .         KB                            : Log Measured From
LUL                .         LLD                           : Equipment Base Location
LUN                .         14265                         : Equipment Number
MRT                .degC     9                             : Max Recorded Temperature
MST                .degC     9.8                           : Measured Temperature
ORIGINALWELLNAME   .         SUNCOR LEWIS 3-8-92-7         : 
PDAT               .         GROUND                        : Permanent Datum
PRODUCER-CODE      .         126                           : 
PRODUCER-NAME      .         Weatherford                   : 
RMB                .ohm.m    4.65                          : Resistivity at Bottom Hole Temperature
RMS                .ohm.m    4.45                          : Mud Resistivity at Measured Temperature
TDD                .m        230.00                        : Depth Driller
TDL                .m        230.10                        : Depth Logger
TLI                .m        91.50                         : Last Reading
~Parameter Information Block
#_______________________________________________________________________________
#
#PARAMETER_NAME    .UNIT     VALUE                         : DESCRIPTION
#_______________________________________________________________________________
SET                .         Dip                           : 
TLFamily_AvgCali   .         Caliper                       : 
TLFamily_Azimuth   .         True Dip Azimuth              : 
TLFamily_CMI_DYN_Azimuth .         Apparent Dip Azimuth          : 
TLFamily_CMI_DYN_DipHeight .         Height Of Dip Plane           : 
TLFamily_CMI_DYN_Dip_APP .         Apparent Dip Inclination      : 
TLFamily_DEPTH     .         Measured Depth                : 
TLFamily_Dip_TRU   .         True Dip Inclination          : 
TLFamily_HAzi      .         Hole Azimuth                  : 
TLFamily_HDev      .         Hole Deviation                : 
TLFamily_Quality   .         Dip Quality                   : 
TLFamily_Type      .         Dip Classification            : 
~Curve Information
#_______________________________________________________________________________
#
#LOGNAME           .UNIT     LOG_ID                        : DESCRIPTION
#_______________________________________________________________________________
DEPTH              .m                                      :  {F}
AvgCali            .in                                     :  {F}
Azimuth            .dega                                   :  {F}
CMI_DYN_Azimuth    .dega                                   :  {F}
CMI_DYN_Dip_APP    .dega                                   :  {F}
CMI_DYN_DipHeight  .m                                      :  {F}
Dip_TRU            .dega                                   :  {F}
HAzi               .deg                                    :  {F}
HDev               .deg                                    :  {F}
Quality            .                                       :  {F}
Type               .                                       :  {S}
~Ascii
92.2036    6.7336     202.0982   190.8025   2.9886     0.0096     2.9886     106.4919   0.5879     1          Bedding   
92.7506    6.4586     26.5683    38.0017    3.1064     0.0096     2.9372     106.5563   0.6275     1          Bedding   
93.4858    6.2653     29.3303    49.7468    1.6919     0.0051     1.6901     129.3688   0.5995     1          Bedding   
93.956     6.7056     75.5097    79.7896    7.2626     0.0233     6.8938     132.9126   0.6461     1          Bedding   
94.3679    6.4401     250.1646   237.7584   2.5249     0.0078     2.8662     123.7905   0.6745     1          Bedding   
94.8109    6.5357     57.7962    71.7783    2.4914     0.0078     2.1404     123.0895   0.6629     1          Bedding   
95.1684    6.3407     267.3365   261.7926   2.5623     0.0078     2.9762     117.5211   0.4927     1          Bedding   
95.6153    6.403      197.4378   191.6927   5.0656     0.0155     4.9439     118.1492   0.5174     1          Bedding   
96.1516    6.1583     75.5415    79.7896    5.25       0.0155     4.8736     122.643    0.532      1          Bedding   
96.5402    6.1695     317.3328   317.6157   2.6228     0.0078     3.1648     135.9103   0.5422     1          Bedding   
96.8977    6.1909     0.136      5.6841     5.2253     0.0155     5.4786     118.8731   0.5779     1          Bedding   
98.6931    6.4254     291.1697   279.8181   0.0021     0          0.389      111.2316   0.3869     1          Bedding   
100.2009   6.403      69.9177    71.7783    7.5766     0.0233     7.4468     132.9438   0.2782     1          Bedding   
100.9276   6.5901     299.7191   53.7524    0.0028     0          0.3809     119.3379   0.382      1          Bedding   
101.2307   6.5377     28.3518    37.7297    2.4907     0.0078     2.5123     126.0548   0.4098     1          Bedding   
101.6232   6.2837     226.4207   225.7412   28.4265    0.0933     28.2999    155.2228   0.3924     1          "Resistive Nodular Event"
101.9341   6.289      61.5066    63.7668    7.698      0.0233     7.7247     157.6159   0.3072     1          Bedding   
102.4432   6.2638     34.8438    37.7297    10.2571    0.0311     10.2432    124.6295   0.5229     1          Bedding   
102.7541   6.3422     3.2766     13.6953    2.5617     0.0078     2.9481     136.0311   0.6314     1          Bedding   
103.1077   6.4416     65.2852    69.7754    7.5308     0.0233     7.3429     139.7647   0.6153     1          Bedding   
103.6012   6.4591     70.025     79.7896    2.5188     0.0078     2.2741     134.0615   0.4754     1          Bedding   
104.188    6.4711     63.4336    73.781     2.5144     0.0078     2.1443     117.3619   0.559      1          Bedding   
104.6894   6.3929     248.8456   243.7667   5.0772     0.0156     5.33       127.6631   0.5269     1          Bedding   
105.0896   6.5474     37.8468    47.7441    2.4816     0.0078     2.4225     124.8618   0.427      1          Bedding   
105.7852   6.445      47.9871    51.7498    5.0302     0.0155     4.8288     107.8537   0.3824     1          Bedding   
106.4692   6.3741     54.3958    57.7583    7.6088     0.0233     7.361      116.9501   0.5056     1          Bedding   
106.7412   6.4307     15.254     19.7041    5.0454     0.0155     5.2158     130.6493   0.4337     1          Bedding   
107.0987   6.3669     30.2818    33.7239    5.0921     0.0155     5.1105     125.4573   0.3078     1          Bedding   
107.4485   6.5928     2.5404     5.6841     4.9307     0.0155     5.0573     118.8321   0.3024     1          Bedding   
107.8332   6.3491     201.8808   199.7041   7.6356     0.0233     7.5165     133.2498   0.3122     1          Bedding   
108.5988   6.1608     311.6816   59.761     0.0022     0          0.327      131.315    0.3277     1          Bedding   
108.8047   6.2094     75.7005    75.7839    73.7033    0.5829     73.5135    134.9068   0.3637     1          "Discontinuous Conductive Fracture"
109.1584   6.2453     27.6392    29.7183    10.2854    0.0311     10.3486    128.1623   0.3835     1          Bedding   
109.4964   6.3116     22.4854    25.7126    7.6728     0.0233     7.7523     124.4546   0.444      1          Bedding   
110.3164   6.3208     30.009     33.7239    5.1313     0.0156     5.3391     153.2637   0.3987     1          Bedding   
110.639    6.2263     350.8751   351.6641   7.7689     0.0233     8.0946     152.5116   0.3437     1          Bedding   
111.0042   6.2534     287.6176   287.573    79.7459    0.9482     80.0096    145.0298   0.4044     1          "Discontinuous Conductive Fracture"
111.319    6.2447     56.1727    57.7583    12.7844    0.0389     12.8333    154.6852   0.3632     1          Bedding   
111.6649   6.2601     26.0247    27.7156    10.2633    0.0311     10.3802    137.7881   0.3296     1          Bedding   
112.0962   6.169      8.5069     13.6953    5.2424     0.0155     5.4732     126.4654   0.5383     1          Bedding   
112.5043   6.1984     253.5879   249.7754   7.8052     0.0233     8.0627     135.8355   0.5903     1          Bedding   
112.9939   6.2141     67.5295    73.781     2.6098     0.0078     2.5337     145.505    0.2908     1          Bedding   
113.8644   6.4272     115.5666   117.8436   2.5303     0.0078     2.2818     137.9339   0.2666     1          Bedding   
114.5289   6.338      41.0679    43.7383    5.1135     0.0155     4.9919     105.1678   0.2656     1          Bedding   
114.9797   6.3063     292.8084   237.7584   0.0022     0          0.2392     113.2342   0.238      1          Bedding   
115.3916   6.1998     146.0732   143.8807   5.2177     0.0155     5.0192     100.2816   0.2792     1          Bedding   
115.8308   6.2811     36.0793    45.7412    2.5848     0.0078     2.3777     104.6711   0.4666     1          Bedding   
116.5769   6.3632     28.2551    29.7183    7.6158     0.0233     7.6402     126.2565   0.1969     1          Bedding   
117.1093   6.4103     50.4111    51.7498    10.0449    0.0311     9.8652     103.9943   0.2953     1          Bedding   
118.9863   6.3625     37.7317    41.7354    5.0953     0.0155     5.1244     134.2577   0.3595     1          Bedding   
119.6586   6.3624     291.9059   283.8239   0.0021     0          0.4666     111.9431   0.4644     1          Bedding   
120.2182   6.3521     16.9913    27.7156    2.558      0.0078     2.7176     130.1887   0.5183     1          Bedding   
120.5951   6.2665     35.1795    39.7324    5.1722     0.0156     5.279      142.0314   0.4284     1          Bedding   
120.871    6.2377     29.1539    31.7212    7.7602     0.0233     7.8641     136.8356   0.3676     1          Bedding   
121.7415   6.2906     51.4122    59.761     2.5862     0.0078     2.4659     127.5229   0.3871     1          Bedding   
122.4449   6.2105     63.247     71.7783    2.6119     0.0078     2.4171     130.1103   0.4211     1          Bedding   
123.02     6.2553     102.967    105.8267   7.736      0.0233     7.1652     137.65     0.6826     1          Bedding   
123.4397   6.1566     59.647     63.7666    10.4194    0.0311     10.3469    146.3391   0.7582     1          Bedding   
123.8167   6.3022     58.2679    65.7695    5.1453     0.0156     5.0824     146.6489   0.6734     1          Bedding   
124.4307   6.2536     311.3622   23.7097    0.008      0          0.3482     130.0964   0.3459     1          Bedding   
124.9864   6.3239     17.4186    19.7041    12.6408    0.0389     12.7321    118.614    0.5225     1          Bedding   
125.3517   6.2647     51.559     55.7554    7.7254     0.0233     7.4829     120.2582   0.6098     1          Bedding   
125.6082   6.2331     19.5564    23.7097    7.7612     0.0233     7.8949     124.8035   0.5863     1          Bedding   
126.0317   6.3123     34.0461    37.7297    7.6671     0.0233     7.7887     139.5447   0.5144     1          Bedding   
126.9256   6.5579     7.7896     9.6897     7.4033     0.0233     7.7642     153.6931   0.4405     1          Bedding   
127.9243   6.486      13.4963    17.7012    5.0057     0.0155     5.2724     140.7714   0.4625     1          Bedding   
