~VERSION INFORMATION
VERS.                                                 2.0:   CWLS Log ASCII Standard-VERSION 2.0
WRAP.                                                  NO:   One line per depth step
~Well Information Block
STRT.M                                           113.1921:   Top Depth
STOP.M                                           369.8200:   Bottom Depth
STEP.M                                             .00000:   Depth Increment
NULL.                                            -999.250:   Null Value
FLD .                                           UNDEFINED:   Field Name
WELL.                             SUNCOR FIREBAG 4-7-93-4:   NAME
UWI .                                    1AA040709304W400:   UWI
LIC .                                             0492309:   LICENSE NUMBER
BS1 .MM                                               251:   BIT SIZE 1
BS2 .MM                                               159:   BIT SIZE 2
CTRY.                                              Canada:   COUNTRY
CS1 .MM                                             177.8:   CSG 1 SIZE
CW1 .KG/M                                            25.3:   CSG 1 WT
DMF .                                                  KB:   DRILL MEAS FROM
EPD .M                                                  0:   ELEV PERM DATUM
EGL .M                                              652.3:   GROUND LEVEL
EKB .M                                              656.5:   KB ELEVATION
SRVC.                                         Weatherford:   LOGGING CONTRACTOR
LMF .                                                  KB:   LOGS MEAS FROM
COMP.                                  SUNCOR ENERGY INC.:   OPERATOR
PDAT.                                              GROUND:   PERM DATUM
PROV.                                             ALBERTA:   PROVINCE
DATE.                                          2019/03/01:   RUN DATE
BSD1.M                                                  0:   TD 1 DRILLER
BSD2.M                                              109.7:   TD 2 DRILLER
~PARAMETER INFORMATION (log)
LNAM.                                              MAIN.3:   NAME
LTYP.                                                CORR:   LOG TYPE
LVSN.                                                   1:   LOG VERSION
BHIS.                                                   T:   BRIEF HISTORY
FHIS.                                          TRANSCRIPT:   FULL HISTORY
~Curve Information Block
#MNEM.UNIT                                        API CODE    No Description
#=========                                        ========    == ===========
DEPT.M                                       00 001 00 00:     1  DEPTH
DPTR.DEG                                               01:     2  Computed Dip Magnitude
DPAZ.DEG                                               01:     3  Computed Dip Azimuth
ICCO.                                                  01:     4  Computed Dip Quality
DEVI.DEG                                               01:     5  Deviation
HAZI.DEG                                               01:     6  Hole Azimuth
ADIP.DEG                                               01:     7  Apparent Dip
AAZI.DEG                                               01:     8  Apparent Azimuth
TRALEN.MM                                              01:     9  Trace length of pick
WIDTH.DEG                                              01:    10  Width of pick
HEIGHT.MM                                              01:    11  Height of pick
LEFT.DEG                                               01:    12  Partial pick: Left end of pick in deg
RIGHT.DEG                                              01:    13  Partial pick: Right end of pick in deg
DIPTYPE.TEXT                                           01:    14  DIP TYPE
DIPCODE.                                               01:    15  DIP CODE
~ASCII
# ...
  312.1861 .5656 5.3749 1.0000 .1593 323.7762 .6928 356.5930 549.4779 .0000 .0000 .0000 .0000            BEDDING 2.0000
  312.4875 2.2151 182.2042 1.0000 .1771 304.3555 2.1261 186.2460 537.0524 .0000 .0000 .0000 .0000            DISCONTINUITY_BOUND 4.0000
  312.6673 .7593 189.8217 1.0000 .1553 320.5328 .6684 199.9673 537.8073 .0000 .0000 .0000 .0000            RESISTIVE_NODULAR_EVENT 13.0000
  313.0364 .1676 147.1119 1.0000 .1676 327.1119 .0000 199.9673 536.8666 .0000 .0000 .0000 .0000            BEDDING 2.0000
  313.3938 14.1845 200.7828 1.0000 .2390 324.4572 14.0533 201.5773 539.3755 .0000 .0000 .0000 .0000            DISCONTINUITY_BOUND 4.0000
  313.5884 5.1038 77.3977 1.0000 .1833 321.6359 5.0268 75.5205 529.8586 .0000 .0000 .0000 .0000            BEDDING 2.0000
  313.9310 2.1206 237.9151 1.0000 .1912 324.4563 2.1407 243.0284 531.8759 .0000 .0000 .0000 .0000            BEDDING 2.0000
  314.3530 6.5356 197.8000 1.0000 .1908 314.6212 6.4517 199.3060 530.5862 .0000 .0000 .0000 .0000            BEDDING 2.0000
  314.4830 7.0113 10.8052 1.0000 .2126 304.7240 7.1001 9.2449 546.1265 .0000 .0000 .0000 .0000            SCOUR_SURFACE 7.0000
  314.6978 .1852 138.9223 1.0000 .1852 318.9224 .0000 9.2449 528.9528 .0000 .0000 .0000 .0000            BEDDING 2.0000
  314.9505 5.0853 213.5178 1.0000 .1806 307.5494 5.0758 215.5461 528.2770 .0000 .0000 .0000 .0000            BEDDING 2.0000
  315.3167 1.6164 137.5418 1.0000 .1898 315.4774 1.4268 137.8163 544.1619 .0000 .0000 .0000 .0000            BEDDING 2.0000
  315.5427 6.2736 304.2355 1.0000 .1980 327.3052 6.4562 304.9211 530.0751 .0000 .0000 .0000 .0000            LATERAL_ACCRETION 6.0000
  315.8166 7.6998 309.9749 1.0000 .1752 312.5368 7.8748 310.0316 530.8794 .0000 .0000 .0000 .0000            LATERAL_ACCRETION 6.0000
  316.0059 8.3669 306.2465 1.0000 .1982 322.9226 8.5570 306.6246 532.8094 .0000 .0000 .0000 .0000            LATERAL_ACCRETION 6.0000
  316.1952 9.0701 301.6329 1.0000 .1960 323.5510 9.2521 302.0820 533.6741 .0000 .0000 .0000 .0000            LATERAL_ACCRETION 6.0000
  316.3898 9.7961 299.8983 1.0000 .1909 326.1285 9.9677 300.3785 533.2848 .0000 .0000 .0000 .0000            LATERAL_ACCRETION 6.0000
  316.5632 12.5201 289.1169 1.0000 .2134 319.0936 12.7053 289.5899 537.0482 .0000 .0000 .0000 .0000            LATERAL_ACCRETION 6.0000
  316.7007 9.7839 290.1559 1.0000 .1911 321.6689 9.9474 290.7256 534.3882 .0000 .0000 .0000 .0000            LATERAL_ACCRETION 6.0000
  316.8636 10.4663 283.0180 1.0000 .1992 315.2513 10.6353 283.5840 535.0038 .0000 .0000 .0000 .0000            LATERAL_ACCRETION 6.0000
  317.1491 6.9404 304.2471 1.0000 .1927 324.4151 7.1216 304.7791 531.9493 .0000 .0000 .0000 .0000            LATERAL_ACCRETION 6.0000
  317.3025 11.1444 284.3721 1.0000 .2231 321.6611 11.3227 285.0473 536.1313 .0000 .0000 .0000 .0000            LATERAL_ACCRETION 6.0000
  317.4526 11.1520 288.5532 1.0000 .2020 316.2660 11.3312 289.0221 535.6038 .0000 .0000 .0000 .0000            LATERAL_ACCRETION 6.0000
  317.6948 11.1620 287.4820 1.0000 .1776 314.6042 11.3203 287.8864 536.2654 .0000 .0000 .0000 .0000            LATERAL_ACCRETION 6.0000
  317.9190 11.1381 289.2152 1.0000 .2042 310.7798 11.3282 289.5899 535.8586 .0000 .0000 .0000 .0000            LATERAL_ACCRETION 6.0000
  318.1072 12.5107 288.1407 1.0000 .2165 307.2117 12.7155 288.4543 536.5956 .0000 .0000 .0000 .0000            LATERAL_ACCRETION 6.0000
  318.2479 10.4528 291.8638 1.0000 .2079 322.5421 10.6322 292.4290 535.4738 .0000 .0000 .0000 .0000            LATERAL_ACCRETION 6.0000
  318.4160 11.2039 291.2330 1.0000 .1782 336.1725 11.3307 291.8612 535.7992 .0000 .0000 .0000 .0000            LATERAL_ACCRETION 6.0000
  318.6265 13.8864 286.6481 1.0000 .2610 326.7595 14.0870 287.3186 537.6680 .0000 .0000 .0000 .0000            LATERAL_ACCRETION 6.0000
  318.8232 13.9108 294.1959 1.0000 .2165 329.9638 14.0870 294.7003 537.9557 .0000 .0000 .0000 .0000            LATERAL_ACCRETION 6.0000
  319.0833 13.1968 298.4200 1.0000 .2176 314.6366 13.4059 298.6751 536.9847 .0000 .0000 .0000 .0000            LATERAL_ACCRETION 6.0000
  319.5032 15.2408 287.8521 1.0000 .2525 328.9887 15.4319 288.4543 539.3656 .0000 .0000 .0000 .0000            LATERAL_ACCRETION 6.0000
  319.6650 15.8628 286.7047 1.0000 .2345 324.5818 16.0486 287.2054 540.8701 .0000 .0000 .0000 .0000            LATERAL_ACCRETION 6.0000
  319.8448 12.5069 293.5926 1.0000 .2358 324.6672 12.7095 294.1325 536.8531 .0000 .0000 .0000 .0000            LATERAL_ACCRETION 6.0000
  320.0149 11.2859 290.8802 1.0000 .2066 327.7658 11.4519 291.4927 535.7603 .0000 .0000 .0000 .0000            LATERAL_ACCRETION 6.0000
  320.3989 4.0893 307.0229 1.0000 .2286 321.0923 4.3115 307.7603 529.4966 .0000 .0000 .0000 .0000            LATERAL_ACCRETION 6.0000
  320.6443 7.0327 262.8110 1.0000 .1933 315.5666 7.1514 264.0378 531.6254 .0000 .0000 .0000 .0000            LATERAL_ACCRETION 6.0000
  320.7839 9.1632 249.7263 1.0000 .2184 318.5324 9.2444 250.9779 534.1997 .0000 .0000 .0000 .0000            LATERAL_ACCRETION 6.0000
  320.9065 9.1793 253.8217 1.0000 .1974 322.7554 9.2520 254.9527 533.7634 .0000 .0000 .0000 .0000            LATERAL_ACCRETION 6.0000
  321.1064 7.0042 268.1876 1.0000 .2180 329.1946 7.1124 269.7161 534.5569 .0000 .0000 .0000 .0000            LATERAL_ACCRETION 6.0000
  321.2344 5.6555 249.4819 1.0000 .2107 327.4424 5.7031 251.5457 533.5936 .0000 .0000 .0000 .0000            LATERAL_ACCRETION 6.0000
  321.4533 5.6009 269.1977 1.0000 .2090 321.7707 5.7303 270.8517 531.0236 .0000 .0000 .0000 .0000            LATERAL_ACCRETION 6.0000
  321.5686 4.2186 251.8655 1.0000 .2049 319.4598 4.3008 254.3849 530.8562 .0000 .0000 .0000 .0000            LATERAL_ACCRETION 6.0000
  321.7378 6.9967 261.2101 1.0000 .2360 324.5496 7.1057 262.9022 535.0580 .0000 .0000 .0000 .0000            LATERAL_ACCRETION 6.0000
  321.8805 6.9640 262.9149 1.0000 .2548 318.7494 7.1102 264.6057 534.6954 .0000 .0000 .0000 .0000            LATERAL_ACCRETION 6.0000
  322.0169 5.6233 257.4958 1.0000 .2124 327.4479 5.6996 259.4953 533.9080 .0000 .0000 .0000 .0000            LATERAL_ACCRETION 6.0000
  322.3850 3.5589 238.5258 1.0000 .2171 332.7458 3.5495 242.0184 532.9283 .0000 .0000 .0000 .0000            BEDDING 2.0000
  322.7583 3.4600 33.4739 1.0000 .2274 326.2060 3.5540 30.0946 535.4106 .0000 .0000 .0000 .0000            BEDDING 2.0000
  323.1178 2.8113 58.3218 1.0000 .2180 333.7442 2.8402 53.9432 536.0649 .0000 .0000 .0000 .0000            BEDDING 2.0000
  323.4256 2.9245 223.9080 1.0000 .2367 328.9054 2.8724 228.4689 529.3909 .0000 .0000 .0000 .0000            BEDDING 2.0000
  323.6227 4.3598 213.3318 1.0000 .1984 330.5445 4.2727 215.6939 544.8508 .0000 .0000 .0000 .0000            BEDDING 2.0000
  323.8063 5.0043 245.9048 1.0000 .1976 329.8592 5.0289 248.1388 529.5912 .0000 .0000 .0000 .0000            BEDDING 2.0000
  324.1785 1.5597 195.9746 1.0000 .2064 327.8204 1.4303 202.1451 532.3536 .0000 .0000 .0000 .0000            BEDDING 2.0000
  324.5074 2.1954 215.2169 1.0000 .2212 322.2303 2.1412 220.8833 533.3649 .0000 .0000 .0000 .0000            BEDDING 2.0000
  324.8628 3.5924 229.0323 1.0000 .2248 327.0923 3.5678 232.6038 530.6663 .0000 .0000 .0000 .0000            BEDDING 2.0000
  325.2868 2.9257 217.9141 1.0000 .2425 321.5793 2.8781 222.6067 530.4865 .0000 .0000 .0000 .0000            BEDDING 2.0000
  325.6020 .8816 187.8052 1.0000 .2653 323.9592 .7143 202.7129 533.0045 .0000 .0000 .0000 .0000            BEDDING 2.0000
  325.8843 2.1477 233.1402 1.0000 .2428 326.8229 2.1458 239.6215 532.2056 .0000 .0000 .0000 .0000            BEDDING 2.0000
  326.2458 1.2357 1.3368 1.0000 .2258 325.5427 1.4249 356.0204 544.1161 .0000 .0000 .0000 .0000            BEDDING 2.0000
  326.4575 4.1876 33.9809 1.0000 .2240 327.2128 4.2809 31.2303 533.3269 .0000 .0000 .0000 .0000            BEDDING 2.0000
  326.9493 3.5511 238.7690 1.0000 .2349 319.5664 3.5962 242.4606 529.1478 .0000 .0000 .0000 .0000            BEDDING 2.0000
  327.2644 5.0472 228.4489 1.0000 .2351 325.5001 5.0238 231.1041 530.1576 .0000 .0000 .0000 .0000            BEDDING 2.0000
