~Version
 VERS              .         3.0                           : CWLS LOG ASCII STANDARD - VERSION 3.0
 WRAP              .         NO                            : ONE LINE PER DEPTH STEP
 DLM               .         SPACE                         : DELIMITING CHARACTER(SPACE TAB OR COMMA)
~Well Information
#_______________________________________________________________________________
#
#PARAMETER_NAME    .UNIT     VALUE                         : DESCRIPTION
#_______________________________________________________________________________
STRT               .m        92.2036                       : First reference value
STOP               .m        218.5203                      : Last reference value
STEP               .m        0                             : Step increment
NULL               .         -9999                         : Missing value
COMP               .         SUNCOR ENERGY INC.            : Company
WELL               .         SUNCOR LEWIS 3-8-92-7         : Well name
FLD                .         LEWIS                         : Field
LOC                .                                       : Location
SRVC               .         Weatherford                   : Service Company
CTRY               .         CA                            : Country
PROV               .         ALBERTA                       : Province
UWI                .         1AA030809207W400              : UNIQUE WELL ID
LIC                .         0486896                       : License number
DATE               .         25-Jan-2018                   : Service Date
LATI               .         56.960838 N                   : Latitude
LONG               .         111.095591 W                  : Longitude
GDAT               .                                       : Geodetic Datum
APD                .m        1.20                          : 
BHT                .degC     9                             : Bottom Hole Temperature
BLI                .m        220.00                        : First Reading
BS                 .mm       159.00                        : 
CBDR               .m        88.30                         : Casing Driller Depth
CBLO               .m        88.30                         : Casing Logger Depth
COUNTRY            .         Canada                        : State / Country
DFD                .kg/m3    1050.0                        : Drill Fluid Density
DFT                .         POLYMER                       : 
EGL                .m        477.4                         : Ground Level Elevation
EKB                .m        478.6                         : Kelly Bushing Elevation
EPD                .m        0                             : Elevation Above Permanent Datum
LMF                .         KB                            : Log Measured From
LUL                .         LLD                           : Equipment Base Location
LUN                .         14265                         : Equipment Number
MRT                .degC     9                             : Max Recorded Temperature
MST                .degC     9.8                           : Measured Temperature
ORIGINALWELLNAME   .         SUNCOR LEWIS 3-8-92-7         : 
PDAT               .         GROUND                        : Permanent Datum
PRODUCER-CODE      .         126                           : 
PRODUCER-NAME      .         Weatherford                   : 
RMB                .ohm.m    4.65                          : Resistivity at Bottom Hole Temperature
RMS                .ohm.m    4.45                          : Mud Resistivity at Measured Temperature
TDD                .m        230.00                        : Depth Driller
TDL                .m        230.10                        : Depth Logger
TLI                .m        91.50                         : Last Reading
~Parameter Information Block
#_______________________________________________________________________________
#
#PARAMETER_NAME    .UNIT     VALUE                         : DESCRIPTION
#_______________________________________________________________________________
SET                .         Dip                           : 
TLFamily_AvgCali   .         Caliper                       : 
TLFamily_Azimuth   .         True Dip Azimuth              : 
TLFamily_CMI_DYN_Azimuth .         Apparent Dip Azimuth          : 
TLFamily_CMI_DYN_DipHeight .         Height Of Dip Plane           : 
TLFamily_CMI_DYN_Dip_APP .         Apparent Dip Inclination      : 
TLFamily_DEPTH     .         Measured Depth                : 
TLFamily_Dip_TRU   .         True Dip Inclination          : 
TLFamily_HAzi      .         Hole Azimuth                  : 
TLFamily_HDev      .         Hole Deviation                : 
TLFamily_Quality   .         Dip Quality                   : 
TLFamily_Type      .         Dip Classification            : 
~Curve Information
#_______________________________________________________________________________
#
#LOGNAME           .UNIT     LOG_ID                        : DESCRIPTION
#_______________________________________________________________________________
DEPTH              .m                                      :  {F}
AvgCali            .in                                     :  {F}
Azimuth            .dega                                   :  {F}
CMI_DYN_Azimuth    .dega                                   :  {F}
CMI_DYN_Dip_APP    .dega                                   :  {F}
CMI_DYN_DipHeight  .m                                      :  {F}
Dip_TRU            .dega                                   :  {F}
HAzi               .deg                                    :  {F}
HDev               .deg                                    :  {F}
Quality            .                                       :  {F}
Type               .                                       :  {S}
~Ascii
# ...
192.0832   6.2001     359.5309   359.6755   24.5459    0.0777     25.1258    172.9878   0.5839     1          Cross-Bedding
192.2192   6.1986     3.5068     3.6812     24.5508    0.0777     25.1249    175.7382   0.5779     1          Cross-Bedding
192.5379   6.2044     35.3343    37.7297    10.3468    0.0311     10.7706    170.2916   0.6162     1          "Scour Surface"
193.1208   6.2195     255.3697   254.0376   24.4834    0.0777     24.4304    169.6478   0.6057     1          "Scour Surface"
193.3423   6.1984     1.4572     1.6785     24.5515    0.0777     25.1483    171.8149   0.5963     1          Cross-Bedding
193.4744   6.1967     359.4593   359.6755   24.5569    0.0777     25.1463    169.9245   0.5978     1          Cross-Bedding
193.5949   6.1873     355.5624   355.6699   24.5875    0.0777     25.2013    170.9623   0.6158     1          Cross-Bedding
193.8397   6.1905     30.1108    33.7239    5.2307     0.0156     5.7049     175.7263   0.5877     1          "Scour Surface"
199.1054   6.2213     5.6458     5.6841     28.6532    0.0933     29.1576    183.2953   0.503      1          "Scour Surface"
199.5989   5.9601     322.3457   321.6213   25.3451    0.0777     25.6987    186.3997   0.494      1          "Scour Surface"
200.4266   5.9292     208.373    207.7156   18.4206    0.0544     17.9818    182.1877   0.4863     1          "Scour Surface"
201.2544   6.0774     32.4328    33.7239    15.5974    0.0466     16.0457    173.8272   0.5786     1          "Scour Surface"
202.4863   6.1599     167.5498   167.9149   15.4188    0.0467     15.0052    181.1401   0.4254     1          "Scour Surface"
202.8399   6.2963     355.699    355.6699   44.7314    0.171      45.164     177.8706   0.4283     1          "Scour Surface"
202.9176   6.3396     300.7863   299.8467   21.9289    0.0699     22.1072    185.8597   0.4189     1          Cross-Bedding
203.0459   6.2264     246.1381   243.7667   10.308     0.0311     10.2071    168.0429   0.441      1          "Scour Surface"
203.2052   6.1928     9.5553     9.6897     24.5696    0.0777     24.9775    181.3643   0.4108     1          Cross-Bedding
203.4034   6.2561     3.6287     3.6812     30.4887    0.101      30.9382    179.3114   0.4513     1          Cross-Bedding
203.7298   6.4072     1.7801     1.6785     23.897     0.0777     24.3887    187.8058   0.496      1          Cross-Bedding
203.928    6.4502     5.4862     5.6841     27.8452    0.0933     28.2694    171.4354   0.4391     1          Cross-Bedding
204.1767   6.3979     5.3128     5.6841     23.9222    0.0777     24.3758    165.3396   0.484      1          Cross-Bedding
204.3477   6.3056     240.0571   235.7555   5.137      0.0155     4.9426     175.05     0.4258     1          "Scour Surface"
204.441    6.3141     333.9971   333.6384   24.1828    0.0777     24.6141    174.7558   0.4679     1          Cross-Bedding
204.6819   6.3786     328.0647   327.6299   23.9817    0.0777     24.2945    179.5708   0.3671     1          Cross-Bedding
204.8723   6.2648     326.1402   325.627    24.3386    0.0777     24.6552    182.547    0.3949     1          Cross-Bedding
205.292    6.1921     220.6546   217.7299   2.6293     0.0078     2.3506     194.66     0.3063     1          "Scour Surface"
205.3892   6.2562     356.0732   355.9265   24.366     0.0777     24.625     190.8089   0.2675     1          Cross-Bedding
205.5485   6.2665     358.1167   357.9294   26.4419    0.0855     26.7352    197.6066   0.31       1          Cross-Bedding
205.6962   6.2839     357.7428   357.6729   28.4258    0.0933     28.7496    184.3594   0.3262     1          Cross-Bedding
205.8866   6.3093     3.6515     3.6812     26.3062    0.0855     26.5994    180.4029   0.2943     1          Cross-Bedding
206.0848   6.2879     353.845    353.6667   24.2653    0.0777     24.5935    187.5113   0.3382     1          Cross-Bedding
206.2635   6.2496     19.5875    19.7041    30.5126    0.101      30.8426    187.7685   0.338      1          Cross-Bedding
206.4695   6.2797     31.5512    31.7212    32.2896    0.1088     32.5282    187.4834   0.2594     1          Cross-Bedding
206.6988   6.4271     31.5086    31.7212    31.7357    0.1088     32.0511    188.4793   0.3449     1          Cross-Bedding
207.0952   6.0705     67.8966    69.7754    10.553     0.0311     10.6227    169.6757   0.3575     1          "Scour Surface"
207.134    6.0734     47.1981    47.7441    29.1847    0.0933     29.3524    161.9069   0.347      1          Cross-Bedding
207.2856   6.3335     39.4101    39.7324    26.2255    0.0855     26.4968    188.9722   0.3154     1          Cross-Bedding
207.8607   6.2621     37.1159    37.7297    12.7526    0.0389     13.0818    194.3303   0.3575     1          "Scour Surface"
207.8996   6.2869     35.4035    35.7268    24.2684    0.0777     24.6122    192.3521   0.3746     1          Cross-Bedding
208.09     6.1549     65.34      65.7695    26.832     0.0855     27.0521    200.9273   0.3107     1          Cross-Bedding
208.191    6.1816     47.4752    47.7441    26.7396    0.0855     27.061     204.5928   0.3494     1          Cross-Bedding
208.3776   6.3772     51.3824    51.7498    30.0454    0.101      30.3898    199.6452   0.4061     1          Cross-Bedding
208.5524   6.2615     70.7193    73.781     5.1761     0.0156     5.4308     204.0009   0.3813     1          "Scour Surface"
208.6185   6.2749     55.4194    55.7554    32.3078    0.1088     32.6079    199.5206   0.369      1          Cross-Bedding
208.8361   6.2297     41.5785    41.7354    30.5867    0.101      30.9139    206.5604   0.3328     1          Cross-Bedding
209.0149   6.157      39.5798    39.7324    34.5827    0.1166     34.9272    201.8751   0.3576     1          Cross-Bedding
209.3141   6.2095     49.397     49.7468    24.5156    0.0777     24.8688    204.9563   0.3897     1          Cross-Bedding
209.5279   6.4443     33.6952    33.7239    23.78      0.0777     24.1537    212.8082   0.3667     1          Cross-Bedding
209.6794   6.3787     33.5154    33.7239    23.9815    0.0777     24.3769    200.303    0.4063     1          Cross-Bedding
209.7766   6.3144     146.2861   149.8894   5.1303     0.0155     4.8742     199.0233   0.4062     1          "Scour Surface"
209.8465   6.3007     41.3688    41.7354    24.2248    0.0777     24.6031    196.6856   0.4132     1          Cross-Bedding
210.0952   6.3606     39.3214    39.7324    19.6402    0.0622     19.9904    196.6054   0.3803     1          Cross-Bedding
210.3012   6.3097     29.5205    29.7183    19.7667    0.0622     20.1615    199.3089   0.401      1          Cross-Bedding
210.6004   6.2355     57.8784    60.0178    7.7584     0.0233     8.181      203.6559   0.5182     1          "Scour Surface"
210.6587   6.3375     27.6836    27.7156    26.2122    0.0855     26.7273    206.0921   0.5191     1          Cross-Bedding
210.8647   6.4205     31.5999    31.7212    23.8526    0.0777     24.2595    204.1709   0.4089     1          Cross-Bedding
210.9968   6.3846     39.3473    39.7324    19.5768    0.0622     20.0318    202.5544   0.4753     1          Cross-Bedding
211.3077   6.2434     332.1518   329.8894   10.2825    0.0311     10.5819    205.2516   0.5132     1          "Scour Surface"
211.432    6.3763     324.5725   323.624    23.9888    0.0777     24.255     201.4906   0.4987     1          Cross-Bedding
211.6613   6.5485     342.4866   341.6499   23.4668    0.0777     23.8072    209.4063   0.4985     1          Cross-Bedding
211.9994   6.3643     337.5945   335.6414   12.5593    0.0388     12.8778    210.6194   0.541      1          Cross-Bedding
212.3375   6.3835     329.0451   327.6299   14.9409    0.0467     15.2488    198.6999   0.4926     1          Cross-Bedding
212.6095   6.4187     300.8855   299.5898   23.8581    0.0777     23.8962    206.3405   0.5782     1          Cross-Bedding
212.7183   6.3884     308.6695   307.6016   23.9514    0.0777     24.0299    208.6653   0.4773     1          Cross-Bedding
213.5111   6.2892     25.3552    25.7126    7.7078     0.0233     8.2033     199.7313   0.4978     1          "Scour Surface"
