~VERSION INFORMATION
 VERS.                 2.0:   CWLS LOG ASCII STANDARD - VERSION 2.0
 WRAP.                  NO:   ONE LINE PER DEPTH STEP
~WELL INFORMATION BLOCK
#MNEM.UNIT    DATA                         DESCRIPTION OF MNEMONIC
#---------  ---------------------------    -----------------------
 STRT.M           425.10          : START DEPTH
 STOP.M           501.13          : STOP DEPTH
 STEP.M             0.01          : STEP VALUE
 NULL.           -999.125         : NULL VALUE
 COMP.       SUNCOR ENERGY INC.                 : COMPANY
 WELL.       SUNCOR ET AL HANGSTN 9-4-85-9      : WELL
 FLD .       NOT AVAILABLE                      : FIELD
 LOC.        1AA090408509W40                    : LOCATION
 PROV.                                          : PROVINCE
 SRVC.       AGAT LABORATORIES                  : SERVICE COMPANY
 DATE.       05/02/2018 9:21:04 AM              : DATE
 UWI .       1AA090408509W40                    : UNIQUE WELL ID
 WNUM.       RC27991                            : WORK ORDER NUMBER
 FRM .       MCMURRAY                           : FORMATION
 REC .M      72.62                              : RECOVERY
 INT .M      425.10-501.13                      : CORED INTERVAL
 DFLD.       WATER BASED MUD                    : DRILLING FLUID
 KB  .       NOT AVAILABLE                      : KB ELEVATION
 GRD .       NOT AVAILABLE                      : GRD ELEVATION
~CURVE INFORMATION BLOCK
 DEPT.M                  :    1        DEPTH
 SMPNO.TXT               :    2        SAMPLE NUMBER
 FACIES.                 :    5        FACIES
 BMF_SO.W/W              :    6        BITUMEN mass fraction
 SV25000.PCNT            :    7        Sieve Retention, 25000 microns, %
 SV19000.PCNT            :    8        Sieve Retention, 19000 microns, %
 SV12500.PCNT            :    9        Sieve Retention, 12500 microns, %
 SV4750.PCNT             :    10       Sieve Retention, 4750 microns, %
 SV2000.PCNT             :    11       Sieve Retention, 2000 microns, %
 CL2000.PCNT             :    12       Coulter, cum. vol. <2000 microns, %
 CL1000.PCNT             :    13       Coulter, cum. vol. <1000 microns, %
 CL850.PCNT              :    14       Coulter, cum. vol. <850 microns, %
 CL500.PCNT              :    15       Coulter, cum. vol. <500 microns, %
 CL425.PCNT              :    16       Coulter, cum. vol. <425 microns, %
 CL250.PCNT              :    17       Coulter, cum. vol. <250 microns, %
 CL180.PCNT              :    18       Coulter, cum. vol. <180 microns, %
 CL150.PCNT              :    19       Coulter, cum. vol. <150 microns, %
 CL125.PCNT              :    20       Coulter, cum. vol. <125 microns, %
 CL75.PCNT               :    21       Coulter, cum. vol. <75 microns, %
 CL63.PCNT               :    22       Coulter, cum. vol. <63 microns, %
 CL44.PCNT               :    23       Coulter, cum. vol. <44 microns, %
 CL31.PCNT               :    24       Coulter, cum. vol. <31 microns, %
 CL20.PCNT               :    25       Coulter, cum. vol. <20 microns, %
 CL16.PCNT               :    26       Coulter, cum. vol. <16 microns, %
 CL11.PCNT               :    27       Coulter, cum. vol. <11 microns, %
 CL7_8.PCNT              :    28       Coulter, cum. vol. <7.8 microns, %
 CL6_6.PCNT              :    29       Coulter, cum. vol. <6.6 microns, %
 CL3_9.PCNT              :    30       Coulter, cum. vol. <3.9 microns, %
 CL2_0.PCNT              :    31       Coulter, cum. vol. <2.0 microns, %
 CL1_3.PCNT              :    32       Coulter, cum. vol. <1.3 microns, %
 CL0.PCNT                :    33       Coulter, cum. vol. <0 microns, %
 PSD_D50.UM              :    34       Interpolated size of 50th percentile, microns
 PSD_D10.UM              :    35       Interpolated size of 10th percentile, microns
 PSD_D40.UM              :    36       Interpolated size of 40th percentile, microns
 PSD_D90.UM              :    37       Interpolated size of 90th percentile, microns
~A    DEPT     SMPNO    FACIES    BMF_SO   SV25000   SV19000   SV12500    SV4750    SV2000    CL2000    CL1000     CL850     CL500     CL425     CL250     CL180     CL150     CL125      CL75      CL63      CL44      CL31      CL20      CL16      CL11     CL7_8     CL6_6     CL3_9     CL2_0     CL1_3       CL0   PSD_D50   PSD_D10   PSD_D40   PSD_D90
# ...
    483.75        32  -999.125  -999.125       0.0       0.0       0.0       0.0       0.0     100.0     100.0     100.0      99.9      99.9      99.8      99.2      98.8      83.0      38.5      35.6      29.5      26.3      24.2      22.3      19.9      17.2      15.6       9.8       3.7       1.8       0.0      87.9       4.0      76.7     136.1
    483.76        32  -999.125  -999.125       0.0       0.0       0.0       0.0       0.0     100.0     100.0     100.0      99.9      99.9      99.8      99.2      98.8      83.0      38.5      35.6      29.5      26.3      24.2      22.3      19.9      17.2      15.6       9.8       3.7       1.8       0.0      87.9       4.0      76.7     136.1
    483.77        32  -999.125  -999.125       0.0       0.0       0.0       0.0       0.0     100.0     100.0     100.0      99.9      99.9      99.8      99.2      98.8      83.0      38.5      35.6      29.5      26.3      24.2      22.3      19.9      17.2      15.6       9.8       3.7       1.8       0.0      87.9       4.0      76.7     136.1
    483.78        32  -999.125  -999.125       0.0       0.0       0.0       0.0       0.0     100.0     100.0     100.0      99.9      99.9      99.8      99.2      98.8      83.0      38.5      35.6      29.5      26.3      24.2      22.3      19.9      17.2      15.6       9.8       3.7       1.8       0.0      87.9       4.0      76.7     136.1
    483.79        32  -999.125  -999.125       0.0       0.0       0.0       0.0       0.0     100.0     100.0     100.0      99.9      99.9      99.8      99.2      98.8      83.0      38.5      35.6      29.5      26.3      24.2      22.3      19.9      17.2      15.6       9.8       3.7       1.8       0.0      87.9       4.0      76.7     136.1
    483.80        32  -999.125  -999.125       0.0       0.0       0.0       0.0       0.0     100.0     100.0     100.0      99.9      99.9      99.8      99.2      98.8      83.0      38.5      35.6      29.5      26.3      24.2      22.3      19.9      17.2      15.6       9.8       3.7       1.8       0.0      87.9       4.0      76.7     136.1
    483.81        32  -999.125  -999.125       0.0       0.0       0.0       0.0       0.0     100.0     100.0     100.0      99.9      99.9      99.8      99.2      98.8      83.0      38.5      35.6      29.5      26.3      24.2      22.3      19.9      17.2      15.6       9.8       3.7       1.8       0.0      87.9       4.0      76.7     136.1
    483.82        32  -999.125  -999.125       0.0       0.0       0.0       0.0       0.0     100.0     100.0     100.0      99.9      99.9      99.8      99.2      98.8      83.0      38.5      35.6      29.5      26.3      24.2      22.3      19.9      17.2      15.6       9.8       3.7       1.8       0.0      87.9       4.0      76.7     136.1
    483.83        32  -999.125  -999.125       0.0       0.0       0.0       0.0       0.0     100.0     100.0     100.0      99.9      99.9      99.8      99.2      98.8      83.0      38.5      35.6      29.5      26.3      24.2      22.3      19.9      17.2      15.6       9.8       3.7       1.8       0.0      87.9       4.0      76.7     136.1
    483.84        32  -999.125  -999.125       0.0       0.0       0.0       0.0       0.0     100.0     100.0     100.0      99.9      99.9      99.8      99.2      98.8      83.0      38.5      35.6      29.5      26.3      24.2      22.3      19.9      17.2      15.6       9.8       3.7       1.8       0.0      87.9       4.0      76.7     136.1
    483.85        32  -999.125  -999.125       0.0       0.0       0.0       0.0       0.0     100.0     100.0     100.0      99.9      99.9      99.8      99.2      98.8      83.0      38.5      35.6      29.5      26.3      24.2      22.3      19.9      17.2      15.6       9.8       3.7       1.8       0.0      87.9       4.0      76.7     136.1
    483.86        32  -999.125  -999.125       0.0       0.0       0.0       0.0       0.0     100.0     100.0     100.0      99.9      99.9      99.8      99.2      98.8      83.0      38.5      35.6      29.5      26.3      24.2      22.3      19.9      17.2      15.6       9.8       3.7       1.8       0.0      87.9       4.0      76.7     136.1
    483.87        32  -999.125  -999.125       0.0       0.0       0.0       0.0       0.0     100.0     100.0     100.0      99.9      99.9      99.8      99.2      98.8      83.0      38.5      35.6      29.5      26.3      24.2      22.3      19.9      17.2      15.6       9.8       3.7       1.8       0.0      87.9       4.0      76.7     136.1
    483.88        32  -999.125  -999.125       0.0       0.0       0.0       0.0       0.0     100.0     100.0     100.0      99.9      99.9      99.8      99.2      98.8      83.0      38.5      35.6      29.5      26.3      24.2      22.3      19.9      17.2      15.6       9.8       3.7       1.8       0.0      87.9       4.0      76.7     136.1
    483.89        32  -999.125  -999.125       0.0       0.0       0.0       0.0       0.0     100.0     100.0     100.0      99.9      99.9      99.8      99.2      98.8      83.0      38.5      35.6      29.5      26.3      24.2      22.3      19.9      17.2      15.6       9.8       3.7       1.8       0.0      87.9       4.0      76.7     136.1
    483.90        32  -999.125  -999.125       0.0       0.0       0.0       0.0       0.0     100.0     100.0     100.0      99.9      99.9      99.8      99.2      98.8      83.0      38.5      35.6      29.5      26.3      24.2      22.3      19.9      17.2      15.6       9.8       3.7       1.8       0.0      87.9       4.0      76.7     136.1
    483.91        32  -999.125  -999.125       0.0       0.0       0.0       0.0       0.0     100.0     100.0     100.0      99.9      99.9      99.8      99.2      98.8      83.0      38.5      35.6      29.5      26.3      24.2      22.3      19.9      17.2      15.6       9.8       3.7       1.8       0.0      87.9       4.0      76.7     136.1
    483.92        32  -999.125  -999.125       0.0       0.0       0.0       0.0       0.0     100.0     100.0     100.0      99.9      99.9      99.8      99.2      98.8      83.0      38.5      35.6      29.5      26.3      24.2      22.3      19.9      17.2      15.6       9.8       3.7       1.8       0.0      87.9       4.0      76.7     136.1
    483.93        32  -999.125  -999.125       0.0       0.0       0.0       0.0       0.0     100.0     100.0     100.0      99.9      99.9      99.8      99.2      98.8      83.0      38.5      35.6      29.5      26.3      24.2      22.3      19.9      17.2      15.6       9.8       3.7       1.8       0.0      87.9       4.0      76.7     136.1
    483.94        32  -999.125  -999.125       0.0       0.0       0.0       0.0       0.0     100.0     100.0     100.0      99.9      99.9      99.8      99.2      98.8      83.0      38.5      35.6      29.5      26.3      24.2      22.3      19.9      17.2      15.6       9.8       3.7       1.8       0.0      87.9       4.0      76.7     136.1
    483.95        32  -999.125  -999.125       0.0       0.0       0.0       0.0       0.0     100.0     100.0     100.0      99.9      99.9      99.8      99.2      98.8      83.0      38.5      35.6      29.5      26.3      24.2      22.3      19.9      17.2      15.6       9.8       3.7       1.8       0.0      87.9       4.0      76.7     136.1
    483.96        32  -999.125  -999.125       0.0       0.0       0.0       0.0       0.0     100.0     100.0     100.0      99.9      99.9      99.8      99.2      98.8      83.0      38.5      35.6      29.5      26.3      24.2      22.3      19.9      17.2      15.6       9.8       3.7       1.8       0.0      87.9       4.0      76.7     136.1
    483.97        32  -999.125  -999.125       0.0       0.0       0.0       0.0       0.0     100.0     100.0     100.0      99.9      99.9      99.8      99.2      98.8      83.0      38.5      35.6      29.5      26.3      24.2      22.3      19.9      17.2      15.6       9.8       3.7       1.8       0.0      87.9       4.0      76.7     136.1
