~Version Information
 VERS.                2.00:   CWLS log ASCII Standard -VERSION 2.00
 WRAP.                  NO:   One line per frame      
~Well Information Block
#MNEM.UNIT                   Data                        Description
#----.----   -----------------------------------------   -------------------------------
 STRT.M                                       27.0000 : Starting Depth
 STOP.M                                      188.0000 : Ending Depth
 STEP.M                                        0.1000 : Level Spacing
 NULL.                                      -999.2500 : Absent Value
 COMP.       SUNCOR ENERGY INC                        : Company
 WELL.       SUNCOR LEWIS 7-22-92-8                   : Well
 FLD .       UNDEFINED                                : Field
 LOC .       LSD 07-22-092-08W4                       : Location
 PROV.       ALBERTA                                  : Province
 CTRY.       CA                                       : Country
 SRVC.       Baker Hughes                             : Service Company
 DATE.       16-JAN-2016                              : Log Date
 UWI .       1AA072209208W400                         : Unique Well ID
 LIC .       0477502                                  : License Number
~Curve Information Block
#MNEM    .UNIT        API Codes     Curve Description
#--------.--------   LG--CV-CL--M   -------------------------------
 DEPT    .M           0   1  0  1 : Depth
 AZSTQH  .deg        99 995 99  1 : Azimuth of reference pad for STAR
 BKRGQH  .dim        99 995 99  1 : Bucker driver value
 DEVSTQH .deg        99 995 99  1 : Deviation for STAR
 DIP1QH  .raw        75 610  1  1 : Pad 1 average data of buttons 11, 12, 13, 14
 DIP2QH  .raw        75 610  1  1 : Pad 2 average data of buttons 11, 12, 13, 14
 DIP3QH  .raw        75 610  1  1 : Pad 3 average data of buttons 11, 12, 13, 14
 DIP4QH  .raw        75 610  1  1 : Pad 4 average data of buttons 11, 12, 13, 14
 DIP5QH  .raw        75 610  1  1 : Pad 5 average data of buttons 11, 12, 13, 14
 DIP6QH  .raw        75 610  1  1 : Pad 6 average data of buttons 11, 12, 13, 14
 GR      .gAPI       30 310  1  1 : Gamma ray
 PADFQH  .pct        94 995 99  1 : Pad force
 PADGQH  .dim        99 995 99  1 : Pad gain code
 RAD1QH  .mm         75 280 99  1 : Radius, tool axis to pad 1 face
 RAD2QH  .mm         75 280 99  1 : Radius, tool axis to pad 2 face
 RAD3QH  .mm         75 280 99  1 : Radius, tool axis to pad 3 face
 RAD4QH  .mm         75 280 99  1 : Radius, tool axis to pad 4 face
 RAD5QH  .mm         75 280 99  1 : Radius, tool axis to pad 5 face
 RAD6QH  .mm         75 280 99  1 : Radius, tool axis to pad 6 face
 RAZGSTQH.mG         99 995 99  1 : Raw Z-axis accelerometer shifted to STAR
 RBSTQH  .deg        99 995 99  1 : Relative bearing (relative to borehole high side) for STAR
 SPD     .m/min      99 636 99  1 : Speed
~Parameter Information Block
#MNEM.UNIT                     Value                    Description
#----.----   ----------------------------------------   -------------------------------
 HID1.       RESISTIVITY IMAGING LOG^T                : Header Identifer
 HID2.       GAMMA RAY LOG                            : Header Identifer
 FILE.       3953                                     : File Number
 CMT1.       UID                                      : Comment 1  
 CMT2.       1AA072209208W400                         : Comment 2  
 CMT3.       LICENSE                                  : Comment 3  
 CMT4.       0477502                                  : Comment 4  
 FL2 .       BH LOC. LSD  07                          : Field Location 2
 SECT.       22                                       : Section
 TOWN.       092                                      : Township
 RANG.       08W4                                     : Range
 OS1 .       ZDL-CN-GR-CAL                            : Other Services Line 1
 OS2 .       HDIL-GR-CAL, CVL                         : Other Services Line 2
 OS3 .       DAL-GR-CAL                               : Other Services Line 3
 OS4 .       COMPOSITE                                : Other Services Line 4
 PDAT.       G.L.                                     : Permanent Datum
 EPD .M      438.50                                   : Elevation Of Perm. Datum
 LMF .       K.B.                                     : Log Measured From
 APD .M      2.20                                     : Above Permanent Datum
 DMF .       KELLY BUSHING                            : Drilling Measured From
 EKB .M      440.70                                   : Elevation Of Kelly Bushing
 EGL .M      438.50                                   : Elevation Of Ground Level
 RUN .       1                                        : Run Number
 TRIP.       1                                        : Trip Number
 SON .       CA003953J                                : Service Order Number
 TDD .M      187.0                                    : Total Depth - Driller
 TDL .M      186.3                                    : Total Depth - Logger
 BLI .M      183.0                                    : Bottom Log Interval
 TLI .M      55.0                                     : Top Log Interval
 CSIZ.MM     177.8                                    : Casing Size
 CBDR.M      49.4                                     : Casing Bottom - Driller
 CBLO.M      49.4                                     : Casing Bottom - Logger
 BS  .MM     156.0                                    : Bit Size
 DFT .       WB (WATER BASE MUD)                      : Drilling Fluid Type
 DFD .G/L    1030.0                                   : Drilling Fluid Density
 DFV .S      79.0                                     : Drilling Fluid Viscosity
 DFPH.       7.0                                      : Drilling Fluid Ph
 DFL .ML     8.0                                      : Drilling Fluid Loss
 MSS .       F (FLOWLINE)                             : Mud Sample Source
 RMS .OHMM   1.2                                      : Resistivity Of Mud Sample
 MST .DEGC   25.0                                     : Mud Sample Temperature
 RMFS.OHMM   1.0                                      : Resistivity Of Mud Filtrate Sample
 MFST.DEGC   25.0                                     : Mud Filtrate Sample Temperature
 RMCS.OHMM   1.4                                      : Resistivity Of Mud Cake Sample
 MCST.DEGC   25.0                                     : Mud Cake Sample Temperature
 MFSS.       CALCULATED                               : Mud Filtrate Sample Source
 MCSS.       CALCULATED                               : Mud Cake Sample Source
 RMB .OHMM   2.0                                      : Mud Resistivity At Bht
 BHT .DEGC   7.0                                      : Bottom Hole Temperature
 TSC .       5.0 HOURS                                : Time Since Circulation
 MRT .DEGC   7.0                                      : Maximum Recorded Temperature
 LUN .       Z004250                                  : Logging Unit Number
 LUL .       LEDUC OH                                 : Logging Unit Location
 ENGI.       A.MALIK                                  : Engineer's Name
 WITN.       H.WILSON / P.ENE                         : Witness' Name
 TSTR.       /STAR/GR/                                : Title Service Mnemonic
 TSTG.       NA                                       : Title Service Mnemonic
 STUS.       FINAL                                    : Status
 LCNM.       BAKER ATLAS                              : Logging Company Name
 LCC .       150                                      : Logging Company Code
 OPMD.       OH.WIRE                                  : Operation Mode
 PANA.       A.MALIK                                  : Processing Analyst
 PCON.       BAKER ATLAS                              : Processing Contractor
 APIN.                                                : API Serial Number
 STAT.                                                : State Or Province
~Other information
LAT/LON  57.0175, -111.419                                                      
TIME STOPPED CIRCULATION  16-JAN-2016 0830AM                                    
STAR RUN WITH 0% PAD FORCE AND AUTOMATICALLY CONTROLLED GAINS                   
ANY STICK AND PULL AFFECTS LOG QUALITY                                          
RIG  ENCORE 402                                                                 
CREW  F.AJAGU, A.MALIK                                                          
#  Curve Data
~A  DEPT        AZSTQH      BKRGQH      DEVSTQH     DIP1QH      DIP2QH      DIP3QH      DIP4QH      DIP5QH      DIP6QH      GR          PADFQH      PADGQH      RAD1QH      RAD2QH      RAD3QH      RAD4QH      RAD5QH      RAD6QH      RAZGSTQH    RBSTQH      SPD       
# ...
     48.7000     36.9872      0.0000      0.2501      4.0000      4.0000     12.0000     22.0000     13.0000      1.0000     71.0314    -76.4292      0.0000     67.7610     67.6914     65.6660     64.5641     70.1485     71.3899   1009.6937    258.2201      3.4773
     48.8000    359.2826      0.0000      0.2501      4.0000      4.0000     11.4016     20.5984     14.0000      0.0000     72.8366    -76.4292      0.0000     67.7610     67.6914     65.6660     64.5641     70.1485     71.3899   1009.6937    258.2201      3.4856
     48.9000     70.7193      0.0000      0.2501      3.0000      3.0000     10.0000     21.0000     17.0000      1.0000     74.1887    -76.4292      0.0000     67.8888     67.6914     65.6660     64.5641     70.1485     71.3899   1008.8755    258.2201      3.4885
     49.0000     70.8539      0.0000      0.2501      3.0000      3.0000      9.0000     21.0000     19.0000      3.0000     75.2936    -76.4292      0.0000     67.8888     67.6914     65.6660     64.5641     70.1485     71.3899   1009.6937    258.2201      3.4854
     49.1000     91.7158      0.0000      0.2501      2.0000      4.0000     10.0000     21.0000     20.0000      4.0000     76.7710    -76.4292      0.0000     67.8888     67.6914     65.6660     64.5641     70.1485     71.3899   1009.6937    258.2201      3.4773
     49.2000    124.1670      0.0000      0.2501      4.0000      3.0000      9.0000     18.0000     21.0000      7.0000     79.0014    -76.4292      0.0000     67.8888     67.6914     65.6660     64.5641     70.1485     71.3899   1008.8755    258.2201      3.4680
     49.3000     71.3220      0.0000      0.2501      0.0000      4.0000      0.0000     15.0000      0.0000     10.0000     81.9464    -76.4292      0.0000     67.8314     67.6914     65.6660     64.5641     70.1485     71.3899   1009.2427    258.2201      3.4612
     49.4000     72.3867      0.0000      0.2501      0.0000      0.0000      0.0000      0.0000      0.0000      0.0000     85.1880    -76.4292      0.0000     67.8888     67.6914     65.6660     64.5641     70.1485     71.3899   1008.8755    258.2201      3.4620
     49.5000     89.6624      0.0000      0.2368      0.0000      0.0000      0.0000      0.0000      0.0000      0.0000     88.0907    -76.4292      0.0000     67.8888     67.6914     65.6660     64.5641     70.1485     71.3899   1008.8755    268.7115      3.4699
     49.6000     86.3139      0.0000      0.2368      0.0000      0.0000      0.0000      0.0000      0.0000      0.0000     90.1882    -76.4292      0.0000     67.7610     67.6914     65.6660     64.5641     70.1485     71.3899   1008.8755    268.7115      3.4814
     49.7000    105.9833      0.0000      0.2368      0.0000      0.0000      0.0000      0.0000      0.0000      0.0000     91.0670    -76.4292      0.0000     67.8888     67.6914     65.6660     64.5641     70.1485     71.3899   1009.6937    268.7115      3.4923
     49.8000    132.8210      0.0000      0.2368      0.0000      0.0000      0.0000      0.0000      0.0000      0.0000     90.7562    -76.4292      0.0000     67.7610     67.6914     65.6660     64.5641     70.1485     71.3899   1009.6937    268.7115      3.5005
     49.9000    115.9669      0.0000      0.2368      0.0000      0.0000      0.0000      0.0000      0.0000      0.0000     89.3744    -76.4292      0.0000     67.7610     67.6914     65.6660     64.5641     70.1485     71.3899   1007.2390    268.7115      3.5066
     50.0000    148.2688      0.0000      0.2368      0.0000      0.0000      0.0000      0.0000      0.0000      0.0000     87.0105    -76.4292      0.0000     67.7610     67.6914     65.6660     64.5641     70.1485     71.3899   1008.0573    268.7115      3.5109
     50.1000    152.0172      0.0000      0.2368      0.0000      0.0000      0.0000      0.0000      0.0000      0.0000     83.8450    -76.4292      0.0000     67.8888     67.6914     65.6660     64.5641     70.1485     71.3899   1010.8470    268.7115      3.5128
     50.2000    126.1783      0.0000      0.2368      0.0000      0.0000      0.0000      0.0000      0.0000      0.0000     79.8632    -76.4292      0.0000     67.8888     67.6914     65.6660     64.5641     70.1485     71.3899   1007.2390    268.7115      3.5118
     50.3000    150.4989      0.0000      0.2322      0.0000      0.0000      0.0000      0.0000      0.0000      0.0000     74.9727    -76.4292      0.0000     67.8888     67.6914     65.6660     64.5641     70.1485     71.3899   1010.5120    280.0215      3.5072
     50.4000    128.6506      0.0000      0.2322      0.0000      0.0000      0.0000      0.0000      0.0000      0.0000     69.5640    -76.4292      0.0000     67.8888     67.9437     65.6660     64.5641     70.1485     71.3899   1009.2685    280.0215      3.5003
     50.5000    113.8952      0.0000      0.2322      0.0000      0.0000      0.0000      0.0000      0.0000      0.0000     64.3745    -76.4292      0.0000     67.8888     67.9437     65.6660     64.5641     70.1485     71.3899   1010.5120    280.0215      3.4942
     50.6000    130.4651      0.0000      0.2322      0.0000      0.0000      0.0000      0.0000      0.0000      0.0000     60.0023    -76.3229      0.0000     67.8888     67.8176     65.6660     64.5641     70.1485     71.3899   1011.3301    280.0215      3.4913
     50.7000     82.8149      0.0000      0.2368      0.0000      0.0000      0.0000      0.0000      0.0000      0.0000     57.0047    -76.3229      0.0000     67.8888     67.6914     65.6660     64.5641     70.1485     71.3899   1010.5120    268.7115      3.4933
     50.8000     93.7091      0.0000      0.1915      0.0000      0.0000      0.0000      0.0000      0.0000      0.0000     55.1972    -76.3229      0.0000     67.8888     67.6914     65.6660     64.5641     70.1485     71.3899   1010.5120    265.9852      3.4982
     50.9000    112.1658      0.0000      0.1857      0.0000      0.0000      0.0000      0.0000      0.0000      0.0000     54.4414    -76.3229      0.0000     67.8888     67.6914     65.6660     64.5641     70.1485     71.3899   1004.7843    280.0215      3.5040
     51.0000    104.9912      0.0000      0.1857      0.0000      0.0000      0.0000      0.0000      0.0000      0.0000     54.9847    -76.4292      0.0000     67.8888     67.6914     65.6660     64.5641     70.1485     71.3899   1005.6026    280.0215      3.5076
     51.1000    135.5872      0.0000      0.1914      0.0000      0.0000      0.0000      0.0000      0.0000      0.0000     57.0260    -76.3229      0.0000     67.8888     67.6914     65.9246     64.5641     70.2765     71.3899   1016.2395    294.0577      3.5084
     51.2000    151.6397      0.0000      0.1915      0.0000      0.0000      0.0000      0.0000      0.0000      0.0000     60.8396    -75.7917      0.0000     68.3998     68.1304     66.5040     66.1025     71.4282     72.3935   1008.8755    294.0577      3.5070
     51.3000    137.0859      0.0000      0.1915      0.0000      0.0000      0.0000      0.0000      0.0000      0.0000     66.4804    -74.5168      0.0000     70.4439     68.8267     67.4763     66.2308     73.3477     73.2716   1000.6932    294.0577      3.5040
     51.4000    154.2151      0.0000      0.1915      0.0000      0.0000      0.0000      0.0000      0.0000      0.0000     72.8755    -73.1356      0.0000     71.5937     68.9528     67.8642     66.3590     74.6274     73.8989   1008.0573    294.0577      3.5005
     51.5000    149.9408      0.0000      0.1915      0.0000      0.0000      0.0000      0.0000      0.0000      0.0000     78.7526    -71.7544      0.0000     72.7435     69.4573     68.6400     66.6154     75.3428     73.8989   1009.6937    294.0577      3.4969
     51.6000    138.2236      0.0000      0.1915      0.0000      0.0000      0.0000      0.0000      0.0000      0.0000     82.9126    -70.1607      0.0000     72.7435     69.8357     69.1572     67.6410     75.9071     74.9025   1002.3297    294.0577      3.4932
     51.7000    161.0225      0.0000      0.1915      0.0000      0.0000      0.0000      0.0000      0.0000      0.0000     85.0661    -68.5670      0.0000     72.7435     70.7187     70.7088     68.7949     76.4190     75.0280   1004.7843    294.0577      3.4898
