~VERSION INFORMATION 
VERS.          2.0   :CWLS LOG ASCII STANDARD - VERSION 2.0
WRAP.          NO    :ONE LINE PER DEPTH STEP
PROD.  Schlumberger   :LAS Producer
PROG.  DLIS to ASCII 19C2-270                          :LAS Program name and version
CREA.        2014/02/23 09:08                          :LAS Creation date {YYYY/MM/DD hh:mm}
DLIS_CREA.  2014-Feb-23 08:51                          :DLIS Creation date and time {YYYY-MMM-DD hh:mm}
SOURCE.     1AA063409108W400_FMI_SONIC_REPEAT.dlis     :DLIS File Name
FILE-ID.     ConPr_R2L2Up_S008_FBST_DSLT_HGNS          :File Identification Number
#--------------------------------------------------
~WELL INFORMATION 
#MNEM.UNIT      DATA             DESCRIPTION
#---- ------ --------------   -----------------------------
STRT.M      88.69680        :START DEPTH
STOP.M      258.01320       :STOP DEPTH
STEP.M       0.15240        :STEP
NULL .          -999.25      :NULL VALUE
COMP.        SUNCOR ENERGY INC.                       :COMPANY
WELL.        SUNCOR LEWIS 6-34-91-8                   :WELL
FLD  .        LEWIS                                    :FIELD
LOC.        6-34-91-8W4                              :LOCATION
PROV .        ALBERTA                                  :PROVINCE
UWI.        1AA063409108W400                         :UNIQUE WELL ID
LIC  .        0464072                                  :LICENSE NUMBER
CTRY .        CA                                       :COUNTRY (WWW code)
DATE.        23-Feb-2014                              :LOG DATE {DD-MMM-YYYY}
SRVC .        Schlumberger                             :SERVICE COMPANY
LATI .DEG     56.934500 degrees                        :LATITUDE
LONG .DEG     -111.20540 degrees                       :LONGITUDE
GDAT .                                                 :GeoDetic Datum
SECT .        06-34                                    :Section
RANG .        08W4                                     :Range
TOWN .        091                                      :Township
#-----------------------------------------------------------------------------
~CURVE INFORMATION 
#MNEM.UNIT   API CODE                                  DESCRIPTION
#---- -----  --------                                  -----------------------
 DEPT.M         00 001 00 00             :Depth Index - Measured Depth
   BS.MM        61 280 07 00             :BIT SIZE {F14.5}
   C1.MM        42 280 06 00             :CALIPER 1 {F14.5}
   C2.MM        42 280 05 00             :CALIPER 2 {F14.5}
DEPTH.M         00 001 00 00             :DEPTH INDEX {F14.5}
DEVIM.DEG       00 630 00 00             :MEMORIZED DEVIATION {F14.5}
   DT.US/M      60 520 32 00             :DELTA-T (ALSO CALLED SLOWNESS OR INTERVAL TRANSIT TIME) {F14.5}
   EI.MA        00 000 00 00             :EMEX CURRENT {F14.5}
   EV.V         00 000 00 00             :EMEX VOLTAGE {F14.5}
 FBCR.OHMS      00 000 00 00             :CORRELATION RESISTANCE {F14.5}
   GR.GAPI      42 310 01 00             :GAMMA RAY {F14.5}
 HAZI.DEG       00 620 00 00             :HOLE AZIMUTH RELATIVE TO TRUE NORTH {F14.5}
HAZIM.DEG       00 620 00 00             :HOLE AZIMUTH RELATIVE TO TRUE NORTH {F14.5}
 P1AZ.DEG       00 630 00 00             :PAD 1 AZIMUTH IN HORIZONTAL PLANE (0 = TRUE NORTH) {F14.5}
P1NO_FBST.DEG   00 000 00 00             :PAD 1 AZIMUTH IN PLANE ORTHOGONAL TO TOOL AXIS (0 = TRUE NORTH), MEMORIZED TO FBST {F14.5}
   RB.DEG       00 631 00 00             :RELATIVE BEARING {F14.5}
 SDEV.DEG       00 000 00 00             :SONDE DEVIATION {F14.5}
 TENS.N         61 280 10 00             :CABLE TENSION {F14.5}
  TT1.US        60 520 32 01             :TRANSIT TIME 1 {F14.5}
  TT2.US        60 520 32 02             :TRANSIT TIME 2 {F14.5}
  TT3.US        60 520 32 03             :TRANSIT TIME 3 {F14.5}
  TT4.US        60 520 32 04             :TRANSIT TIME 4 {F14.5}
~PARAMETER INFORMATION 
#MNEM.UNIT    VALUE                      DESCRIPTION
#---- -----   --------------------       ------------------------
 CSGD.M       72.80000                   :Casing Bottom of Driller
 CSGL.M       73.20000                   :Logger Casing Shoe Depth
 CSGS.MM      177.80000                  :Current Casing Size
 CSGW.KG/M    25.30000                   :Casing Weight
 MUDD.K/M3    1090.00000                 :Drilling Fluid Density
  DFL.C3      6.00000                    :Drilling Fluid Loss
   PH.        10.00000                   :Drilling Fluid pH
  MUD.        Polymer                    :Drilling Fluid Type
 MUDV.S       108.00000                  :Drilling Fluid Viscosity
   GL.M       445.00000                  :Elevation of Ground Level
 EREF.M       449.00000                  :Elevation of Kelly Bushing
  ENG.        NICK POLLEY                :Engineer s Name
 DREF.        KB                         :Logging Measured From (Name of Logging Elevation Reference)
 BASE.        WINTER PROJECT             :LOGGING UNIT LOCATION
 FACT.        CP4P-00020                 :Service Order Number
  LIC.        0464072                    :API Well Number
 PROV.        ALBERTA                    :County or Parish
 UNIT.        3125                       :Logging Unit Number
 RMCT.DEGC    8.73000                    :Mudcake Sample Temperature
 RMFT.DEGC    8.73000                    :Mud Filtrate Sample Temperature
 TMAX.DEGC    12.28000                   :Maximum Recorded Temperature
 MUDS.        Flowline                   :Mud Sample Source
  RMT.DEGC    8.73000                    :Mud Sample Temperature
RANGE.        08W4                       :Range
  RMC.OHMM    1.18000                    :Resistivity of Mud Cake Sample
  RMF.OHMM    0.59200                    :Resistivity of Mud Filtrate Sample
   RM.OHMM    0.78900                    :Resistivity of Mud Sample
SECTION.      06-34                      :Section
 TIMC.        01 55 00                   :Time Circulation Stopped
 TIML.        07 55 00                   :Time Logger At Bottom
TOWNSHIP.     091                        :Township
  WIT.        JONATHAN FELL              :Witness s Name
  APD.M       4.00000                    :Elevation of Depth Reference (LMF) Above Permanent Datum
 APIN.        0464072                    :API Well Number
  BHT.DEGC    12.28000                   :Bottom Hole Temperature
  BLI.M       256.00000                  :Bottom Log Interval
   BS.MM      156.00000                  :Bit Size
   CN.        SUNCOR ENERGY INC.         :Company Name
 COUN.        ALBERTA                    :County or Parish
 LDAT.        23-Feb-2014                :Tools Above Rotary Table Date
  DCS.        23-Feb-2014                :Date Circulation Stopped
  DFL.C3      6.00000                    :Drilling Fluid Loss
 DLAB.        23-Feb-2014                :Date Logger At Bottom
  DMF.        KB                         :Drilling Measured From (Name of Drilling Elevation Reference)
  EDF.M       448.70001                  :Elevation of Drill Floor
  EGL.M       445.00000                  :Elevation of Ground Level
  EKB.M       449.00000                  :Elevation of Kelly Bushing
   FD.K/M3    1000.00000                 :Fluid Density
   FL.        6-34-91-8W4               :FIELD LOCATION
  FL1.        1AA063409108W400           :Field Location, Line 1
  FL2.                                   :Field Location, Line 2
   FN.        LEWIS                      :Field Name
 HID1.                                   :Header Identifier 1
 HID2.                                   :Header Identifier 2
 HIDE.        LEWIS                      :Header Identifier
 LATI.        56.934500 degrees          :Latitude
  LMF.        KB                         :Logging Measured From (Name of Logging Elevation Reference)
 LONG.        -111.20540 degrees         :Longitude
 MATR.        SAND                       :Rock Matrix for Neutron Porosity Corrections
 MCSS.        Calculated                 :Mudcake Sample Source
 MDEC.DEG     14.38033                   :Magnetic Field Declination
 MDEN.K/M3    2650.00000                 :Matrix Density for Density Porosity
 MRT1.DEGC    12.28000                   :Maximum Recorded Temperature 1
 MRT2.DEGC    -999.25000                 :Maximum Recorded Temperature 2
  NMT.        NOBARITE                   :HRDD Mud Type for Nuclear Devices
  OS1.                                   :Other Services Line 1
  OS2.                                   :Other Services Line 2
  OS3.                                   :Other Services Line 3
  OS4.                                   :Other Services Line 4
  OS5.                                   :Other Services Line 5
 PDAT.        GL                         :Permanent Datum
   R1.        THANK YOU FOR CHOOSING SCHLUMBERGER  :Remarks Line 1
   R2.        ALL TOOLS RAN AS PER TOOL SKETCH AND ALL PRESENTATIONS AS PER CLIENT REQUEST  :Remarks Line 2
   R3.        INDUCTION LOG – DESCENT #1 :Remarks Line 3
   R4.        NEUTRON / DENSITY LOG – DESCENT #1  :Remarks Line 4
  RMB.OHMM    0.70618                    :Resistivity of Mud at Bottom Hole Temperature
 RMFB.OHMM    0.52986                    :Resistivity of Mud Filtrate At Bottom Hole Temperature
  RUN.        ONE/2                      :Run Number
  SON.        CP4P-00020                 :SERVICE ORDER NUMBER
  TDD.M       256.00000                  :Driller Total Depth
  TDL.M       256.00000                  :Logger Total Depth
  TLI.M       75.00000                   :Top Log Interval
 UWID.        1AA063409108W400           :Unique Well Identifier
   WN.        SUNCOR LEWIS 6-34-91-8     :Well Name
  EPD.C3      445.000000                 :Elevation of Permanent Datum above Mean Sea Level
#-----------------------------------------------------------------------------
#
#      DEPT          BS            C1            C2            DEPTH         DEVIM         DT            EI            EV            FBCR          GR            HAZI          HAZIM         P1AZ        P1NO_FBST       RB            SDEV          TENS          TT1           TT2           TT3           TT4
#
#-----------------------------------------------------------------------------

~A       DEPT           BS           C1           C2        DEPTH        DEVIM           DT           EI           EV         FBCR           GR         HAZI        HAZIM         P1AZ    P1NO_FBST           RB         SDEV         TENS          TT1          TT2          TT3          TT4
# ...
    144.17040     156.00000     149.42792     147.33305     144.17230       0.44989     402.20505    2948.16211       9.90295  151000.87500      89.70705     224.40393     228.46429     204.86086     200.95404     340.45856       0.48277    5950.83105     758.46234     508.57428     756.03156     505.10852
    144.32280     156.00000     148.19922     147.65475     144.32317       0.44473     402.61401    2910.67065       9.94194  155839.43750      87.93938     224.41679     228.50641     201.55487     202.27568     337.13910       0.48327    5617.21436     755.63898     503.89355     753.10242     504.27582
    144.47520     156.00000     146.97052     146.36787     144.47235       0.43953     400.86475    2908.96704       9.88346  162737.17188      82.28611     224.47707     228.43051     200.02872     201.21745     335.55234       0.48485    5617.80762     753.22046     506.21146     751.20844     504.92999
    144.62760     156.00000     149.42792     146.68958     144.62839       0.43227     404.00647    2946.45776       9.86396  167851.00000      88.95583     224.59050     228.45656     201.93076     200.92560     337.34030       0.48674    5438.78516     749.27765     504.89169     747.17322     503.22092
    144.78000     156.00000     149.42792     147.33305     144.78427       0.42580     401.39957    2944.75366       9.80548  149216.39063      94.40147     224.76372     228.30609     201.88251     201.82843     337.12253       0.48842    5573.32520     748.49799     504.03696     746.05426     503.30383
    144.93240     156.00000     149.42792     147.65475     144.93227       0.41969     398.81232    2948.16211       9.74700  181669.21875      97.04314     224.93359     228.11432     200.78055     202.91989     335.84741       0.49021    5830.72900     746.58240     503.75153     744.97174     502.31714
    145.08480     156.00000     149.42792     147.65475     145.08246       0.41447     399.73853    2941.34570       9.70801  154179.85938      93.98108     225.04095     227.78517     201.30867     204.58562     336.26862       0.49106    5443.73389     746.35950     502.07968     745.16205     500.91687
    145.23720     156.00000     149.42792     148.94162     145.23799       0.41149     396.75836    2944.75366       9.64953  128347.10938      90.89336     225.24049     227.41464     202.48294     205.79089     337.24127       0.49086    5816.04980     746.04608     503.16696     744.59735     502.02478
    145.38960     156.00000     149.42792     146.36787     145.39403       0.40983     396.62231    2941.34570       9.63004  168951.87500      88.61423     225.28334     226.98654     203.59323     206.08124     338.31116       0.48937    5300.79736     744.99921     500.85181     744.12915     499.75049
    145.54200     156.00000     147.58487     148.29820     145.54643       0.41007     398.65973    2946.45776       9.59105  157631.82813      86.93472     225.40971     226.53487     205.40167     206.40111     339.99136       0.48673    5366.63135     746.84875     500.94342     745.54120     501.27838
    145.69440     156.00000     143.89876     147.65475     145.69376       0.41163     399.44189    2977.13281       9.55206  164168.78125      86.50353     225.56598     226.06261     205.83133     208.04164     340.26688       0.48332    5203.14844     743.50568     504.11865     741.57306     503.46735
    145.84680     156.00000     144.20595     145.08096     145.84361       0.41293     399.23804    2977.13281       9.55206  170520.48438      88.14859     225.76180     225.69124     206.40712     209.77708     340.64734       0.47960    5461.22998     742.59583     504.59909     741.61969     503.04367
    145.99920     156.00000     143.89876     145.08096     145.99602       0.41343     399.15024    2978.83643       9.53257  163040.85938      89.10856     226.04584     225.37785     206.94548     209.86731     340.89990       0.47634    5267.58398     744.62170     502.52420     743.50922     500.41122
    146.15160     156.00000     144.20595     145.08096     146.14842       0.41251     396.38867    2975.42847       9.55206  161900.78125      93.77885     226.33167     225.06941     208.98630     210.79425     342.65488       0.47297    5307.91455     745.04315     501.16202     743.86151     499.39459
    146.30400     156.00000     144.51311     145.40269     146.30081       0.40922     394.69727    2980.54102       9.51307  163977.01563      91.89362     226.64874     224.71214     210.05983     211.67567     343.41266       0.46994    5543.07715     744.58307     499.22330     742.23975     498.39624
    146.45640     156.00000     144.51311     145.72443     146.45271       0.40380     394.00650    2980.54102       9.55206  158425.65625      91.43020     226.99678     224.25671     210.25415     214.03618     343.25861       0.46766    5425.94092     744.06641     497.51105     742.83008     498.61377
    146.60880     156.00000     145.12746     146.36787     146.60689       0.39595     395.45828    2977.13281       9.57155  173885.29688      84.49433     227.34245     223.77008     211.01306     215.04086     343.67081       0.46556    5869.70654     743.71942     499.38916     742.26862     498.77655
    146.76120     156.00000     144.51311     147.65475     146.76106       0.38757     397.90182    2977.13281       9.59105  168446.95313      83.74049     227.58711     222.95367     212.92720     217.83626     345.34052       0.46365    6033.86426     743.65143     498.64624     744.09363     500.50842
    146.91360     156.00000     144.51311     146.04616     146.91211       0.37931     399.36566    2943.04980       9.64953  180923.85938      85.97921     227.79913     222.08757     214.51007     220.73250     346.71213       0.46224    5675.33789     744.79657     501.31320     744.69794     501.99994
    147.06600     156.00000     142.67007     143.15063     147.06265       0.37065     400.99033    2978.83643       9.66902  167641.40625      85.72776     227.97260     221.12744     216.26530     221.10059     348.29160       0.46041    5233.18457     748.85034     503.61856     749.86523     504.08249
    147.21840     156.00000     143.89876     143.15063     147.21902       0.36307     402.83072    2943.04980       9.72751  202263.65625      88.86971     228.07027     219.78340     219.38437     219.75267     351.31287       0.45864    5323.96533     754.41345     503.90564     754.39490     504.43564
    147.37080     156.00000     144.51311     145.08096     147.37523       0.36120     402.14087    2943.04980       9.76649  199771.31250      86.59151     228.20131     219.09367     220.73317     218.06685     352.53076       0.45739    5845.85303     753.98615     507.98074     753.16107     508.06265
    147.52320     156.00000     143.28441     143.79408     147.52475       0.36138     408.69183    2946.45776       9.84447  208112.79688      84.47089     228.23314     218.69768     221.10127     216.79845     352.86847       0.45523    6067.67090     753.26868     510.82541     751.96027     511.10983
    147.67560     156.00000     143.28441     143.15063     147.67410       0.36224     412.68301    2946.45776       9.88346  170149.10938      83.61459     228.33760     218.55788     219.75331     215.13570     351.41586       0.45310    6104.44287     753.98572     510.55972     752.86346     509.71927
    147.82800     156.00000     144.51311     140.57684     147.82767       0.36368     408.22601    2912.37500       9.94194  196428.51563      84.00743     228.32448     218.67615     218.06743     214.55028     349.74420       0.45027    6160.23096     757.43536     509.30960     756.68713     507.75305
    147.98040     156.00000     146.97052     143.15063     147.98094       0.36564     405.74161    2951.57080       9.98093  273847.71875      86.95294     228.40469     218.83853     216.79897     215.27589     348.39490       0.44447    6302.24072     759.55542     506.29504     757.16553     506.43246
