~Version Information
 VERS.                2.00:   CWLS log ASCII Standard -VERSION 2.00
 WRAP.                  NO:   One line per frame      
~Well Information Block
#MNEM.UNIT                   Data                        Description
#----.----   -----------------------------------------   -------------------------------
 STRT.M                                       27.0000 : Starting Depth
 STOP.M                                      188.0000 : Ending Depth
 STEP.M                                        0.1000 : Level Spacing
 NULL.                                      -999.2500 : Absent Value
 COMP.       SUNCOR ENERGY INC                        : Company
 WELL.       SUNCOR LEWIS 7-22-92-8                   : Well
 FLD .       UNDEFINED                                : Field
 LOC .       LSD 07-22-092-08W4                       : Location
 PROV.       ALBERTA                                  : Province
 CTRY.       CA                                       : Country
 SRVC.       Baker Hughes                             : Service Company
 DATE.       16-JAN-2016                              : Log Date
 UWI .       1AA072209208W400                         : Unique Well ID
 LIC .       0477502                                  : License Number
~Curve Information Block
#MNEM    .UNIT        API Codes     Curve Description
#--------.--------   LG--CV-CL--M   -------------------------------
 DEPT    .M           0   1  0  1 : Depth
 AZSTQH  .deg        99 995 99  1 : Azimuth of reference pad for STAR
 BKRGQH  .dim        99 995 99  1 : Bucker driver value
 DEVSTQH .deg        99 995 99  1 : Deviation for STAR
 DIP1QH  .raw        75 610  1  1 : Pad 1 average data of buttons 11, 12, 13, 14
 DIP2QH  .raw        75 610  1  1 : Pad 2 average data of buttons 11, 12, 13, 14
 DIP3QH  .raw        75 610  1  1 : Pad 3 average data of buttons 11, 12, 13, 14
 DIP4QH  .raw        75 610  1  1 : Pad 4 average data of buttons 11, 12, 13, 14
 DIP5QH  .raw        75 610  1  1 : Pad 5 average data of buttons 11, 12, 13, 14
 DIP6QH  .raw        75 610  1  1 : Pad 6 average data of buttons 11, 12, 13, 14
 GR      .gAPI       30 310  1  1 : Gamma ray
 PADFQH  .pct        94 995 99  1 : Pad force
 PADGQH  .dim        99 995 99  1 : Pad gain code
 RAD1QH  .mm         75 280 99  1 : Radius, tool axis to pad 1 face
 RAD2QH  .mm         75 280 99  1 : Radius, tool axis to pad 2 face
 RAD3QH  .mm         75 280 99  1 : Radius, tool axis to pad 3 face
 RAD4QH  .mm         75 280 99  1 : Radius, tool axis to pad 4 face
 RAD5QH  .mm         75 280 99  1 : Radius, tool axis to pad 5 face
 RAD6QH  .mm         75 280 99  1 : Radius, tool axis to pad 6 face
 RAZGSTQH.mG         99 995 99  1 : Raw Z-axis accelerometer shifted to STAR
 RBSTQH  .deg        99 995 99  1 : Relative bearing (relative to borehole high side) for STAR
 SPD     .m/min      99 636 99  1 : Speed
~Parameter Information Block
#MNEM.UNIT                     Value                    Description
#----.----   ----------------------------------------   -------------------------------
 HID1.       RESISTIVITY IMAGING LOG^T                : Header Identifer
 HID2.       GAMMA RAY LOG                            : Header Identifer
 FILE.       3953                                     : File Number
 CMT1.       UID                                      : Comment 1  
 CMT2.       1AA072209208W400                         : Comment 2  
 CMT3.       LICENSE                                  : Comment 3  
 CMT4.       0477502                                  : Comment 4  
 FL2 .       BH LOC. LSD  07                          : Field Location 2
 SECT.       22                                       : Section
 TOWN.       092                                      : Township
 RANG.       08W4                                     : Range
 OS1 .       ZDL-CN-GR-CAL                            : Other Services Line 1
 OS2 .       HDIL-GR-CAL, CVL                         : Other Services Line 2
 OS3 .       DAL-GR-CAL                               : Other Services Line 3
 OS4 .       COMPOSITE                                : Other Services Line 4
 PDAT.       G.L.                                     : Permanent Datum
 EPD .M      438.50                                   : Elevation Of Perm. Datum
 LMF .       K.B.                                     : Log Measured From
 APD .M      2.20                                     : Above Permanent Datum
 DMF .       KELLY BUSHING                            : Drilling Measured From
 EKB .M      440.70                                   : Elevation Of Kelly Bushing
 EGL .M      438.50                                   : Elevation Of Ground Level
 RUN .       1                                        : Run Number
 TRIP.       1                                        : Trip Number
 SON .       CA003953J                                : Service Order Number
 TDD .M      187.0                                    : Total Depth - Driller
 TDL .M      186.3                                    : Total Depth - Logger
 BLI .M      183.0                                    : Bottom Log Interval
 TLI .M      55.0                                     : Top Log Interval
 CSIZ.MM     177.8                                    : Casing Size
 CBDR.M      49.4                                     : Casing Bottom - Driller
 CBLO.M      49.4                                     : Casing Bottom - Logger
 BS  .MM     156.0                                    : Bit Size
 DFT .       WB (WATER BASE MUD)                      : Drilling Fluid Type
 DFD .G/L    1030.0                                   : Drilling Fluid Density
 DFV .S      79.0                                     : Drilling Fluid Viscosity
 DFPH.       7.0                                      : Drilling Fluid Ph
 DFL .ML     8.0                                      : Drilling Fluid Loss
 MSS .       F (FLOWLINE)                             : Mud Sample Source
 RMS .OHMM   1.2                                      : Resistivity Of Mud Sample
 MST .DEGC   25.0                                     : Mud Sample Temperature
 RMFS.OHMM   1.0                                      : Resistivity Of Mud Filtrate Sample
 MFST.DEGC   25.0                                     : Mud Filtrate Sample Temperature
 RMCS.OHMM   1.4                                      : Resistivity Of Mud Cake Sample
 MCST.DEGC   25.0                                     : Mud Cake Sample Temperature
 MFSS.       CALCULATED                               : Mud Filtrate Sample Source
 MCSS.       CALCULATED                               : Mud Cake Sample Source
 RMB .OHMM   2.0                                      : Mud Resistivity At Bht
 BHT .DEGC   7.0                                      : Bottom Hole Temperature
 TSC .       5.0 HOURS                                : Time Since Circulation
 MRT .DEGC   7.0                                      : Maximum Recorded Temperature
 LUN .       Z004250                                  : Logging Unit Number
 LUL .       LEDUC OH                                 : Logging Unit Location
 ENGI.       A.MALIK                                  : Engineer's Name
 WITN.       H.WILSON / P.ENE                         : Witness' Name
 TSTR.       /STAR/GR/                                : Title Service Mnemonic
 TSTG.       NA                                       : Title Service Mnemonic
 STUS.       FINAL                                    : Status
 LCNM.       BAKER ATLAS                              : Logging Company Name
 LCC .       150                                      : Logging Company Code
 OPMD.       OH.WIRE                                  : Operation Mode
 PANA.       A.MALIK                                  : Processing Analyst
 PCON.       BAKER ATLAS                              : Processing Contractor
 APIN.                                                : API Serial Number
 STAT.                                                : State Or Province
~Other information
LAT/LON  57.0175, -111.419                                                      
TIME STOPPED CIRCULATION  16-JAN-2016 0830AM                                    
STAR RUN WITH 0% PAD FORCE AND AUTOMATICALLY CONTROLLED GAINS                   
ANY STICK AND PULL AFFECTS LOG QUALITY                                          
RIG  ENCORE 402                                                                 
CREW  F.AJAGU, A.MALIK                                                          
#  Curve Data
~A  DEPT        AZSTQH      BKRGQH      DEVSTQH     DIP1QH      DIP2QH      DIP3QH      DIP4QH      DIP5QH      DIP6QH      GR          PADFQH      PADGQH      RAD1QH      RAD2QH      RAD3QH      RAD4QH      RAD5QH      RAD6QH      RAZGSTQH    RBSTQH      SPD       
# ...
    154.1000    209.5797     10.0000      0.4381    317.0000    461.0000    408.0000    409.0000    278.0000    185.0000     19.1987      1.1304      6.0000     77.3428     74.8811     77.0446     77.7692     82.9454     79.6697   1012.1484    132.0269      3.4864
    154.2000    210.0776     10.0000      0.4381    545.0000    335.0000    489.0000    390.0000    526.0000    138.0000     18.2534      1.1304      6.0000     77.8538     74.5027     76.9153     77.7692     83.4573     79.1679   1012.1484    132.0269      3.4866
    154.3000    209.4457     10.0000      0.4381    327.0000    434.0000    302.0000    415.0000    316.0000    250.0000     17.7017      1.1304      6.0000     77.8538     76.2686     77.1739     79.1795     83.4573     82.6805   1001.5114    132.0269      3.4836
    154.4000    208.4114     10.0000      0.4380    341.2047    338.9685    345.6063    268.1968    326.1890     33.5748     17.5632      1.1304      6.0000     78.9272     73.6952     76.3981     76.4872     83.3031     80.5478   1005.1129    132.0269      3.4796
    154.5000    209.5797     10.0000      0.4381    309.0000    289.0000    259.0000    285.0000    271.0000    143.0000     17.7774      1.1304      6.0000     78.2371     75.3857     76.2688     79.6923     82.9454     81.9278   1003.9661    132.0269      3.4778
    154.6000    209.8953     10.0000      0.4380    158.0000    160.0000    103.0000    136.0000    186.0000     24.0000     18.3474      1.2366      5.0000     77.5983     74.6288     76.7860     77.7692     82.5615     79.0424   1009.6937    132.0269      3.4790
    154.7000    208.9961     10.0000      0.4381    256.4646    135.5591    497.3937    180.5118    142.9764    130.4882     19.2477      1.2366      5.0000     77.4052     74.5057     76.7229     76.9344     82.5615     79.1679   1004.3655    132.0269      3.4808
    154.8000    209.3115     10.0000      0.4381    203.0000    432.0000    238.0000    262.0000    121.0000     23.0000     20.2415      1.2366      5.0000     77.3428     74.6288     76.7860     77.2564     82.0496     79.0424   1008.8755    132.0269      3.4815
    154.9000    209.3115     10.0000      0.4381    141.0000    234.0000    127.0000    133.0000     75.0000     13.0000     21.1407      1.1304      4.0000     77.4706     75.5118     76.7860     77.2564     82.0496     77.1606   1012.9667    132.0269      3.4825
    155.0000    209.5797     10.0000      0.4380    141.0000    149.0000    143.0000    147.0000    111.0000     39.0000     21.9383      1.2366      4.0000     78.4926     77.0254     77.1739     76.3590     81.2818     77.5370   1008.8755    132.0269      3.4860
    155.1000    208.7267     10.0000      0.4379     95.0000    129.0000    102.0000    108.0000     58.0000     85.0000     22.6931      1.2366      3.0000     79.1314     77.5299     77.1739     75.8461     82.0496     76.5334   1017.0578    132.0269      3.4918
    155.2000    207.9613      9.0000      0.4381     81.0000     65.0000     33.0000     61.0000     31.0000     10.0000     23.4665      1.2366      3.0000     77.2151     75.0072     77.1739     78.6666     84.6090     81.4260   1010.5120    132.0269      3.4968
    155.3000    207.3755      8.0000      0.4381    171.0000     27.0000    169.0000     23.0000    133.0000      7.0000     24.3551      1.2366      3.0000     76.8318     74.1243     75.2344     77.7692     84.6090     79.0424   1002.3297    132.0269      3.4963
    155.4000    206.9253      8.0000      0.4381    118.0000    224.0000    179.0000    204.0000    194.0000    184.0000     25.4117      1.1304      3.0000     76.8318     73.6198     74.8465     76.8718     83.8412     78.1642   1008.8755    132.0269      3.4875
    155.5000    206.1831     10.0000      0.4380    463.1890    846.3307    438.7165    464.1732    428.4567    660.5748     26.3886      1.1304      3.0000     76.5159     73.6198     74.9758     76.4872     82.5615     77.5370   1003.0126    132.0269      3.4772
    155.6000    205.1641     10.0000      0.4153    450.0000    273.0000    418.0000    519.0000    945.0000    470.0000     26.8514      1.1304      3.0000     76.3208     73.6198     75.1051     77.1282     83.0734     78.0388   1015.4213    126.5865      3.4727
    155.7000    205.1269     10.0000      0.4154    281.0000    451.0000    327.0000    724.0000    729.0000    417.0000     26.2392      1.2366      3.0000     76.0652     73.7459     75.4930     76.8718     82.9454     79.1679   1012.9667    126.5865      3.4783
    155.8000    205.3016     10.0000      0.4153    162.8425    620.3779    366.0157   1023.0000    185.1732    810.1890     24.8671      1.1304      4.0000     75.3731     74.1243     75.8056     76.4872     83.3081     79.2202   1011.8069    126.5865      3.4866
    155.9000    205.6143     10.0000      0.4381    318.0000    226.0000    209.0000    362.0000    375.0000    117.0000     23.3198      1.2366      5.0000     75.0432     74.1243     75.7516     77.6410     82.9454     79.6697    994.9656    132.0269      3.4894
    156.0000    206.7890     10.0000      0.4381    274.0000    230.0000    758.0000    284.0000    734.0000    349.0000     22.3246      1.2366      5.0000     74.6599     74.1243     75.8809     76.8718     82.5615     79.7951   1010.5120    132.0269      3.4798
    156.1000    205.5760     10.0000      0.4381    243.0000    360.0000    414.0000    565.0000    811.0000    277.0000     22.1284      1.2366      5.0000     76.3208     74.2504     75.7516     77.2564     83.4573     79.6697   1007.2390    132.0269      3.4636
    156.2000    205.1641     10.0000      0.4154    247.0000    332.0000    142.0000    532.0000    181.0000    258.0000     22.6517      1.1304      5.0000     77.3428     74.1243     75.8809     78.1538     84.6090     79.6697   1012.1484    126.5865      3.4501
    156.3000    205.3016     10.0000      0.4154    114.7008    144.4409    109.4646     74.1339    114.8346    232.9291     23.7889      1.2366      4.0000     76.9595     74.1243     75.8809     79.0513     83.4573     80.0460   1013.4305    126.5865      3.4464
    156.4000    205.6143     10.0000      0.4153     78.0000     82.0000     64.0000     47.0000     89.0000     15.0000     25.2914      1.2366      3.0000     76.8318     74.3766     75.1051     78.5384     82.9454     79.7951   1005.6026    126.5865      3.4531
    156.5000    204.8520     10.0000      0.4154    393.0000     72.0000    565.0000     82.0000    412.0000     35.0000     26.7812      1.1304      3.0000     76.7040     74.3766     74.4586     76.8718     82.9454     79.1679   1002.3297    126.5865      3.4646
    156.6000    204.4029     10.0000      0.4153    173.4173    664.5984    470.3937    629.3149    421.4173    634.9055     27.6764      1.2366      3.5433     76.7040     73.7459     75.4930     75.9047     82.9454     79.1679   1010.7439    126.5865      3.4741
    156.7000    203.8501     10.0000      0.4153    390.0000    459.0000    802.0000    478.0000    245.0000    186.0000     27.4384      1.1304      4.0000     76.5763     74.1243     75.4930     76.3590     83.0734     79.2933   1008.8755    126.5865      3.4781
    156.8000    203.9886     10.0000      0.4153    140.0000    695.0000    220.0000    337.0000    251.0000    326.0000     26.1733      1.1304      4.0000     76.7040     74.3766     75.7516     77.2564     83.0734     79.2933   1014.6031    126.5865      3.4792
    156.9000    203.6778     10.0000      0.4153    161.0000    191.0000    158.0000    247.0000    197.0000     87.0000     24.2639      1.1304      4.0000     76.8318     74.1243     75.8809     76.8718     82.5615     79.1679   1012.9667    126.5865      3.4802
    157.0000    201.6387     10.0000      0.4574    629.0000    145.0000    185.0000    190.0000    199.0000     98.0000     22.3924      1.2366      4.0000     76.7040     74.5027     75.4930     76.8718     82.9454     79.2933   1005.6026    123.9840      3.4837
    157.1000    200.3519     10.0000      0.4405    287.9134    360.5039    335.3622    138.3307    489.9528    794.5039     21.0461      1.1304      4.0000     76.7040     74.1243     75.8809     76.8718     82.8678     79.2439   1010.1898    118.4564      3.4895
