~VERSION INFORMATION 
VERS.          2.0   :CWLS LOG ASCII STANDARD - VERSION 2.0
WRAP.          NO    :ONE LINE PER DEPTH STEP
PROD.  Schlumberger   :LAS Producer
PROG.  DLIS to ASCII 19C2-270                          :LAS Program name and version
CREA.        2014/02/23 09:08                          :LAS Creation date {YYYY/MM/DD hh:mm}
DLIS_CREA.  2014-Feb-23 08:51                          :DLIS Creation date and time {YYYY-MMM-DD hh:mm}
SOURCE.     1AA063409108W400_FMI_SONIC_MAIN.dlis       :DLIS File Name
FILE-ID.     ConPr_R2L3Up_S008_FBST_DSLT_HGNS          :File Identification Number
#--------------------------------------------------
~WELL INFORMATION 
#MNEM.UNIT      DATA             DESCRIPTION
#---- ------ --------------   -----------------------------
STRT.M      54.71160        :START DEPTH
STOP.M      257.70840       :STOP DEPTH
STEP.M       0.15240        :STEP
NULL .          -999.25      :NULL VALUE
COMP.        SUNCOR ENERGY INC.                       :COMPANY
WELL.        SUNCOR LEWIS 6-34-91-8                   :WELL
FLD  .        LEWIS                                    :FIELD
LOC.        6-34-91-8W4                              :LOCATION
PROV .        ALBERTA                                  :PROVINCE
UWI.        1AA063409108W400                         :UNIQUE WELL ID
LIC  .        0464072                                  :LICENSE NUMBER
CTRY .        CA                                       :COUNTRY (WWW code)
DATE.        23-Feb-2014                              :LOG DATE {DD-MMM-YYYY}
SRVC .        Schlumberger                             :SERVICE COMPANY
LATI .DEG     56.934500 degrees                        :LATITUDE
LONG .DEG     -111.20540 degrees                       :LONGITUDE
GDAT .                                                 :GeoDetic Datum
SECT .        06-34                                    :Section
RANG .        08W4                                     :Range
TOWN .        091                                      :Township
#-----------------------------------------------------------------------------
~CURVE INFORMATION 
#MNEM.UNIT   API CODE                                  DESCRIPTION
#---- -----  --------                                  -----------------------
 DEPT.M         00 001 00 00             :Depth Index - Measured Depth
   BS.MM        61 280 07 00             :BIT SIZE {F14.5}
   C1.MM        42 280 06 00             :CALIPER 1 {F14.5}
   C2.MM        42 280 05 00             :CALIPER 2 {F14.5}
DEPTH.M         00 001 00 00             :DEPTH INDEX {F14.5}
DEVIM.DEG       00 630 00 00             :MEMORIZED DEVIATION {F14.5}
   DT.US/M      60 520 32 00             :DELTA-T (ALSO CALLED SLOWNESS OR INTERVAL TRANSIT TIME) {F14.5}
   EI.MA        00 000 00 00             :EMEX CURRENT {F14.5}
   EV.V         00 000 00 00             :EMEX VOLTAGE {F14.5}
 FBCR.OHMS      00 000 00 00             :CORRELATION RESISTANCE {F14.5}
   GR.GAPI      42 310 01 00             :GAMMA RAY {F14.5}
 HAZI.DEG       00 620 00 00             :HOLE AZIMUTH RELATIVE TO TRUE NORTH {F14.5}
HAZIM.DEG       00 620 00 00             :HOLE AZIMUTH RELATIVE TO TRUE NORTH {F14.5}
 P1AZ.DEG       00 630 00 00             :PAD 1 AZIMUTH IN HORIZONTAL PLANE (0 = TRUE NORTH) {F14.5}
P1NO_FBST.DEG   00 000 00 00             :PAD 1 AZIMUTH IN PLANE ORTHOGONAL TO TOOL AXIS (0 = TRUE NORTH), MEMORIZED TO FBST {F14.5}
   RB.DEG       00 631 00 00             :RELATIVE BEARING {F14.5}
 SDEV.DEG       00 000 00 00             :SONDE DEVIATION {F14.5}
 TENS.N         61 280 10 00             :CABLE TENSION {F14.5}
  TT1.US        60 520 32 01             :TRANSIT TIME 1 {F14.5}
  TT2.US        60 520 32 02             :TRANSIT TIME 2 {F14.5}
  TT3.US        60 520 32 03             :TRANSIT TIME 3 {F14.5}
  TT4.US        60 520 32 04             :TRANSIT TIME 4 {F14.5}
~PARAMETER INFORMATION 
#MNEM.UNIT    VALUE                      DESCRIPTION
#---- -----   --------------------       ------------------------
 CSGD.M       72.80000                   :Casing Bottom of Driller
 CSGL.M       73.20000                   :Logger Casing Shoe Depth
 CSGS.MM      177.80000                  :Current Casing Size
 CSGW.KG/M    25.30000                   :Casing Weight
 MUDD.K/M3    1090.00000                 :Drilling Fluid Density
  DFL.C3      6.00000                    :Drilling Fluid Loss
   PH.        10.00000                   :Drilling Fluid pH
  MUD.        Polymer                    :Drilling Fluid Type
 MUDV.S       108.00000                  :Drilling Fluid Viscosity
   GL.M       445.00000                  :Elevation of Ground Level
 EREF.M       449.00000                  :Elevation of Kelly Bushing
  ENG.        NICK POLLEY                :Engineer s Name
 DREF.        KB                         :Logging Measured From (Name of Logging Elevation Reference)
 BASE.        WINTER PROJECT             :LOGGING UNIT LOCATION
 FACT.        CP4P-00020                 :Service Order Number
  LIC.        0464072                    :API Well Number
 PROV.        ALBERTA                    :County or Parish
 UNIT.        3125                       :Logging Unit Number
 RMCT.DEGC    8.73000                    :Mudcake Sample Temperature
 RMFT.DEGC    8.73000                    :Mud Filtrate Sample Temperature
 TMAX.DEGC    12.28000                   :Maximum Recorded Temperature
 MUDS.        Flowline                   :Mud Sample Source
  RMT.DEGC    8.73000                    :Mud Sample Temperature
RANGE.        08W4                       :Range
  RMC.OHMM    1.18000                    :Resistivity of Mud Cake Sample
  RMF.OHMM    0.59200                    :Resistivity of Mud Filtrate Sample
   RM.OHMM    0.78900                    :Resistivity of Mud Sample
SECTION.      06-34                      :Section
 TIMC.        01 55 00                   :Time Circulation Stopped
 TIML.        07 55 00                   :Time Logger At Bottom
TOWNSHIP.     091                        :Township
  WIT.        JONATHAN FELL              :Witness s Name
  APD.M       4.00000                    :Elevation of Depth Reference (LMF) Above Permanent Datum
 APIN.        0464072                    :API Well Number
  BHT.DEGC    12.28000                   :Bottom Hole Temperature
  BLI.M       256.00000                  :Bottom Log Interval
   BS.MM      156.00000                  :Bit Size
   CN.        SUNCOR ENERGY INC.         :Company Name
 COUN.        ALBERTA                    :County or Parish
 LDAT.        23-Feb-2014                :Tools Above Rotary Table Date
  DCS.        23-Feb-2014                :Date Circulation Stopped
  DFL.C3      6.00000                    :Drilling Fluid Loss
 DLAB.        23-Feb-2014                :Date Logger At Bottom
  DMF.        KB                         :Drilling Measured From (Name of Drilling Elevation Reference)
  EDF.M       448.70001                  :Elevation of Drill Floor
  EGL.M       445.00000                  :Elevation of Ground Level
  EKB.M       449.00000                  :Elevation of Kelly Bushing
   FD.K/M3    1000.00000                 :Fluid Density
   FL.        6-34-91-8W4               :FIELD LOCATION
  FL1.        1AA063409108W400           :Field Location, Line 1
  FL2.                                   :Field Location, Line 2
   FN.        LEWIS                      :Field Name
 HID1.                                   :Header Identifier 1
 HID2.                                   :Header Identifier 2
 HIDE.        LEWIS                      :Header Identifier
 LATI.        56.934500 degrees          :Latitude
  LMF.        KB                         :Logging Measured From (Name of Logging Elevation Reference)
 LONG.        -111.20540 degrees         :Longitude
 MATR.        SAND                       :Rock Matrix for Neutron Porosity Corrections
 MCSS.        Calculated                 :Mudcake Sample Source
 MDEC.DEG     14.38033                   :Magnetic Field Declination
 MDEN.K/M3    2650.00000                 :Matrix Density for Density Porosity
 MRT1.DEGC    12.28000                   :Maximum Recorded Temperature 1
 MRT2.DEGC    -999.25000                 :Maximum Recorded Temperature 2
  NMT.        NOBARITE                   :HRDD Mud Type for Nuclear Devices
  OS1.                                   :Other Services Line 1
  OS2.                                   :Other Services Line 2
  OS3.                                   :Other Services Line 3
  OS4.                                   :Other Services Line 4
  OS5.                                   :Other Services Line 5
 PDAT.        GL                         :Permanent Datum
   R1.        THANK YOU FOR CHOOSING SCHLUMBERGER  :Remarks Line 1
   R2.        ALL TOOLS RAN AS PER TOOL SKETCH AND ALL PRESENTATIONS AS PER CLIENT REQUEST  :Remarks Line 2
   R3.        INDUCTION LOG – DESCENT #1 :Remarks Line 3
   R4.        NEUTRON / DENSITY LOG – DESCENT #1  :Remarks Line 4
  RMB.OHMM    0.70618                    :Resistivity of Mud at Bottom Hole Temperature
 RMFB.OHMM    0.52986                    :Resistivity of Mud Filtrate At Bottom Hole Temperature
  RUN.        ONE/2                      :Run Number
  SON.        CP4P-00020                 :SERVICE ORDER NUMBER
  TDD.M       256.00000                  :Driller Total Depth
  TDL.M       256.00000                  :Logger Total Depth
  TLI.M       75.00000                   :Top Log Interval
 UWID.        1AA063409108W400           :Unique Well Identifier
   WN.        SUNCOR LEWIS 6-34-91-8     :Well Name
  EPD.C3      445.000000                 :Elevation of Permanent Datum above Mean Sea Level
#-----------------------------------------------------------------------------
#
#      DEPT          BS            C1            C2            DEPTH         DEVIM         DT            EI            EV            FBCR          GR            HAZI          HAZIM         P1AZ        P1NO_FBST       RB            SDEV          TENS          TT1           TT2           TT3           TT4
#
#-----------------------------------------------------------------------------

~A       DEPT           BS           C1           C2        DEPTH        DEVIM           DT           EI           EV         FBCR           GR         HAZI        HAZIM         P1AZ    P1NO_FBST           RB         SDEV         TENS          TT1          TT2          TT3          TT4
# ...
    173.58360     156.00000     151.27098     150.55026     173.58414       0.59313     424.23383    2781.15552      10.79968  322821.03125      52.15606     226.11696     225.45735     100.67616     109.35713     234.55920       0.55832    5343.79688     773.29877     521.24042     772.66113     517.49219
    173.73600     156.00000     150.04227     150.22852     173.73688       0.59346     422.86719    2781.15552      10.81917  152655.76563      47.75747     226.27425     224.93510     102.40439     115.37624     236.12831       0.55916    5213.01953     775.16150     520.35126     773.56879     519.00818
    173.88840     156.00000     146.97052     150.22852     173.88843       0.59352     422.81033    2776.04297      10.89715  179627.34375      41.59926     226.43968     224.45279     106.46740     123.50539     240.02882       0.56107    5075.42090     776.31818     522.53979     774.36377     519.47461
    174.04080     156.00000     146.97052     150.22852     174.04016       0.59406     427.18936    2741.95972      10.97512  660017.81250      36.44638     226.63620     224.01671     111.27122     122.86784     244.63385       0.56337    4870.20947     776.15448     523.12262     774.16534     521.18390
    174.19320     156.00000     146.97052     150.22852     174.19307       0.59559     418.32306    2741.95972      11.09209  207713.10938      32.17328     226.80592     223.74789     120.70417     119.79063     253.89545       0.56555    5407.25830     775.60516     522.48334     771.19025     518.95294
    174.34560     156.00000     146.97052     150.22852     174.34479       0.59732     419.89380    2709.58105      11.38450  854981.81250      30.53947     226.95422     223.54747     123.85043     120.15308     256.89447       0.56652    5567.09766     773.67883     514.90558     772.48145     512.79773
    174.49800     156.00000     149.12074     150.22852     174.49515       0.59936     418.93851    2677.20239      11.65741  929033.75000      32.67604     227.08441     223.49059     121.10880     121.36916     254.02344       0.56646    5665.84814     774.27362     514.88123     771.58051     513.15594
    174.65040     156.00000     148.81358     149.58507     174.64688       0.60167     414.10577    2680.61035      11.96932 2156680.75000      33.80716     227.06139     223.55133     119.64680     122.19289     252.58521       0.56466    5848.81836     769.30707     512.94275     768.38470     512.43494
    174.80280     156.00000     148.81358     148.61992     174.80310       0.60427     412.14706    2614.14868      12.16426 1511202.50000      34.56140     226.94357     223.62798     120.78683     122.36867     253.84100       0.56218    5456.57813     770.19904     511.94977     768.52869     511.54498
    174.95520     156.00000     147.89204     150.22852     174.95743       0.60621     412.29758    2549.39111      12.53464 2652809.25000      32.04784     226.68690     223.74527     121.85815     121.43456     255.17068       0.55944    5233.48096     770.12091     513.82196     768.36725     513.01270
    175.10760     156.00000     146.97052     150.87196     175.10918       0.60818     415.94470    2545.98267      12.65161 1251267.00000      32.67620     226.38724     223.82503     122.35242     122.58114     255.96405       0.55689    5535.25586     769.54156     515.37390     767.40454     511.76715
    175.26000     156.00000     148.32722     150.22852     175.26257       0.60900     416.42334    2547.68677      12.82705  517208.56250      31.54505     226.00722     223.86302     122.00276     124.77458     255.99435       0.55506    5419.71338     768.50635     515.59821     765.85968     513.08472
    175.41240     156.00000     149.42792     150.87196     175.41159       0.60943     421.48380    2474.40869      13.04149 1565361.12500      32.46396     225.66142     223.77850     121.56626     126.70866     255.90596       0.55465    5485.25049     766.65845     515.06903     764.02032     515.08337
    175.56480     156.00000     149.42792     151.51540     175.56161       0.60998     423.43356    2472.70435      13.13896 1952751.12500      33.34372     225.32188     223.63872     123.77512     127.90591     258.45187       0.55561    5434.54053     765.36609     515.04590     763.00769     514.56836
    175.71720     156.00000     149.42792     150.55026     175.71640       0.61039     415.56577    2440.32568      13.27541 1479500.25000      32.46394     225.09756     223.47635     125.79364     127.02205     260.69617       0.55824    5273.64502     765.67560     514.63403     764.48004     513.54657
    175.86960     156.00000     149.42792     152.80231     175.87032       0.61070     411.45499    2438.62134      13.41187 2124313.75000      31.29370     225.01620     223.20515     127.57053     125.95058     262.55444       0.56184    5415.85840     768.51807     512.81982     767.07440     511.32321
    176.02200     156.00000     151.57814     155.37610     176.02136       0.61136     409.69849    2404.53833      13.50934 1057329.25000      32.29913     225.08588     222.92938     127.47124     125.60190     262.38501       0.56589    5178.91650     770.27966     511.00989     768.57257     511.63577
    176.17440     156.00000     151.53598     155.37610     176.17375       0.61188     412.20752    2406.24268      13.48985  855409.56250      36.57211     225.31586     222.63779     126.63242     125.53067     261.31555       0.57023    5342.31445     771.12018     512.93182     769.66205     509.15131
    176.32680     156.00000     154.34271     157.30644     176.32632       0.61275     418.38477    2402.83423      13.52884  587220.93750      40.97080     225.56206     222.37930     125.55282     122.93874     259.98782       0.57485    5010.77344     771.31030     513.23840     768.47681     510.52286
    176.47920     156.00000     153.11401     155.37610     176.48042       0.61279     420.28043    2402.83423      13.52884  343874.78125      43.38570     225.89838     222.19543     125.74416     120.93789     259.84583       0.57964    4983.78760     769.35468     513.96234     766.06683     516.74255
    176.63160     156.00000     151.27098     152.80231     176.63231       0.61302     424.78577    2399.42554      13.48985  372462.84375      43.00861     226.15140     222.01640     124.50358     121.23734     258.35190       0.58343    4956.20850     766.95685     517.52100     764.20270     518.98193
    176.78400     156.00000     149.42792     150.87196     176.78268       0.61244     423.75534    2401.12988      13.64580 1099465.00000      41.66545     226.29034     221.89632     121.50314     118.76431     255.21100       0.58677    4459.19385     767.41730     519.72455     766.05219     516.63458
    176.93640     156.00000     149.42792     153.12404     176.93626       0.61178     418.77774    2372.15967      13.60681  230790.93750      39.91469     226.28841     221.89532     121.38668     114.83517     255.09668       0.58948    4928.92627     767.81433     515.82709     766.49487     512.04871
    177.08880     156.00000     151.57814     155.37610     177.08900       0.61065     414.34998    2373.86353      13.66529  835809.00000      42.42828     226.06488     221.87173     119.99216     115.54311     253.92747       0.59120    5265.50830     769.91833     513.50897     766.02216     511.22406
    177.24120     156.00000     150.78838     155.37610     177.24089       0.60895     412.36612    2378.97607      13.82125  150301.78125      45.78220     225.70044     221.92282     116.77896     115.02374     251.07825       0.59248    5319.47998     766.77490     512.45496     763.92706     509.51624
    177.39360     156.00000     151.27098     155.37610     177.39075       0.60688     410.66214    2373.86353      13.80175  564552.31250      46.50044     225.22356     221.97137     115.01494     117.01830     249.79007       0.59354    4971.62891     764.66760     511.67093     762.53864     506.75583
