~VERSION INFORMATION 
VERS.          2.0   :CWLS LOG ASCII STANDARD - VERSION 2.0
WRAP.          NO    :ONE LINE PER DEPTH STEP
PROD.  Schlumberger   :LAS Producer
PROG.  DLIS to ASCII 19C2-270                          :LAS Program name and version
CREA.        2014/02/23 09:08                          :LAS Creation date {YYYY/MM/DD hh:mm}
DLIS_CREA.  2014-Feb-23 08:51                          :DLIS Creation date and time {YYYY-MMM-DD hh:mm}
SOURCE.     1AA063409108W400_FMI_SONIC_MAIN.dlis       :DLIS File Name
FILE-ID.     ConPr_R2L3Up_S008_FBST_DSLT_HGNS          :File Identification Number
#--------------------------------------------------
~WELL INFORMATION 
#MNEM.UNIT      DATA             DESCRIPTION
#---- ------ --------------   -----------------------------
STRT.M      54.71160        :START DEPTH
STOP.M      257.70840       :STOP DEPTH
STEP.M       0.15240        :STEP
NULL .          -999.25      :NULL VALUE
COMP.        SUNCOR ENERGY INC.                       :COMPANY
WELL.        SUNCOR LEWIS 6-34-91-8                   :WELL
FLD  .        LEWIS                                    :FIELD
LOC.        6-34-91-8W4                              :LOCATION
PROV .        ALBERTA                                  :PROVINCE
UWI.        1AA063409108W400                         :UNIQUE WELL ID
LIC  .        0464072                                  :LICENSE NUMBER
CTRY .        CA                                       :COUNTRY (WWW code)
DATE.        23-Feb-2014                              :LOG DATE {DD-MMM-YYYY}
SRVC .        Schlumberger                             :SERVICE COMPANY
LATI .DEG     56.934500 degrees                        :LATITUDE
LONG .DEG     -111.20540 degrees                       :LONGITUDE
GDAT .                                                 :GeoDetic Datum
SECT .        06-34                                    :Section
RANG .        08W4                                     :Range
TOWN .        091                                      :Township
#-----------------------------------------------------------------------------
~CURVE INFORMATION 
#MNEM.UNIT   API CODE                                  DESCRIPTION
#---- -----  --------                                  -----------------------
 DEPT.M         00 001 00 00             :Depth Index - Measured Depth
   BS.MM        61 280 07 00             :BIT SIZE {F14.5}
   C1.MM        42 280 06 00             :CALIPER 1 {F14.5}
   C2.MM        42 280 05 00             :CALIPER 2 {F14.5}
DEPTH.M         00 001 00 00             :DEPTH INDEX {F14.5}
DEVIM.DEG       00 630 00 00             :MEMORIZED DEVIATION {F14.5}
   DT.US/M      60 520 32 00             :DELTA-T (ALSO CALLED SLOWNESS OR INTERVAL TRANSIT TIME) {F14.5}
   EI.MA        00 000 00 00             :EMEX CURRENT {F14.5}
   EV.V         00 000 00 00             :EMEX VOLTAGE {F14.5}
 FBCR.OHMS      00 000 00 00             :CORRELATION RESISTANCE {F14.5}
   GR.GAPI      42 310 01 00             :GAMMA RAY {F14.5}
 HAZI.DEG       00 620 00 00             :HOLE AZIMUTH RELATIVE TO TRUE NORTH {F14.5}
HAZIM.DEG       00 620 00 00             :HOLE AZIMUTH RELATIVE TO TRUE NORTH {F14.5}
 P1AZ.DEG       00 630 00 00             :PAD 1 AZIMUTH IN HORIZONTAL PLANE (0 = TRUE NORTH) {F14.5}
P1NO_FBST.DEG   00 000 00 00             :PAD 1 AZIMUTH IN PLANE ORTHOGONAL TO TOOL AXIS (0 = TRUE NORTH), MEMORIZED TO FBST {F14.5}
   RB.DEG       00 631 00 00             :RELATIVE BEARING {F14.5}
 SDEV.DEG       00 000 00 00             :SONDE DEVIATION {F14.5}
 TENS.N         61 280 10 00             :CABLE TENSION {F14.5}
  TT1.US        60 520 32 01             :TRANSIT TIME 1 {F14.5}
  TT2.US        60 520 32 02             :TRANSIT TIME 2 {F14.5}
  TT3.US        60 520 32 03             :TRANSIT TIME 3 {F14.5}
  TT4.US        60 520 32 04             :TRANSIT TIME 4 {F14.5}
~PARAMETER INFORMATION 
#MNEM.UNIT    VALUE                      DESCRIPTION
#---- -----   --------------------       ------------------------
 CSGD.M       72.80000                   :Casing Bottom of Driller
 CSGL.M       73.20000                   :Logger Casing Shoe Depth
 CSGS.MM      177.80000                  :Current Casing Size
 CSGW.KG/M    25.30000                   :Casing Weight
 MUDD.K/M3    1090.00000                 :Drilling Fluid Density
  DFL.C3      6.00000                    :Drilling Fluid Loss
   PH.        10.00000                   :Drilling Fluid pH
  MUD.        Polymer                    :Drilling Fluid Type
 MUDV.S       108.00000                  :Drilling Fluid Viscosity
   GL.M       445.00000                  :Elevation of Ground Level
 EREF.M       449.00000                  :Elevation of Kelly Bushing
  ENG.        NICK POLLEY                :Engineer s Name
 DREF.        KB                         :Logging Measured From (Name of Logging Elevation Reference)
 BASE.        WINTER PROJECT             :LOGGING UNIT LOCATION
 FACT.        CP4P-00020                 :Service Order Number
  LIC.        0464072                    :API Well Number
 PROV.        ALBERTA                    :County or Parish
 UNIT.        3125                       :Logging Unit Number
 RMCT.DEGC    8.73000                    :Mudcake Sample Temperature
 RMFT.DEGC    8.73000                    :Mud Filtrate Sample Temperature
 TMAX.DEGC    12.28000                   :Maximum Recorded Temperature
 MUDS.        Flowline                   :Mud Sample Source
  RMT.DEGC    8.73000                    :Mud Sample Temperature
RANGE.        08W4                       :Range
  RMC.OHMM    1.18000                    :Resistivity of Mud Cake Sample
  RMF.OHMM    0.59200                    :Resistivity of Mud Filtrate Sample
   RM.OHMM    0.78900                    :Resistivity of Mud Sample
SECTION.      06-34                      :Section
 TIMC.        01 55 00                   :Time Circulation Stopped
 TIML.        07 55 00                   :Time Logger At Bottom
TOWNSHIP.     091                        :Township
  WIT.        JONATHAN FELL              :Witness s Name
  APD.M       4.00000                    :Elevation of Depth Reference (LMF) Above Permanent Datum
 APIN.        0464072                    :API Well Number
  BHT.DEGC    12.28000                   :Bottom Hole Temperature
  BLI.M       256.00000                  :Bottom Log Interval
   BS.MM      156.00000                  :Bit Size
   CN.        SUNCOR ENERGY INC.         :Company Name
 COUN.        ALBERTA                    :County or Parish
 LDAT.        23-Feb-2014                :Tools Above Rotary Table Date
  DCS.        23-Feb-2014                :Date Circulation Stopped
  DFL.C3      6.00000                    :Drilling Fluid Loss
 DLAB.        23-Feb-2014                :Date Logger At Bottom
  DMF.        KB                         :Drilling Measured From (Name of Drilling Elevation Reference)
  EDF.M       448.70001                  :Elevation of Drill Floor
  EGL.M       445.00000                  :Elevation of Ground Level
  EKB.M       449.00000                  :Elevation of Kelly Bushing
   FD.K/M3    1000.00000                 :Fluid Density
   FL.        6-34-91-8W4               :FIELD LOCATION
  FL1.        1AA063409108W400           :Field Location, Line 1
  FL2.                                   :Field Location, Line 2
   FN.        LEWIS                      :Field Name
 HID1.                                   :Header Identifier 1
 HID2.                                   :Header Identifier 2
 HIDE.        LEWIS                      :Header Identifier
 LATI.        56.934500 degrees          :Latitude
  LMF.        KB                         :Logging Measured From (Name of Logging Elevation Reference)
 LONG.        -111.20540 degrees         :Longitude
 MATR.        SAND                       :Rock Matrix for Neutron Porosity Corrections
 MCSS.        Calculated                 :Mudcake Sample Source
 MDEC.DEG     14.38033                   :Magnetic Field Declination
 MDEN.K/M3    2650.00000                 :Matrix Density for Density Porosity
 MRT1.DEGC    12.28000                   :Maximum Recorded Temperature 1
 MRT2.DEGC    -999.25000                 :Maximum Recorded Temperature 2
  NMT.        NOBARITE                   :HRDD Mud Type for Nuclear Devices
  OS1.                                   :Other Services Line 1
  OS2.                                   :Other Services Line 2
  OS3.                                   :Other Services Line 3
  OS4.                                   :Other Services Line 4
  OS5.                                   :Other Services Line 5
 PDAT.        GL                         :Permanent Datum
   R1.        THANK YOU FOR CHOOSING SCHLUMBERGER  :Remarks Line 1
   R2.        ALL TOOLS RAN AS PER TOOL SKETCH AND ALL PRESENTATIONS AS PER CLIENT REQUEST  :Remarks Line 2
   R3.        INDUCTION LOG – DESCENT #1 :Remarks Line 3
   R4.        NEUTRON / DENSITY LOG – DESCENT #1  :Remarks Line 4
  RMB.OHMM    0.70618                    :Resistivity of Mud at Bottom Hole Temperature
 RMFB.OHMM    0.52986                    :Resistivity of Mud Filtrate At Bottom Hole Temperature
  RUN.        ONE/2                      :Run Number
  SON.        CP4P-00020                 :SERVICE ORDER NUMBER
  TDD.M       256.00000                  :Driller Total Depth
  TDL.M       256.00000                  :Logger Total Depth
  TLI.M       75.00000                   :Top Log Interval
 UWID.        1AA063409108W400           :Unique Well Identifier
   WN.        SUNCOR LEWIS 6-34-91-8     :Well Name
  EPD.C3      445.000000                 :Elevation of Permanent Datum above Mean Sea Level
#-----------------------------------------------------------------------------
#
#      DEPT          BS            C1            C2            DEPTH         DEVIM         DT            EI            EV            FBCR          GR            HAZI          HAZIM         P1AZ        P1NO_FBST       RB            SDEV          TENS          TT1           TT2           TT3           TT4
#
#-----------------------------------------------------------------------------

~A       DEPT           BS           C1           C2        DEPTH        DEVIM           DT           EI           EV         FBCR           GR         HAZI        HAZIM         P1AZ    P1NO_FBST           RB         SDEV         TENS          TT1          TT2          TT3          TT4
# ...
    225.09480     156.00000     154.78616     155.37610     225.09447       0.34176     391.67938    2745.36841      11.05310  111590.35156      22.97641     197.46562     194.43022      20.44610      20.79395     182.98032       0.39294    4786.00830     727.48499     487.79907     728.21356     488.20361
    225.24720     156.00000     154.95706     155.37610     225.24960       0.33634     384.96860    2709.58105      10.97512  125134.25000      23.62747     197.23390     194.26929      22.30997      20.43253     185.07617       0.39096    4762.26611     726.95239     484.72324     726.86725     487.53958
    225.39960     156.00000     154.95706     155.37610     225.39912       0.33152     381.67709    2747.07275      10.85816  346959.06250      21.36271     197.10251     194.06021      21.67578      19.83946     184.57324       0.38897    4700.88086     725.95691     489.21445     725.62976     490.80322
    225.55200     156.00000     154.78616     155.37610     225.55119       0.32627     386.26935    2782.85938      10.79968  491074.37500      19.85409     197.06903     193.78983      20.79440      18.89151     183.72560       0.38673    4815.34814     723.10797     486.41754     724.30542     488.51080
    225.70440     156.00000     154.95706     155.05437     225.70222       0.32146     384.57013    2816.94238      10.64372  130145.79688      20.85232     197.18372     193.44662      20.43297      18.27343     183.24918       0.38416    4675.67432     728.79156     486.39282     729.54651     488.32901
    225.85680     156.00000     154.95706     155.37610     225.85616       0.31662     390.23065    2810.12573      10.52676  632467.56250      20.72899     197.31223     193.10165      19.83988      17.99358     182.52747       0.38114    4643.64697     729.63226     482.44946     732.48657     486.24741
    226.00920     156.00000     154.95706     155.37610     226.00890       0.31258     390.67764    2840.80103      10.23435  123070.87500      22.61414     197.39163     192.66806      18.89190      17.56042     181.50052       0.37791    4627.92969     734.82245     491.92508     735.67218     496.88309
    226.16160     156.00000     154.34271     155.37610     226.16350       0.30849     392.99258    2876.58765      10.00042  160923.26563      20.47638     197.39864     192.19452      18.27380      17.15244     180.87509       0.37497    4657.58447     732.75244     498.80411     732.69940     500.42404
    226.31400     156.00000     154.17105     155.37610     226.31810       0.30449     399.06168    2871.47534       9.96143   83022.13281      17.46019     197.30853     191.64442      17.99394      17.28448     180.68521       0.37196    4565.06152     733.80017     500.02753     735.39880     501.02536
    226.46640     156.00000     154.17105     155.37610     226.47084       0.30136     407.83386    2879.99609      10.00042   78458.58594      17.08314     197.15443     191.20705      17.56077      16.49665     180.40625       0.36910    4455.93213     736.23358     499.88220     735.98456     499.74481
    226.61880     156.00000     153.11401     153.44574     226.62340       0.29807     405.91061    2869.77124      10.03941  117151.20313      18.97729     196.84691     190.63341      17.15277      14.82243     180.30569       0.36716    4671.22559     738.08209     496.59979     739.48688     497.18362
    226.77120     156.00000     150.04227     154.73264     226.77682       0.29570     391.64374    2869.77124      10.05890  366279.93750      19.98263     196.49086     190.19089      17.28481      13.93009     180.79370       0.36574    4796.07275     754.14966     498.23209     758.59515     498.94049
    226.92360     156.00000     149.86609     155.69781     226.92821       0.29332     380.20380    2871.47534       9.96143  737475.93750      19.47997     196.00566     189.81215      16.49697      13.03255     180.49133       0.36558    4814.45850     768.39276     498.81705     766.94183     499.79065
    227.07600     156.00000     154.95706     157.94987     227.08043       0.29094     375.99799    2873.17969       9.96143 1016224.93750      17.97186     195.61555     189.53230      14.82272      14.35228     179.20714       0.36572    5124.94434     766.04572     508.78339     760.23718     511.25262
    227.22840     156.00000     155.57140     157.94987     227.23283       0.28892     396.04910    2871.47534      10.15637  543200.87500      16.58938     195.16563     189.33736      13.93036       9.63415     178.76489       0.36675    5171.50244     753.28125     522.39978     745.96173     518.33240
    227.38080     156.00000     151.88531     155.37610     227.38524       0.28692     412.11169    2835.68823      10.25384   97204.92188      15.20694     194.91135     189.38278      13.03280      11.40548     178.12151       0.36752    5238.52246     742.69305     520.62714     735.71387     516.56183
    227.53320     156.00000     154.34271     155.37610     227.53560       0.28455     416.68182    2845.91309      10.11739  103397.83594      14.20156     194.57660     189.65497      14.35257      12.31746     179.77597       0.36814    4778.87305     736.17944     518.80847     733.35443     512.32043
    227.68560     156.00000     156.80011     156.01955     227.68750       0.28225     406.63321    2888.51685       9.92245  132902.57813      14.45295     194.44341     189.89429       9.63434      11.84951     175.19104       0.36804    4768.19727     741.55847     520.36145     738.20685     513.63770
    227.83800     156.00000     155.57140     155.37610     227.83871       0.27981     391.26950    2926.00854       9.68852  136094.59375      13.44758     194.44800     190.40564      11.40570      11.96461     176.95776       0.36719    5059.11084     749.08679     520.92554     744.77509     515.31177
    227.99040     156.00000     155.57140     155.37610     227.98976       0.27700     381.64935    2920.89551       9.59105  144991.92188      13.82457     194.47481     190.93527      12.31770      12.65128     177.84294       0.36519    4821.57568     760.00653     522.69324     755.79669     516.94250
    228.14280     156.00000     155.40126     155.37610     228.14215       0.27431     386.46259    2920.89551       9.59105  163758.89063      18.24685     194.62209     191.51971      11.84973      12.44377     177.22769       0.36196    4685.45996     763.60822     515.92914     757.84644     510.28778
    228.29520     156.00000     155.57140     155.37610     228.29201       0.27160     396.09683    2919.19141       9.57155  142652.25000      29.80920     194.70912     192.06647      11.96483      10.19074     177.25575       0.35781    4668.55664     765.58521     514.60272     761.44855     510.50473
    228.44760     156.00000     155.57140     155.37610     228.44408       0.26925     399.06128    2948.16211       9.43510  190889.28125      33.70523     194.84239     192.43802      12.65151       7.34592     177.80916       0.35313    4719.26660     760.87042     510.84592     752.43768     508.88431
    228.60000     156.00000     155.57140     155.37610     228.59579       0.26630     401.93765    2944.75366       9.35712  120651.91406      30.28808     194.89314     192.78487      12.44398       5.28577     177.55090       0.34823    4589.08203     756.31769     510.03351     753.31696     508.10818
    228.75240     156.00000     155.57140     155.37610     228.74786       0.26423     408.96082    2977.13281       9.22066   97945.48438      21.61617     194.84076     192.95493      10.19091       5.08408     175.35023       0.34316    4818.61035     751.42285     502.66797     751.47827     504.33417
    228.90480     156.00000     155.40126     155.37610     228.90195       0.26182     408.59964    2977.13281       9.18167  107825.55469      18.85131     194.81953     192.98566       7.34604       2.32908     172.52666       0.33817    4700.28760     752.29791     501.69568     750.14685     505.30798
