~Version Information
 VERS.                2.00:   CWLS log ASCII Standard -VERSION 2.00
 WRAP.                  NO:   One line per frame      
~Well Information Block
#MNEM.UNIT                   Data                        Description
#----.----   -----------------------------------------   -------------------------------
 STRT.M                                       26.9748 : Starting Depth
 STOP.M                                      187.9854 : Ending Depth
 STEP.M                                        0.0762 : Level Spacing
 NULL.                                      -999.2500 : Absent Value
 COMP.       SUNCOR ENERGY INC                        : Company
 WELL.       SUNCOR LEWIS 7-22-92-8                   : Well
 FLD .       UNDEFINED                                : Field
 LOC .       LSD 07-22-092-08W4                       : Location
 PROV.       ALBERTA                                  : Province
 CTRY.       CA                                       : Country
 SRVC.       Baker Hughes                             : Service Company
 DATE.       16-JAN-2016                              : Log Date
 UWI .       1AA072209208W400                         : Unique Well ID
 LIC .       0477502                                  : License Number
 LATI.DEG    57.0175 N                                : Latitude Coordinates
 LONG.DEG    -111.419 W                               : Longitude Coordinates
~Curve Information Block
#MNEM    .UNIT        API Codes     Curve Description
#--------.--------   LG--CV-CL--M   -------------------------------
 DEPT    .M           0 001  0  1 : Depth
 AZSTQH  .deg        99 995 99  1 : Azimuth of reference pad for STAR
 BKRGQH  .dim        99 995 99  1 : Bucker driver value
 DEVSTQH .deg        99 995 99  1 : Deviation for STAR
 DIP1QH  .raw        75 610  1  1 : Pad 1 average data of buttons 11, 12, 13, 14
 DIP2QH  .raw        75 610  1  1 : Pad 2 average data of buttons 11, 12, 13, 14
 DIP3QH  .raw        75 610  1  1 : Pad 3 average data of buttons 11, 12, 13, 14
 DIP4QH  .raw        75 610  1  1 : Pad 4 average data of buttons 11, 12, 13, 14
 DIP5QH  .raw        75 610  1  1 : Pad 5 average data of buttons 11, 12, 13, 14
 DIP6QH  .raw        75 610  1  1 : Pad 6 average data of buttons 11, 12, 13, 14
 GR      .gAPI       30 310  1  1 : Gamma ray
 PADFQH  .pct        94 995 99  1 : Pad force
 PADGQH  .dim        99 995 99  1 : Pad gain code
 RAD1QH  .mm         75 280 99  1 : Radius, tool axis to pad 1 face
 RAD2QH  .mm         75 280 99  1 : Radius, tool axis to pad 2 face
 RAD3QH  .mm         75 280 99  1 : Radius, tool axis to pad 3 face
 RAD4QH  .mm         75 280 99  1 : Radius, tool axis to pad 4 face
 RAD5QH  .mm         75 280 99  1 : Radius, tool axis to pad 5 face
 RAD6QH  .mm         75 280 99  1 : Radius, tool axis to pad 6 face
 RAZGSTQH.mG         99 995 99  1 : Raw Z-axis accelerometer shifted to STAR
 RBSTQH  .deg        99 995 99  1 : Relative bearing (relative to borehole high side) for STAR
 SPD     .m/min      99 636 99  1 : Speed
~Parameter Information Block
#MNEM.UNIT                     Value                    Description
#----.----   ----------------------------------------   -------------------------------
 HID1.       RESISTIVITY IMAGING LOG^T                : Header Identifer
 HID2.       GAMMA RAY LOG                            : Header Identifer
 FILE.       3953                                     : File Number
 CMT1.       UID                                      : Comment 1  
 CMT2.       1AA072209208W400                         : Comment 2  
 CMT3.       LICENSE                                  : Comment 3  
 CMT4.       0477502                                  : Comment 4  
 FL2 .       BH LOC. LSD  07                          : Field Location 2
 SECT.       22                                       : Section
 TOWN.       092                                      : Township
 RANG.       08W4                                     : Range
 OS1 .       ZDL-CN-GR-CAL                            : Other Services Line 1
 OS2 .       HDIL-GR-CAL, CVL                         : Other Services Line 2
 OS3 .       DAL-GR-CAL                               : Other Services Line 3
 OS4 .       COMPOSITE                                : Other Services Line 4
 PDAT.       G.L.                                     : Permanent Datum
 EPD .M      438.50                                   : Elevation Of Perm. Datum
 LMF .       K.B.                                     : Log Measured From
 APD .M      2.20                                     : Above Permanent Datum
 DMF .       KELLY BUSHING                            : Drilling Measured From
 EKB .M      440.70                                   : Elevation Of Kelly Bushing
 EGL .M      438.50                                   : Elevation Of Ground Level
 RUN .       1                                        : Run Number
 TRIP.       1                                        : Trip Number
 SON .       CA003953J                                : Service Order Number
 TDD .M      187.0                                    : Total Depth - Driller
 TDL .M      186.3                                    : Total Depth - Logger
 BLI .M      183.0                                    : Bottom Log Interval
 TLI .M      55.0                                     : Top Log Interval
 CSIZ.MM     177.8                                    : Casing Size
 CBDR.M      49.4                                     : Casing Bottom - Driller
 CBLO.M      49.4                                     : Casing Bottom - Logger
 BS  .MM     156.0                                    : Bit Size
 DFT .       WB (WATER BASE MUD)                      : Drilling Fluid Type
 DFD .G/L    1030.0                                   : Drilling Fluid Density
 DFV .S      79.0                                     : Drilling Fluid Viscosity
 DFPH.       7.0                                      : Drilling Fluid Ph
 DFL .ML     8.0                                      : Drilling Fluid Loss
 MSS .       F (FLOWLINE)                             : Mud Sample Source
 RMS .OHMM   1.2                                      : Resistivity Of Mud Sample
 MST .DEGC   25.0                                     : Mud Sample Temperature
 RMFS.OHMM   1.0                                      : Resistivity Of Mud Filtrate Sample
 MFST.DEGC   25.0                                     : Mud Filtrate Sample Temperature
 RMCS.OHMM   1.4                                      : Resistivity Of Mud Cake Sample
 MCST.DEGC   25.0                                     : Mud Cake Sample Temperature
 MFSS.       CALCULATED                               : Mud Filtrate Sample Source
 MCSS.       CALCULATED                               : Mud Cake Sample Source
 RMB .OHMM   2.0                                      : Mud Resistivity At Bht
 BHT .DEGC   7.0                                      : Bottom Hole Temperature
 TSC .       5.0 HOURS                                : Time Since Circulation
 MRT .DEGC   7.0                                      : Maximum Recorded Temperature
 LUN .       Z004250                                  : Logging Unit Number
 LUL .       LEDUC OH                                 : Logging Unit Location
 ENGI.       A.MALIK                                  : Engineer's Name
 WITN.       H.WILSON / P.ENE                         : Witness' Name
 TSTR.       /STAR/GR/                                : Title Service Mnemonic
 TSTG.       NA                                       : Title Service Mnemonic
 STUS.       FINAL                                    : Status
 LCNM.       BAKER ATLAS                              : Logging Company Name
 LCC .       150                                      : Logging Company Code
 OPMD.       OH.WIRE                                  : Operation Mode
 PANA.       A.MALIK                                  : Processing Analyst
 PCON.       BAKER ATLAS                              : Processing Contractor
 APIN.                                                : API Serial Number
 STAT.                                                : State Or Province
~Other information
LAT/LON  57.0175, -111.419                                                      
TIME STOPPED CIRCULATION  16-JAN-2016 0830AM                                    
STAR RUN WITH 0% PAD FORCE AND AUTOMATICALLY CONTROLLED GAINS                   
ANY STICK AND PULL AFFECTS LOG QUALITY                                          
RIG  ENCORE 402                                                                 
CREW  F.AJAGU, A.MALIK                                                          
#  Curve Data
~A   DEPT         AZSTQH       BKRGQH       DEVSTQH      DIP1QH       DIP2QH       DIP3QH       DIP4QH       DIP5QH       DIP6QH       GR           PADFQH       PADGQH       RAD1QH       RAD2QH       RAD3QH       RAD4QH       RAD5QH       RAD6QH       RAZGSTQH     RBSTQH       SPD       
# ...
     174.1932     127.2339       8.0000       0.3744     279.0000     804.0000     314.0000     203.0000     329.0000     182.0000      29.3190       1.2366       3.0000      79.0037      75.0072      73.6828      74.6923      82.5615      81.6769    1012.9667      39.7664       3.4657
     174.2694     126.9102       8.0000       0.3744     407.0000     237.0000     434.0000     354.0000     384.0000     241.0000      31.7394       1.1304       3.0000      79.0037      74.6288      73.6828      74.5641      82.0496      81.5514    1006.4208      39.7664       3.4669
     174.3456     125.6155       8.0000       0.4153     428.0000     337.0000     367.0000     376.0000     396.0000     284.0000      36.3974       1.1304       3.0000      79.0037      75.0072      73.6828      74.5641      82.0496      81.4260    1010.5120      36.5865       3.4685
     174.4218     124.7055       8.0000       0.4153     366.0000     329.0000     380.0000     409.0000     319.0000     320.0000      43.3038       1.2366       3.0000      79.0037      75.0072      73.8121      74.5641      82.1776      81.5514    1012.1484      36.5865       3.4692
     174.4980     124.0576       8.0000       0.4153     399.0000     347.0000     390.0000     354.0000     309.0000     249.0000      51.5972       1.1304       3.0000      79.0037      75.0072      73.6828      74.9487      82.0496      81.4260     995.7839      36.5865       3.4688
     174.5742     122.7639       7.0000       0.3968     512.0000     164.0000     109.0000     161.0000      75.0000      99.0000      59.7183       1.1304       3.0000      78.8759      75.0072      73.6828      73.7949      82.0496      81.9278    1008.8755      30.5775       3.4683
     174.6504     121.6617       7.0000       0.3967     332.0000     113.0000      96.0000      99.0000     251.0000     255.0000      65.9141       1.2366       3.0000      77.7261      75.0072      74.0707      73.2820      82.0496      81.9278    1009.6937      30.5775       3.4689
     174.7266     121.2045       7.0000       0.3967     389.0000     392.0000     312.0000     106.0000     199.0000     367.0000      68.8907       1.2366       3.0000      78.1094      75.0072      73.6828      75.4615      82.4335      81.4260    1012.1484      30.5775       3.4712
     174.8028     120.9340       8.0000       0.3967     190.0000     792.0000     743.0000     161.0000      37.0000     309.0000      68.3252       1.2366       3.0000      78.1094      75.0072      73.2949      75.9743      82.0496      80.9242    1009.6937      30.5775       3.4741
     174.8790     123.0870       9.0000       0.4153     166.0000    1023.0000     825.0000    1023.0000     233.0000     104.0000      65.0102       1.2366       3.0000      78.4926      75.0072      73.1656      75.0769      82.5615      81.9278    1010.5120      36.5865       3.4761
     174.9552     125.3539       9.0000       0.3744     192.0000     454.0000     321.0000     165.0000     257.0000     185.0000      60.6354       1.2366       3.0000      78.3649      75.1334      72.7777      74.5641      82.4335      81.4260    1003.9661      39.7664       3.4761
     175.0314     126.4569       9.0000       0.3744     195.0000     290.0000     286.0000     225.0000     156.0000     181.0000      57.2683       1.2366       3.0000      79.1314      75.3857      73.9414      75.4615      82.0496      79.7951     999.0568      39.7664       3.4741
     175.1076     125.0296       9.0000       0.3743     300.0000     280.0000     281.0000     225.0000     282.0000     135.0000      56.7254       1.2366       3.0000      79.0037      75.3857      73.1656      75.5897      82.0496      79.2933    1009.6937      39.7664       3.4711
     175.1838     123.7338       8.0000       0.4153     174.0000     124.0000     143.0000      82.0000     109.0000      78.0000      60.0529       1.2366       3.0000      79.5147      75.3857      73.6828      75.4615      82.4335      81.4260    1012.1484      36.5865       3.4691
     175.2600     122.7639       7.0000       0.4153      78.0000      65.0000     103.0000      70.0000      66.0000      25.0000      67.1086       1.2366       3.0000      78.8759      75.3857      73.6828      74.6923      82.0496      81.4260    1007.2390      36.5865       3.4694
     175.3362     121.7151       7.0000       0.4153      76.0000      77.0000      98.0000      70.0000      62.0000      28.0000      76.6674       1.2366       3.0000      79.5147      75.3857      73.6828      74.5641      82.4335      81.9278    1010.5120      36.5865       3.4709
     175.4124     121.3921       6.0000       0.4154      44.0000      43.0000     173.0000      46.0000     163.0000       2.0000      86.7024       1.2366       3.0000      79.0037      75.0072      74.4586      74.6923      82.0496      81.4260    1009.6937      36.5865       3.4714
     175.4886     120.7470       6.0000       0.4154     186.0000      66.0000     171.0000     179.0000     199.0000      62.0000      94.8488       1.2366       3.0000      78.1094      75.0072      74.2000      75.4615      82.0496      79.6697     999.8749      36.5865       3.4688
     175.5648     119.3731       6.0000       0.4405     183.0000     180.0000     179.0000     214.0000     159.0000     155.0000      99.1711       1.2366       3.0000      78.1094      75.0072      74.5879      75.0769      81.9216      79.2933    1012.9667      28.4564       3.4632
     175.6410     117.0816       6.0000       0.4405     183.0000     199.0000     141.0000     188.0000     175.0000     142.0000      98.7664       1.2366       3.0000      78.1094      75.0072      75.3637      75.0769      82.0496      79.5442    1009.6937      28.4564       3.4572
     175.7172     115.1115       6.0000       0.4405      87.0000     214.0000     201.0000     193.0000     112.0000     116.0000      93.9754       1.2366       3.0000      78.1094      75.0072      75.3637      75.0769      82.0496      79.2933    1007.2390      28.4564       3.4543
     175.7934     113.6357       8.0000       0.4281     396.0000     788.0000     614.0000     759.0000     410.0000     299.0000      86.1183       1.2366       3.0000      78.4926      75.0072      75.8809      75.0769      82.0496      79.2933    1006.4208      22.5503       3.4553
     175.8696     112.5817       8.0000       0.4281     383.0000     579.0000     313.0000     646.0000     370.0000     334.0000      76.8439       1.2366       3.0000      78.8759      75.0072      75.7516      75.4615      82.0496      79.5442    1007.2390      22.5503       3.4582
     175.9458     110.9618       8.0000       0.4282     365.0000     302.0000     418.0000     384.0000     220.0000     301.0000      67.6376       1.2366       3.0000      79.0037      75.0072      75.8809      75.5897      82.0496      80.1715    1007.2390      22.5503       3.4604
     176.0220     109.6509       8.0000       0.4281     283.0000     423.0000     297.0000     392.0000     293.0000     217.0000      59.4034       1.2366       3.0000      79.0037      75.0072      75.8809      75.4615      82.0496      80.1715    1008.0573      22.5503       3.4605
     176.0982     107.8847       8.0000       0.4205     236.0000     324.0000     341.0000     322.0000     285.0000     200.0000      52.4262       1.2366       3.0000      79.0037      74.8811      75.8809      75.4615      82.0496      80.5478    1010.5120      16.3617       3.4598
     176.1744     105.5444       8.0000       0.4667     350.0000     288.0000     296.0000     369.0000     286.0000     222.0000      46.6159       1.2366       3.0000      79.1314      74.8811      75.8809      75.5897      81.9216      80.1715    1011.3301      15.7321       3.4610
     176.2506     103.7969       8.0000       0.4667     382.0000     374.0000     254.0000     276.0000     233.0000     272.0000      41.7929       1.2366       3.0000      78.6204      74.8811      76.0102      75.5897      82.0496      80.5478    1012.1484      15.7321       3.4642
