~VERSION INFORMATION 
VERS.          2.0   :CWLS LOG ASCII STANDARD - VERSION 2.0
WRAP.          NO    :ONE LINE PER DEPTH STEP
PROD.  Schlumberger   :LAS Producer
PROG.  DLIS to ASCII 19C2-270                          :LAS Program name and version
CREA.        2014/02/23 09:08                          :LAS Creation date {YYYY/MM/DD hh:mm}
DLIS_CREA.  2014-Feb-23 08:51                          :DLIS Creation date and time {YYYY-MMM-DD hh:mm}
SOURCE.     1AA063409108W400_FMI_SONIC_MAIN.dlis       :DLIS File Name
FILE-ID.     ConPr_R2L3Up_S008_FBST_DSLT_HGNS          :File Identification Number
#--------------------------------------------------
~WELL INFORMATION 
#MNEM.UNIT      DATA             DESCRIPTION
#---- ------ --------------   -----------------------------
STRT.M      54.71160        :START DEPTH
STOP.M      257.70840       :STOP DEPTH
STEP.M       0.15240        :STEP
NULL .          -999.25      :NULL VALUE
COMP.        SUNCOR ENERGY INC.                       :COMPANY
WELL.        SUNCOR LEWIS 6-34-91-8                   :WELL
FLD  .        LEWIS                                    :FIELD
LOC.        6-34-91-8W4                              :LOCATION
PROV .        ALBERTA                                  :PROVINCE
UWI.        1AA063409108W400                         :UNIQUE WELL ID
LIC  .        0464072                                  :LICENSE NUMBER
CTRY .        CA                                       :COUNTRY (WWW code)
DATE.        23-Feb-2014                              :LOG DATE {DD-MMM-YYYY}
SRVC .        Schlumberger                             :SERVICE COMPANY
LATI .DEG     56.934500 degrees                        :LATITUDE
LONG .DEG     -111.20540 degrees                       :LONGITUDE
GDAT .                                                 :GeoDetic Datum
SECT .        06-34                                    :Section
RANG .        08W4                                     :Range
TOWN .        091                                      :Township
#-----------------------------------------------------------------------------
~CURVE INFORMATION 
#MNEM.UNIT   API CODE                                  DESCRIPTION
#---- -----  --------                                  -----------------------
 DEPT.M         00 001 00 00             :Depth Index - Measured Depth
   BS.MM        61 280 07 00             :BIT SIZE {F14.5}
   C1.MM        42 280 06 00             :CALIPER 1 {F14.5}
   C2.MM        42 280 05 00             :CALIPER 2 {F14.5}
DEPTH.M         00 001 00 00             :DEPTH INDEX {F14.5}
DEVIM.DEG       00 630 00 00             :MEMORIZED DEVIATION {F14.5}
   DT.US/M      60 520 32 00             :DELTA-T (ALSO CALLED SLOWNESS OR INTERVAL TRANSIT TIME) {F14.5}
   EI.MA        00 000 00 00             :EMEX CURRENT {F14.5}
   EV.V         00 000 00 00             :EMEX VOLTAGE {F14.5}
 FBCR.OHMS      00 000 00 00             :CORRELATION RESISTANCE {F14.5}
   GR.GAPI      42 310 01 00             :GAMMA RAY {F14.5}
 HAZI.DEG       00 620 00 00             :HOLE AZIMUTH RELATIVE TO TRUE NORTH {F14.5}
HAZIM.DEG       00 620 00 00             :HOLE AZIMUTH RELATIVE TO TRUE NORTH {F14.5}
 P1AZ.DEG       00 630 00 00             :PAD 1 AZIMUTH IN HORIZONTAL PLANE (0 = TRUE NORTH) {F14.5}
P1NO_FBST.DEG   00 000 00 00             :PAD 1 AZIMUTH IN PLANE ORTHOGONAL TO TOOL AXIS (0 = TRUE NORTH), MEMORIZED TO FBST {F14.5}
   RB.DEG       00 631 00 00             :RELATIVE BEARING {F14.5}
 SDEV.DEG       00 000 00 00             :SONDE DEVIATION {F14.5}
 TENS.N         61 280 10 00             :CABLE TENSION {F14.5}
  TT1.US        60 520 32 01             :TRANSIT TIME 1 {F14.5}
  TT2.US        60 520 32 02             :TRANSIT TIME 2 {F14.5}
  TT3.US        60 520 32 03             :TRANSIT TIME 3 {F14.5}
  TT4.US        60 520 32 04             :TRANSIT TIME 4 {F14.5}
~PARAMETER INFORMATION 
#MNEM.UNIT    VALUE                      DESCRIPTION
#---- -----   --------------------       ------------------------
 CSGD.M       72.80000                   :Casing Bottom of Driller
 CSGL.M       73.20000                   :Logger Casing Shoe Depth
 CSGS.MM      177.80000                  :Current Casing Size
 CSGW.KG/M    25.30000                   :Casing Weight
 MUDD.K/M3    1090.00000                 :Drilling Fluid Density
  DFL.C3      6.00000                    :Drilling Fluid Loss
   PH.        10.00000                   :Drilling Fluid pH
  MUD.        Polymer                    :Drilling Fluid Type
 MUDV.S       108.00000                  :Drilling Fluid Viscosity
   GL.M       445.00000                  :Elevation of Ground Level
 EREF.M       449.00000                  :Elevation of Kelly Bushing
  ENG.        NICK POLLEY                :Engineer s Name
 DREF.        KB                         :Logging Measured From (Name of Logging Elevation Reference)
 BASE.        WINTER PROJECT             :LOGGING UNIT LOCATION
 FACT.        CP4P-00020                 :Service Order Number
  LIC.        0464072                    :API Well Number
 PROV.        ALBERTA                    :County or Parish
 UNIT.        3125                       :Logging Unit Number
 RMCT.DEGC    8.73000                    :Mudcake Sample Temperature
 RMFT.DEGC    8.73000                    :Mud Filtrate Sample Temperature
 TMAX.DEGC    12.28000                   :Maximum Recorded Temperature
 MUDS.        Flowline                   :Mud Sample Source
  RMT.DEGC    8.73000                    :Mud Sample Temperature
RANGE.        08W4                       :Range
  RMC.OHMM    1.18000                    :Resistivity of Mud Cake Sample
  RMF.OHMM    0.59200                    :Resistivity of Mud Filtrate Sample
   RM.OHMM    0.78900                    :Resistivity of Mud Sample
SECTION.      06-34                      :Section
 TIMC.        01 55 00                   :Time Circulation Stopped
 TIML.        07 55 00                   :Time Logger At Bottom
TOWNSHIP.     091                        :Township
  WIT.        JONATHAN FELL              :Witness s Name
  APD.M       4.00000                    :Elevation of Depth Reference (LMF) Above Permanent Datum
 APIN.        0464072                    :API Well Number
  BHT.DEGC    12.28000                   :Bottom Hole Temperature
  BLI.M       256.00000                  :Bottom Log Interval
   BS.MM      156.00000                  :Bit Size
   CN.        SUNCOR ENERGY INC.         :Company Name
 COUN.        ALBERTA                    :County or Parish
 LDAT.        23-Feb-2014                :Tools Above Rotary Table Date
  DCS.        23-Feb-2014                :Date Circulation Stopped
  DFL.C3      6.00000                    :Drilling Fluid Loss
 DLAB.        23-Feb-2014                :Date Logger At Bottom
  DMF.        KB                         :Drilling Measured From (Name of Drilling Elevation Reference)
  EDF.M       448.70001                  :Elevation of Drill Floor
  EGL.M       445.00000                  :Elevation of Ground Level
  EKB.M       449.00000                  :Elevation of Kelly Bushing
   FD.K/M3    1000.00000                 :Fluid Density
   FL.        6-34-91-8W4               :FIELD LOCATION
  FL1.        1AA063409108W400           :Field Location, Line 1
  FL2.                                   :Field Location, Line 2
   FN.        LEWIS                      :Field Name
 HID1.                                   :Header Identifier 1
 HID2.                                   :Header Identifier 2
 HIDE.        LEWIS                      :Header Identifier
 LATI.        56.934500 degrees          :Latitude
  LMF.        KB                         :Logging Measured From (Name of Logging Elevation Reference)
 LONG.        -111.20540 degrees         :Longitude
 MATR.        SAND                       :Rock Matrix for Neutron Porosity Corrections
 MCSS.        Calculated                 :Mudcake Sample Source
 MDEC.DEG     14.38033                   :Magnetic Field Declination
 MDEN.K/M3    2650.00000                 :Matrix Density for Density Porosity
 MRT1.DEGC    12.28000                   :Maximum Recorded Temperature 1
 MRT2.DEGC    -999.25000                 :Maximum Recorded Temperature 2
  NMT.        NOBARITE                   :HRDD Mud Type for Nuclear Devices
  OS1.                                   :Other Services Line 1
  OS2.                                   :Other Services Line 2
  OS3.                                   :Other Services Line 3
  OS4.                                   :Other Services Line 4
  OS5.                                   :Other Services Line 5
 PDAT.        GL                         :Permanent Datum
   R1.        THANK YOU FOR CHOOSING SCHLUMBERGER  :Remarks Line 1
   R2.        ALL TOOLS RAN AS PER TOOL SKETCH AND ALL PRESENTATIONS AS PER CLIENT REQUEST  :Remarks Line 2
   R3.        INDUCTION LOG – DESCENT #1 :Remarks Line 3
   R4.        NEUTRON / DENSITY LOG – DESCENT #1  :Remarks Line 4
  RMB.OHMM    0.70618                    :Resistivity of Mud at Bottom Hole Temperature
 RMFB.OHMM    0.52986                    :Resistivity of Mud Filtrate At Bottom Hole Temperature
  RUN.        ONE/2                      :Run Number
  SON.        CP4P-00020                 :SERVICE ORDER NUMBER
  TDD.M       256.00000                  :Driller Total Depth
  TDL.M       256.00000                  :Logger Total Depth
  TLI.M       75.00000                   :Top Log Interval
 UWID.        1AA063409108W400           :Unique Well Identifier
   WN.        SUNCOR LEWIS 6-34-91-8     :Well Name
  EPD.C3      445.000000                 :Elevation of Permanent Datum above Mean Sea Level
#-----------------------------------------------------------------------------
#
#      DEPT          BS            C1            C2            DEPTH         DEVIM         DT            EI            EV            FBCR          GR            HAZI          HAZIM         P1AZ        P1NO_FBST       RB            SDEV          TENS          TT1           TT2           TT3           TT4
#
#-----------------------------------------------------------------------------

~A       DEPT           BS           C1           C2        DEPTH        DEVIM           DT           EI           EV         FBCR           GR         HAZI        HAZIM         P1AZ    P1NO_FBST           RB         SDEV         TENS          TT1          TT2          TT3          TT4
# ...
     66.59880     250.99998     102.31979     100.68327      73.00416    -999.25000     174.96022      -8.53821      -0.01949    -999.25000      82.06724       7.55938       7.55938     329.35168     329.35226     321.79321       0.43980    3357.88403     429.33057     322.14066     426.99292     320.92331
     66.75120     250.99998     102.31979     100.68327      73.00416    -999.25000     173.13905      -8.53821      -0.01949    -999.25000      88.60255       7.55938       7.55938     329.35168     329.35226     321.79321       0.43980    3357.88403     427.62411     320.22003     425.88058     317.90826
     66.90360     250.99998     102.31979     100.68327      73.00416    -999.25000     172.16721      -8.53821      -0.01949    -999.25000      83.48585       7.55938       7.55938     329.35168     329.35226     321.79321       0.43980    3357.88403     423.14258     321.31631     422.58124     320.00778
     67.05600     250.99998     102.31979     100.68327      73.00416    -999.25000     188.04788      -8.53821      -0.01949    -999.25000      85.43385       7.55938       7.55938     329.35168     329.35226     321.79321       0.43980    3357.88403     424.04858     322.46591     422.04517     321.84750
     67.20840     250.99998     102.31979     100.68327      73.00416    -999.25000     187.71077      -8.53821      -0.01949    -999.25000      82.41737       7.55938       7.55938     329.35168     329.35226     321.79321       0.43980    3357.88403     423.06845     322.46408     423.04877     321.80850
     67.36080     250.99998     102.31979     100.68327      73.00416    -999.25000     186.23322      -8.53821      -0.01949    -999.25000      83.63805       7.55938       7.55938     329.35168     329.35226     321.79321       0.43980    3357.88403     423.08862     322.99997     422.87433     322.25690
     67.51320     250.99998     102.31979     100.68327      73.00416    -999.25000     190.59554      -8.53821      -0.01949    -999.25000      82.29128       7.55938       7.55938     329.35168     329.35226     321.79321       0.43980    3357.88403     421.47562     323.18668     422.15610     321.93927
     67.66560     250.99998     102.31979     100.68327      73.00416    -999.25000     191.24974      -8.53821      -0.01949    -999.25000      80.65767       7.55938       7.55938     329.35168     329.35226     321.79321       0.43980    3357.88403     425.83170     322.22116     425.87875     302.39041
     67.81800     250.99998     102.31979     100.68327      73.00416    -999.25000     169.16669      -8.53821      -0.01949    -999.25000      81.18733       7.55938       7.55938     329.35168     329.35226     321.79321       0.43980    3357.88403     426.81131     299.37885     426.66327     299.23795
     67.97040     250.99998     102.31979     100.68327      73.00416    -999.25000     166.04218      -8.53821      -0.01949    -999.25000      78.82658       7.55938       7.55938     329.35168     329.35226     321.79321       0.43980    3357.88403     428.24512     303.78015     428.31842     298.62292
     68.12280     250.99998     102.31979     100.68327      73.00416    -999.25000     167.59625      -8.53821      -0.01949    -999.25000      78.32388       7.55938       7.55938     329.35168     329.35226     321.79321       0.43980    3357.88403     431.04419     304.52286     430.07724     298.87003
     68.27520     250.99998     102.31979     100.68327      73.00416    -999.25000     166.13046      -8.53821      -0.01949    -999.25000      79.42822       7.55938       7.55938     329.35168     329.35226     321.79321       0.43980    3357.88403     429.84744     301.30249     426.14261     299.93881
     68.42760     250.99998     102.31979     100.68327      73.00416    -999.25000     187.61084      -8.53821      -0.01949    -999.25000      81.43892       7.55938       7.55938     329.35168     329.35226     321.79321       0.43980    3357.88403     427.68692     299.66745     421.30746     319.77023
     68.58000     250.99998     102.31979     100.68327      73.00416    -999.25000     192.08900      -8.53821      -0.01949    -999.25000      80.43327       7.55938       7.55938     329.35168     329.35226     321.79321       0.43980    3357.88403     424.04291     322.59647     424.09085     320.91290
     68.73240     250.99998     102.31979     100.68327      73.00416    -999.25000     190.69409      -8.53821      -0.01949    -999.25000      77.91975       7.55938       7.55938     329.35168     329.35226     321.79321       0.43980    3357.88403     422.27115     320.58359     420.45364     319.69345
     68.88480     250.99998     102.31979     100.68327      73.00416    -999.25000     189.13336      -8.53821      -0.01949    -999.25000      72.51561       7.55938       7.55938     329.35168     329.35226     321.79321       0.43980    3357.88403     423.59454     321.85648     421.85986     321.47446
     69.03720     250.99998     102.31979     100.68327      73.00416    -999.25000     188.01692      -8.53821      -0.01949    -999.25000      73.64690       7.55938       7.55938     329.35168     329.35226     321.79321       0.43980    3357.88403     425.56827     322.79327     427.47318     321.66544
     69.18960     250.99998     102.31979     100.68327      73.00416    -999.25000     164.66986      -8.53821      -0.01949    -999.25000      75.32554       7.55938       7.55938     329.35168     329.35226     321.79321       0.43980    3357.88403     428.55243     323.46909     430.09180     321.48007
     69.34200     250.99998     102.31979     100.68327      73.00416    -999.25000     166.38794      -8.53821      -0.01949    -999.25000      76.58237       7.55938       7.55938     329.35168     329.35226     321.79321       0.43980    3357.88403     426.88510     323.64572     429.23398     322.87360
     69.49440     250.99998     102.31979     100.68327      73.00416    -999.25000     185.87617      -8.53821      -0.01949    -999.25000      76.69907       7.55938       7.55938     329.35168     329.35226     321.79321       0.43980    3357.88403     427.56808     322.93634     425.88104     322.02710
     69.64680     250.99998     102.31979     100.68327      73.00416    -999.25000     187.04614      -8.53821      -0.01949    -999.25000      76.65408       7.55938       7.55938     329.35168     329.35226     321.79321       0.43980    3357.88403     428.74954     321.10434     426.04703     320.76236
     69.79920     250.99998     102.31979     100.68327      73.00416    -999.25000     170.44829      -8.53821      -0.01949    -999.25000      79.40128       7.55938       7.55938     329.35168     329.35226     321.79321       0.43980    3357.88403     428.88730     322.61633     423.73102     320.90250
     69.95160     250.99998     102.31979     100.68327      73.00416    -999.25000     173.47218      -8.53821      -0.01949    -999.25000      79.40109       7.55938       7.55938     329.35168     329.35226     321.79321       0.43980    3357.88403     429.47214     325.24725     424.08817     324.59143
     70.10400     250.99998     102.31979     100.68327      73.00416    -999.25000     279.18146      -8.53821      -0.01949    -999.25000      81.53783       7.55938      30.74532     329.35168     329.35226     321.79321       0.43980    3357.88403     431.80963     326.68811     428.38321     303.13171
     70.25640     250.99998     102.31979     100.68327      73.00416    -999.25000     302.88257      -8.53821      -0.01949    -999.25000      82.68655       7.55938      37.10767     329.35168     329.35226     321.79321       0.43980    3357.88403     435.79221     326.85437     433.46439     303.81744
     70.40880     250.99998     102.31979     100.68327      73.00416    -999.25000     306.53967      -8.53821      -0.01949    -999.25000      82.82150       7.55938      30.89350     329.35168     329.35226     321.79321       0.43980    3357.88403     440.69635     330.56989     436.08905     327.48581
