~Version Information
 VERS.                2.00:   CWLS log ASCII Standard -VERSION 2.00
 WRAP.                  NO:   One line per frame      
~Well Information Block
#MNEM.UNIT                   Data                        Description
#----.----   -----------------------------------------   -------------------------------
 STRT.M                                       26.9748 : Starting Depth
 STOP.M                                      187.9854 : Ending Depth
 STEP.M                                        0.0762 : Level Spacing
 NULL.                                      -999.2500 : Absent Value
 COMP.       SUNCOR ENERGY INC                        : Company
 WELL.       SUNCOR LEWIS 7-22-92-8                   : Well
 FLD .       UNDEFINED                                : Field
 LOC .       LSD 07-22-092-08W4                       : Location
 PROV.       ALBERTA                                  : Province
 CTRY.       CA                                       : Country
 SRVC.       Baker Hughes                             : Service Company
 DATE.       16-JAN-2016                              : Log Date
 UWI .       1AA072209208W400                         : Unique Well ID
 LIC .       0477502                                  : License Number
 LATI.DEG    57.0175 N                                : Latitude Coordinates
 LONG.DEG    -111.419 W                               : Longitude Coordinates
~Curve Information Block
#MNEM    .UNIT        API Codes     Curve Description
#--------.--------   LG--CV-CL--M   -------------------------------
 DEPT    .M           0 001  0  1 : Depth
 AZSTQH  .deg        99 995 99  1 : Azimuth of reference pad for STAR
 BKRGQH  .dim        99 995 99  1 : Bucker driver value
 DEVSTQH .deg        99 995 99  1 : Deviation for STAR
 DIP1QH  .raw        75 610  1  1 : Pad 1 average data of buttons 11, 12, 13, 14
 DIP2QH  .raw        75 610  1  1 : Pad 2 average data of buttons 11, 12, 13, 14
 DIP3QH  .raw        75 610  1  1 : Pad 3 average data of buttons 11, 12, 13, 14
 DIP4QH  .raw        75 610  1  1 : Pad 4 average data of buttons 11, 12, 13, 14
 DIP5QH  .raw        75 610  1  1 : Pad 5 average data of buttons 11, 12, 13, 14
 DIP6QH  .raw        75 610  1  1 : Pad 6 average data of buttons 11, 12, 13, 14
 GR      .gAPI       30 310  1  1 : Gamma ray
 PADFQH  .pct        94 995 99  1 : Pad force
 PADGQH  .dim        99 995 99  1 : Pad gain code
 RAD1QH  .mm         75 280 99  1 : Radius, tool axis to pad 1 face
 RAD2QH  .mm         75 280 99  1 : Radius, tool axis to pad 2 face
 RAD3QH  .mm         75 280 99  1 : Radius, tool axis to pad 3 face
 RAD4QH  .mm         75 280 99  1 : Radius, tool axis to pad 4 face
 RAD5QH  .mm         75 280 99  1 : Radius, tool axis to pad 5 face
 RAD6QH  .mm         75 280 99  1 : Radius, tool axis to pad 6 face
 RAZGSTQH.mG         99 995 99  1 : Raw Z-axis accelerometer shifted to STAR
 RBSTQH  .deg        99 995 99  1 : Relative bearing (relative to borehole high side) for STAR
 SPD     .m/min      99 636 99  1 : Speed
~Parameter Information Block
#MNEM.UNIT                     Value                    Description
#----.----   ----------------------------------------   -------------------------------
 HID1.       RESISTIVITY IMAGING LOG^T                : Header Identifer
 HID2.       GAMMA RAY LOG                            : Header Identifer
 FILE.       3953                                     : File Number
 CMT1.       UID                                      : Comment 1  
 CMT2.       1AA072209208W400                         : Comment 2  
 CMT3.       LICENSE                                  : Comment 3  
 CMT4.       0477502                                  : Comment 4  
 FL2 .       BH LOC. LSD  07                          : Field Location 2
 SECT.       22                                       : Section
 TOWN.       092                                      : Township
 RANG.       08W4                                     : Range
 OS1 .       ZDL-CN-GR-CAL                            : Other Services Line 1
 OS2 .       HDIL-GR-CAL, CVL                         : Other Services Line 2
 OS3 .       DAL-GR-CAL                               : Other Services Line 3
 OS4 .       COMPOSITE                                : Other Services Line 4
 PDAT.       G.L.                                     : Permanent Datum
 EPD .M      438.50                                   : Elevation Of Perm. Datum
 LMF .       K.B.                                     : Log Measured From
 APD .M      2.20                                     : Above Permanent Datum
 DMF .       KELLY BUSHING                            : Drilling Measured From
 EKB .M      440.70                                   : Elevation Of Kelly Bushing
 EGL .M      438.50                                   : Elevation Of Ground Level
 RUN .       1                                        : Run Number
 TRIP.       1                                        : Trip Number
 SON .       CA003953J                                : Service Order Number
 TDD .M      187.0                                    : Total Depth - Driller
 TDL .M      186.3                                    : Total Depth - Logger
 BLI .M      183.0                                    : Bottom Log Interval
 TLI .M      55.0                                     : Top Log Interval
 CSIZ.MM     177.8                                    : Casing Size
 CBDR.M      49.4                                     : Casing Bottom - Driller
 CBLO.M      49.4                                     : Casing Bottom - Logger
 BS  .MM     156.0                                    : Bit Size
 DFT .       WB (WATER BASE MUD)                      : Drilling Fluid Type
 DFD .G/L    1030.0                                   : Drilling Fluid Density
 DFV .S      79.0                                     : Drilling Fluid Viscosity
 DFPH.       7.0                                      : Drilling Fluid Ph
 DFL .ML     8.0                                      : Drilling Fluid Loss
 MSS .       F (FLOWLINE)                             : Mud Sample Source
 RMS .OHMM   1.2                                      : Resistivity Of Mud Sample
 MST .DEGC   25.0                                     : Mud Sample Temperature
 RMFS.OHMM   1.0                                      : Resistivity Of Mud Filtrate Sample
 MFST.DEGC   25.0                                     : Mud Filtrate Sample Temperature
 RMCS.OHMM   1.4                                      : Resistivity Of Mud Cake Sample
 MCST.DEGC   25.0                                     : Mud Cake Sample Temperature
 MFSS.       CALCULATED                               : Mud Filtrate Sample Source
 MCSS.       CALCULATED                               : Mud Cake Sample Source
 RMB .OHMM   2.0                                      : Mud Resistivity At Bht
 BHT .DEGC   7.0                                      : Bottom Hole Temperature
 TSC .       5.0 HOURS                                : Time Since Circulation
 MRT .DEGC   7.0                                      : Maximum Recorded Temperature
 LUN .       Z004250                                  : Logging Unit Number
 LUL .       LEDUC OH                                 : Logging Unit Location
 ENGI.       A.MALIK                                  : Engineer's Name
 WITN.       H.WILSON / P.ENE                         : Witness' Name
 TSTR.       /STAR/GR/                                : Title Service Mnemonic
 TSTG.       NA                                       : Title Service Mnemonic
 STUS.       FINAL                                    : Status
 LCNM.       BAKER ATLAS                              : Logging Company Name
 LCC .       150                                      : Logging Company Code
 OPMD.       OH.WIRE                                  : Operation Mode
 PANA.       A.MALIK                                  : Processing Analyst
 PCON.       BAKER ATLAS                              : Processing Contractor
 APIN.                                                : API Serial Number
 STAT.                                                : State Or Province
~Other information
LAT/LON  57.0175, -111.419                                                      
TIME STOPPED CIRCULATION  16-JAN-2016 0830AM                                    
STAR RUN WITH 0% PAD FORCE AND AUTOMATICALLY CONTROLLED GAINS                   
ANY STICK AND PULL AFFECTS LOG QUALITY                                          
RIG  ENCORE 402                                                                 
CREW  F.AJAGU, A.MALIK                                                          
#  Curve Data
~A   DEPT         AZSTQH       BKRGQH       DEVSTQH      DIP1QH       DIP2QH       DIP3QH       DIP4QH       DIP5QH       DIP6QH       GR           PADFQH       PADGQH       RAD1QH       RAD2QH       RAD3QH       RAD4QH       RAD5QH       RAD6QH       RAZGSTQH     RBSTQH       SPD       
# ...
      61.1124     270.5134       7.0000       0.0657     387.0000     397.0000     378.0000     347.0000     380.0000     321.0000      88.4766       1.2366       3.0000      80.0257      74.8811      74.0707      73.2820      82.0496      81.0496    1009.6937     325.0215       2.6829
      61.1886     270.6507       7.0000       0.0657     362.0000     361.0000     378.0000     470.0000     316.0000     351.0000      88.7899       1.2366       3.0000      80.0257      74.8811      74.0707      73.2820      82.0496      81.0496    1010.5120     325.0215       3.0131
      61.2648     270.6280       7.0000       0.0657     408.0000     336.0000     413.0000     353.0000     467.0000     214.0000      89.1776       1.2366       3.0000      80.0257      74.8811      74.0707      73.2820      82.0496      81.0496    1012.1484     325.0215       3.2838
      61.3410     270.3528       7.0000       0.0657     308.0000     444.0000     345.0000     520.0000     360.0000     366.0000      89.4878       1.2366       3.0000      80.0257      74.8811      74.0707      73.4102      82.0496      81.1751    1009.6937     325.0215       3.4593
      61.4172     270.3528       7.0000       0.0657     460.0000     338.0000     374.0000     414.0000     333.0000     291.0000      89.5948       1.2366       3.0000      80.0257      74.8811      74.3293      73.2820      82.0496      81.0496    1013.7849     325.0215       3.5417
      61.4934     269.6418       7.0000       0.0657     423.0000     448.0000     469.0000     437.0000     512.0000     346.0000      89.4659       1.2366       3.0000      80.0257      74.8811      74.3293      73.4102      82.0496      81.1751    1010.5120     325.0215       3.5626
      61.5696     268.4924       7.0000       0.0657     387.0000     469.0000     311.0000     524.0000     312.0000     291.0000      89.1734       1.2366       3.0000      79.8980      74.8811      74.0707      73.4102      82.0496      81.3005    1008.8755     325.0215       3.5581
      61.6458     266.2220       7.0000       0.0657     366.0000     415.0000     319.0000     275.0000     259.0000     313.0000      88.8565       1.2366       3.0000      79.8980      74.8811      74.0707      73.2820      82.0496      81.0496    1014.6031     325.0215       3.5484
      61.7220     265.0360       7.0000       0.0657     355.0000     454.0000     339.0000     486.0000     294.0000     401.0000      88.6395       1.2366       3.0000      79.8980      74.8811      74.0707      73.4102      82.0496      81.4260    1009.6937     325.0215       3.5397
      61.7982     264.1911       7.0000       0.0657     391.0000     334.0000     406.0000     346.0000     401.0000     376.0000      88.5942       1.2366       3.0000      79.8980      74.8811      74.0707      73.2820      82.0496      81.3005    1010.5120     325.0215       3.5335
      61.8744     264.1530       7.0000       0.0657     214.0000     358.0000     296.0000     268.0000     333.0000     249.0000      88.6726       1.2366       3.0000      79.8980      74.8811      74.0707      73.4102      82.0496      81.3005    1005.6026     325.0215       3.5298
      61.9506     265.3419       7.0000       0.0657     327.0000     301.0000     272.0000     318.0000     365.0000     311.0000      88.7880       1.2366       3.0000      79.8980      74.8811      74.0707      73.2820      82.0496      81.0496    1011.3301     325.0215       3.5271
      62.0268     266.6290       7.0000       0.0657     305.0000     299.0000     297.0000     327.0000     390.0000     253.0000      88.9095       1.2366       3.0000      79.8980      74.7550      74.0707      73.2820      82.0496      81.1751    1009.6937     325.0215       3.5230
      62.1030     268.0536       7.0000       0.0657     301.0000     408.0000     316.0000     302.0000     274.0000     297.0000      89.0198       1.2366       3.0000      80.0257      74.7550      74.0707      73.2820      82.0496      81.1751    1009.6937     325.0215       3.5151
      62.1792     271.1797       7.0000       0.0657     305.0000     310.0000     273.0000     392.0000     352.0000     281.0000      89.1249       1.2366       3.0000      80.0257      74.7550      74.0707      73.4102      82.0496      81.0496    1010.5120     325.0215       3.5015
      62.2554     274.0052       7.0000       0.0657     362.0000     293.0000     335.0000     282.0000     336.0000     245.0000      89.3233       1.2366       3.0000      80.0257      74.7550      74.0707      73.4102      82.0496      81.1751    1008.8755     325.0215       3.4810
      62.3316     276.3841       7.0000       0.0657     420.0000     305.0000     287.0000     370.0000     347.0000     297.0000      89.6750       1.2366       3.0000      80.0257      74.7550      73.6828      73.2820      82.0496      81.0496    1007.2390     325.0215       3.4552
      62.4078     279.7413       7.0000       0.0464     424.0000     408.0000     478.0000     367.0000     472.0000     232.0000      90.0186       1.2366       3.0000      80.0257      74.7550      73.6828      73.4102      82.0496      81.0496    1009.6937     280.0215       3.4283
      62.4840     286.6248       7.0000       0.0464     449.0000     478.0000     461.0000     430.0000     397.0000     432.0000      89.9713       1.2366       3.0000      80.0257      74.7550      73.6828      73.4102      82.0496      81.0496    1009.6937     280.0215       3.4054
      62.5602     293.7517       7.0000       0.0000     376.0000     456.0000     444.0000     460.0000     375.0000     472.0000      89.0890       1.2366       3.0000      79.6424      74.8811      73.6828      73.4102      82.0496      81.0496    1008.8755       0.0000       3.3908
      62.6364     298.8552       7.0000       0.0000     524.0000     439.0000     409.0000     485.0000     406.0000     369.0000      87.2058       1.2366       3.0000      79.6424      74.8811      73.6828      73.2820      82.0496      81.0496    1009.6937       0.0000       3.3856
      62.7126     301.5111       7.0000       0.0000     415.0000     460.0000     449.0000     489.0000     460.0000     404.0000      84.4949       1.2366       3.0000      79.6424      74.7550      73.5535      73.2820      82.0496      81.0496    1008.0573       0.0000       3.3878
      62.7888     303.2017       7.0000       0.0000     355.0000     451.0000     242.0000     465.0000     289.0000     420.0000      81.3114       1.2366       3.0000      79.6424      74.7550      73.5535      73.2820      82.0496      81.0496    1008.0573       0.0000       3.3940
      62.8650     304.0834       7.0000       0.0464     362.0000     362.0000     247.0000     378.0000     225.0000     313.0000      78.0442       1.2366       3.0000      79.5147      74.8811      73.5535      73.2820      82.0496      81.0496    1007.2390     190.0215       3.4011
      62.9412     304.2684       7.0000       0.0464     370.0000     361.0000     388.0000     397.0000     377.0000     228.0000      75.0700       1.2366       3.0000      79.5147      74.7550      73.5535      73.2820      82.0496      81.0496    1012.9667     190.0215       3.4062
      63.0174     303.7710       7.0000       0.0464     439.0000     316.0000     437.0000     259.0000     402.0000     286.0000      72.6305       1.2366       3.0000      79.6424      74.8811      73.5535      73.2820      82.0496      81.0496    1008.8755     190.0215       3.4076
      63.0936     303.7710       7.0000       0.0464     232.0000     401.0000     206.0000     394.0000     224.0000     312.0000      70.7658       1.2366       3.0000      80.1535      74.7550      73.6828      73.2820      82.0496      81.0496    1012.9667     190.0215       3.4022
      63.1698     303.4587       7.0000       0.0464     232.0000     217.0000     212.0000     222.0000     232.0000     206.0000      69.3374       1.2366       3.0000      80.1535      74.6288      73.5535      73.2820      82.0496      80.9242    1010.5120     190.0215       3.3871
