~VERSION INFORMATION 
VERS.          2.0   :CWLS LOG ASCII STANDARD - VERSION 2.0
WRAP.          NO    :ONE LINE PER DEPTH STEP
PROD.  Schlumberger   :LAS Producer
PROG.  DLIS to ASCII 19C2-270                          :LAS Program name and version
CREA.        2014/02/23 09:08                          :LAS Creation date {YYYY/MM/DD hh:mm}
DLIS_CREA.  2014-Feb-23 08:51                          :DLIS Creation date and time {YYYY-MMM-DD hh:mm}
SOURCE.     1AA063409108W400_FMI_SONIC_REPEAT.dlis     :DLIS File Name
FILE-ID.     ConPr_R2L2Up_S008_FBST_DSLT_HGNS          :File Identification Number
#--------------------------------------------------
~WELL INFORMATION 
#MNEM.UNIT      DATA             DESCRIPTION
#---- ------ --------------   -----------------------------
STRT.M      88.69680        :START DEPTH
STOP.M      258.01320       :STOP DEPTH
STEP.M       0.15240        :STEP
NULL .          -999.25      :NULL VALUE
COMP.        SUNCOR ENERGY INC.                       :COMPANY
WELL.        SUNCOR LEWIS 6-34-91-8                   :WELL
FLD  .        LEWIS                                    :FIELD
LOC.        6-34-91-8W4                              :LOCATION
PROV .        ALBERTA                                  :PROVINCE
UWI.        1AA063409108W400                         :UNIQUE WELL ID
LIC  .        0464072                                  :LICENSE NUMBER
CTRY .        CA                                       :COUNTRY (WWW code)
DATE.        23-Feb-2014                              :LOG DATE {DD-MMM-YYYY}
SRVC .        Schlumberger                             :SERVICE COMPANY
LATI .DEG     56.934500 degrees                        :LATITUDE
LONG .DEG     -111.20540 degrees                       :LONGITUDE
GDAT .                                                 :GeoDetic Datum
SECT .        06-34                                    :Section
RANG .        08W4                                     :Range
TOWN .        091                                      :Township
#-----------------------------------------------------------------------------
~CURVE INFORMATION 
#MNEM.UNIT   API CODE                                  DESCRIPTION
#---- -----  --------                                  -----------------------
 DEPT.M         00 001 00 00             :Depth Index - Measured Depth
   BS.MM        61 280 07 00             :BIT SIZE {F14.5}
   C1.MM        42 280 06 00             :CALIPER 1 {F14.5}
   C2.MM        42 280 05 00             :CALIPER 2 {F14.5}
DEPTH.M         00 001 00 00             :DEPTH INDEX {F14.5}
DEVIM.DEG       00 630 00 00             :MEMORIZED DEVIATION {F14.5}
   DT.US/M      60 520 32 00             :DELTA-T (ALSO CALLED SLOWNESS OR INTERVAL TRANSIT TIME) {F14.5}
   EI.MA        00 000 00 00             :EMEX CURRENT {F14.5}
   EV.V         00 000 00 00             :EMEX VOLTAGE {F14.5}
 FBCR.OHMS      00 000 00 00             :CORRELATION RESISTANCE {F14.5}
   GR.GAPI      42 310 01 00             :GAMMA RAY {F14.5}
 HAZI.DEG       00 620 00 00             :HOLE AZIMUTH RELATIVE TO TRUE NORTH {F14.5}
HAZIM.DEG       00 620 00 00             :HOLE AZIMUTH RELATIVE TO TRUE NORTH {F14.5}
 P1AZ.DEG       00 630 00 00             :PAD 1 AZIMUTH IN HORIZONTAL PLANE (0 = TRUE NORTH) {F14.5}
P1NO_FBST.DEG   00 000 00 00             :PAD 1 AZIMUTH IN PLANE ORTHOGONAL TO TOOL AXIS (0 = TRUE NORTH), MEMORIZED TO FBST {F14.5}
   RB.DEG       00 631 00 00             :RELATIVE BEARING {F14.5}
 SDEV.DEG       00 000 00 00             :SONDE DEVIATION {F14.5}
 TENS.N         61 280 10 00             :CABLE TENSION {F14.5}
  TT1.US        60 520 32 01             :TRANSIT TIME 1 {F14.5}
  TT2.US        60 520 32 02             :TRANSIT TIME 2 {F14.5}
  TT3.US        60 520 32 03             :TRANSIT TIME 3 {F14.5}
  TT4.US        60 520 32 04             :TRANSIT TIME 4 {F14.5}
~PARAMETER INFORMATION 
#MNEM.UNIT    VALUE                      DESCRIPTION
#---- -----   --------------------       ------------------------
 CSGD.M       72.80000                   :Casing Bottom of Driller
 CSGL.M       73.20000                   :Logger Casing Shoe Depth
 CSGS.MM      177.80000                  :Current Casing Size
 CSGW.KG/M    25.30000                   :Casing Weight
 MUDD.K/M3    1090.00000                 :Drilling Fluid Density
  DFL.C3      6.00000                    :Drilling Fluid Loss
   PH.        10.00000                   :Drilling Fluid pH
  MUD.        Polymer                    :Drilling Fluid Type
 MUDV.S       108.00000                  :Drilling Fluid Viscosity
   GL.M       445.00000                  :Elevation of Ground Level
 EREF.M       449.00000                  :Elevation of Kelly Bushing
  ENG.        NICK POLLEY                :Engineer s Name
 DREF.        KB                         :Logging Measured From (Name of Logging Elevation Reference)
 BASE.        WINTER PROJECT             :LOGGING UNIT LOCATION
 FACT.        CP4P-00020                 :Service Order Number
  LIC.        0464072                    :API Well Number
 PROV.        ALBERTA                    :County or Parish
 UNIT.        3125                       :Logging Unit Number
 RMCT.DEGC    8.73000                    :Mudcake Sample Temperature
 RMFT.DEGC    8.73000                    :Mud Filtrate Sample Temperature
 TMAX.DEGC    12.28000                   :Maximum Recorded Temperature
 MUDS.        Flowline                   :Mud Sample Source
  RMT.DEGC    8.73000                    :Mud Sample Temperature
RANGE.        08W4                       :Range
  RMC.OHMM    1.18000                    :Resistivity of Mud Cake Sample
  RMF.OHMM    0.59200                    :Resistivity of Mud Filtrate Sample
   RM.OHMM    0.78900                    :Resistivity of Mud Sample
SECTION.      06-34                      :Section
 TIMC.        01 55 00                   :Time Circulation Stopped
 TIML.        07 55 00                   :Time Logger At Bottom
TOWNSHIP.     091                        :Township
  WIT.        JONATHAN FELL              :Witness s Name
  APD.M       4.00000                    :Elevation of Depth Reference (LMF) Above Permanent Datum
 APIN.        0464072                    :API Well Number
  BHT.DEGC    12.28000                   :Bottom Hole Temperature
  BLI.M       256.00000                  :Bottom Log Interval
   BS.MM      156.00000                  :Bit Size
   CN.        SUNCOR ENERGY INC.         :Company Name
 COUN.        ALBERTA                    :County or Parish
 LDAT.        23-Feb-2014                :Tools Above Rotary Table Date
  DCS.        23-Feb-2014                :Date Circulation Stopped
  DFL.C3      6.00000                    :Drilling Fluid Loss
 DLAB.        23-Feb-2014                :Date Logger At Bottom
  DMF.        KB                         :Drilling Measured From (Name of Drilling Elevation Reference)
  EDF.M       448.70001                  :Elevation of Drill Floor
  EGL.M       445.00000                  :Elevation of Ground Level
  EKB.M       449.00000                  :Elevation of Kelly Bushing
   FD.K/M3    1000.00000                 :Fluid Density
   FL.        6-34-91-8W4               :FIELD LOCATION
  FL1.        1AA063409108W400           :Field Location, Line 1
  FL2.                                   :Field Location, Line 2
   FN.        LEWIS                      :Field Name
 HID1.                                   :Header Identifier 1
 HID2.                                   :Header Identifier 2
 HIDE.        LEWIS                      :Header Identifier
 LATI.        56.934500 degrees          :Latitude
  LMF.        KB                         :Logging Measured From (Name of Logging Elevation Reference)
 LONG.        -111.20540 degrees         :Longitude
 MATR.        SAND                       :Rock Matrix for Neutron Porosity Corrections
 MCSS.        Calculated                 :Mudcake Sample Source
 MDEC.DEG     14.38033                   :Magnetic Field Declination
 MDEN.K/M3    2650.00000                 :Matrix Density for Density Porosity
 MRT1.DEGC    12.28000                   :Maximum Recorded Temperature 1
 MRT2.DEGC    -999.25000                 :Maximum Recorded Temperature 2
  NMT.        NOBARITE                   :HRDD Mud Type for Nuclear Devices
  OS1.                                   :Other Services Line 1
  OS2.                                   :Other Services Line 2
  OS3.                                   :Other Services Line 3
  OS4.                                   :Other Services Line 4
  OS5.                                   :Other Services Line 5
 PDAT.        GL                         :Permanent Datum
   R1.        THANK YOU FOR CHOOSING SCHLUMBERGER  :Remarks Line 1
   R2.        ALL TOOLS RAN AS PER TOOL SKETCH AND ALL PRESENTATIONS AS PER CLIENT REQUEST  :Remarks Line 2
   R3.        INDUCTION LOG – DESCENT #1 :Remarks Line 3
   R4.        NEUTRON / DENSITY LOG – DESCENT #1  :Remarks Line 4
  RMB.OHMM    0.70618                    :Resistivity of Mud at Bottom Hole Temperature
 RMFB.OHMM    0.52986                    :Resistivity of Mud Filtrate At Bottom Hole Temperature
  RUN.        ONE/2                      :Run Number
  SON.        CP4P-00020                 :SERVICE ORDER NUMBER
  TDD.M       256.00000                  :Driller Total Depth
  TDL.M       256.00000                  :Logger Total Depth
  TLI.M       75.00000                   :Top Log Interval
 UWID.        1AA063409108W400           :Unique Well Identifier
   WN.        SUNCOR LEWIS 6-34-91-8     :Well Name
  EPD.C3      445.000000                 :Elevation of Permanent Datum above Mean Sea Level
#-----------------------------------------------------------------------------
#
#      DEPT          BS            C1            C2            DEPTH         DEVIM         DT            EI            EV            FBCR          GR            HAZI          HAZIM         P1AZ        P1NO_FBST       RB            SDEV          TENS          TT1           TT2           TT3           TT4
#
#-----------------------------------------------------------------------------

~A       DEPT           BS           C1           C2        DEPTH        DEVIM           DT           EI           EV         FBCR           GR         HAZI        HAZIM         P1AZ    P1NO_FBST           RB         SDEV         TENS          TT1          TT2          TT3          TT4
# ...
    199.64400     156.00000     153.72836     152.80231     199.64209       0.50810     467.43954    2845.91309      10.19536  167263.76563     126.49404     210.50262     206.58994      77.68332      75.66582     227.17932       0.52844    5363.72119     864.01184     577.21881     859.80365     573.91406
    199.79640     156.00000     153.72836     152.80231     199.79893       0.50970     467.71591    2881.70044      10.05890  142335.46875     124.57755     210.26987     206.35500      76.86492      75.06751     226.59453       0.51720    5381.51416     856.66913     571.27698     853.71063     567.99451
    199.94880     156.00000     153.72836     152.80231     199.95171       0.51158     461.68781    2879.99609       9.98093  138993.82813     131.80399     209.96500     206.05524      75.98984      75.33703     226.02428       0.50733    5276.77734     854.19287     566.04456     851.69843     564.52649
    200.10120     156.00000     153.72836     152.80231     200.10278       0.51238     459.30807    2917.48755       9.82498  158837.42188     125.26859     209.63028     205.75706      75.30420      77.64231     225.67104       0.49985    5295.60791     853.08124     566.02625     851.58734     564.38324
    200.25360     156.00000     153.72836     152.80231     200.25772       0.51253     455.44720    2949.86621       9.64953  152426.65625     128.92114     209.26804     205.48457      75.05229      78.91309     225.78389       0.49426    5514.40479     852.98547     566.45203     848.65979     565.54492
    200.40600     156.00000     153.72836     152.80231     200.40604       0.51294     454.72241    2985.65356       9.45459  146787.45313     127.11523     208.97319     205.17107      76.08485      79.08692     227.10991       0.49207    5160.53027     843.64667     567.69806     839.18921     566.18549
    200.55840     156.00000     153.72836     152.80231     200.55569       0.51280     462.93008    2983.94946       9.29864  114295.99219     129.75536     208.72023     204.95290      77.64425      79.44369     228.92297       0.49266    5164.94141     840.80853     567.36633     833.97211     563.02094
    200.71080     156.00000     153.72836     152.80231     200.71078       0.51295     461.68015    3019.73682       9.20117  128495.50000     126.92765     208.52496     204.69676      78.91504      79.55575     230.38939       0.49500    5026.21240     829.66504     562.02240     822.70990     558.81842
    200.86320     156.00000     153.72836     152.80231     200.86621       0.51335     448.54752    3055.52344       9.16218  127588.75781     117.92508     208.31833     204.49809      79.08890      78.94592     230.76996       0.49882    5084.03906     819.09485     560.90112     817.20068     554.39801
    201.01560     156.00000     153.55595     152.80231     201.01884       0.51367     443.07663    3055.52344       9.08420  166347.12500     106.69981     208.05849     204.25476      79.57883      78.17384     231.51900       0.50329    5259.28076     825.61993     550.55817     820.71240     544.95807
    201.16800     156.00000     153.72836     152.80231     201.17036       0.51428     425.78726    3055.52344       9.08420  144322.43750      99.37120     207.66766     203.99870      79.39954      78.79242     231.73122       0.50607    4972.55566     826.72650     546.04407     819.49323     539.19073
    201.32040     156.00000     153.72836     152.80231     201.32349       0.51486     421.68594    3053.81958       9.06471  192017.31250     107.66631     207.23508     203.79478      78.35567      78.28807     231.11865       0.50726    4944.64307     824.21729     546.01532     815.64850     539.74976
    201.47280     156.00000     153.72836     152.80231     201.47198       0.51593     431.17587    3053.81958       9.04522  126682.89844     117.38252     206.82573     203.58302      78.46156      77.21791     231.63528       0.50748    4922.99512     818.41272     546.87714     809.52307     545.64069
    201.62520     156.00000     153.72836     152.80231     201.62424       0.51564     436.36603    3086.19824       9.00623  151480.73438     121.05879     206.43393     203.44795      78.71091      75.81052     232.27650       0.50697    5040.11328     812.35706     549.20630     807.82629     545.57397
    201.77760     156.00000     153.72836     152.80231     201.77644       0.51453     447.82944    3082.78979       8.96724  127789.07813     118.16793     206.12634     203.33299      77.75694      74.37252     231.62953       0.50616    5125.24121     810.55756     544.33594     807.94684     543.43878
    201.93000     156.00000     153.11401     152.80231     201.92856       0.51296     442.59329    3075.97363       8.83078  125545.14844     119.29144     205.96378     203.24187      76.57895      73.54649     230.61432       0.50515    5018.42822     807.17419     549.86755     802.68860     549.58282
    202.08240     156.00000     153.72836     152.80231     202.08176       0.51133     439.04227    3108.35229       8.77230  134237.73438     118.50574     205.95471     203.21370      75.02702      72.83656     229.07124       0.50394    5285.08057     800.55634     549.90436     800.09930     546.14282
    202.23480     156.00000     153.72836     152.80231     202.23273       0.50974     433.87305    3108.35229       8.71382  132957.34375     116.91895     206.08208     203.17960      73.89738      72.29853     227.81383       0.50328    5150.76270     803.42896     545.40649     803.54736     541.27124
    202.38720     156.00000     153.72836     152.80231     202.38799       0.50904     428.88281    3113.46484       8.69432  143561.18750     109.63766     206.31776     203.11423      73.31340      71.55517     226.99474       0.50323    5224.99219     803.30560     539.24042     801.83508     534.47809
    202.53960     156.00000     153.72836     152.80231     202.54065       0.50981     428.92926    3115.16846       8.67483  151036.76563      97.69814     206.54868     203.10361      72.83855      70.74512     226.28940       0.50301    5248.01221     802.19348     533.74701     801.43359     531.67114
    202.69200     156.00000     153.72836     152.80231     202.69357       0.51164     422.87625    3115.16846       8.65534  149952.37500      79.30232     206.72736     203.04761      72.30052      69.71658     225.57106       0.50280    5076.81104     799.08600     533.31360     795.19202     532.14020
    202.84440     156.00000     153.72836     152.80231     202.84578       0.51459     420.28552    3152.66016       8.57736  157429.90625      59.57080     206.83658     202.98491      71.55717      69.21273     224.72044       0.50423    5115.45508     794.25726     530.60736     793.16785     531.88739
    202.99680     156.00000     153.72836     152.80231     202.99648       0.51864     424.08676    3152.66016       8.57736  147330.90625      46.02141     206.83553     202.90852      70.74713      69.00298     223.91032       0.50473    5106.55859     795.66333     530.02094     795.22772     529.92920
    203.14920     156.00000     153.72836     152.80231     203.15189       0.52265     422.66635    3150.95581       8.47989  129717.10156      38.85007     206.81914     202.81886      69.38729      68.69281     222.56714       0.50610    4956.70898     794.97229     529.90051     794.72156     528.46588
    203.30160     156.00000     153.72836     152.80231     203.30333       0.52663     428.36301    3186.74316       8.36293  127703.62500      38.47295     206.58994     202.72527      69.13032      68.48264     222.53957       0.50810    5096.77246     793.27979     528.20233     793.03320     528.83661
    203.45400     156.00000     153.55595     152.80231     203.45447       0.52988     438.16916    3224.23462       8.22647  131580.67188      35.17399     206.35500     202.64647      68.91096      69.49888     222.55481       0.50970    5092.65771     795.51636     533.14612     792.37354     533.97949
