~Version Information
 VERS.                2.00:   CWLS log ASCII Standard -VERSION 2.00
 WRAP.                  NO:   One line per frame      
~Well Information Block
#MNEM.UNIT                   Data                        Description
#----.----   -----------------------------------------   -------------------------------
 STRT.M                                       26.9748 : Starting Depth
 STOP.M                                      187.9854 : Ending Depth
 STEP.M                                        0.0762 : Level Spacing
 NULL.                                      -999.2500 : Absent Value
 COMP.       SUNCOR ENERGY INC                        : Company
 WELL.       SUNCOR LEWIS 7-22-92-8                   : Well
 FLD .       UNDEFINED                                : Field
 LOC .       LSD 07-22-092-08W4                       : Location
 PROV.       ALBERTA                                  : Province
 CTRY.       CA                                       : Country
 SRVC.       Baker Hughes                             : Service Company
 DATE.       16-JAN-2016                              : Log Date
 UWI .       1AA072209208W400                         : Unique Well ID
 LIC .       0477502                                  : License Number
 LATI.DEG    57.0175 N                                : Latitude Coordinates
 LONG.DEG    -111.419 W                               : Longitude Coordinates
~Curve Information Block
#MNEM    .UNIT        API Codes     Curve Description
#--------.--------   LG--CV-CL--M   -------------------------------
 DEPT    .M           0 001  0  1 : Depth
 AZSTQH  .deg        99 995 99  1 : Azimuth of reference pad for STAR
 BKRGQH  .dim        99 995 99  1 : Bucker driver value
 DEVSTQH .deg        99 995 99  1 : Deviation for STAR
 DIP1QH  .raw        75 610  1  1 : Pad 1 average data of buttons 11, 12, 13, 14
 DIP2QH  .raw        75 610  1  1 : Pad 2 average data of buttons 11, 12, 13, 14
 DIP3QH  .raw        75 610  1  1 : Pad 3 average data of buttons 11, 12, 13, 14
 DIP4QH  .raw        75 610  1  1 : Pad 4 average data of buttons 11, 12, 13, 14
 DIP5QH  .raw        75 610  1  1 : Pad 5 average data of buttons 11, 12, 13, 14
 DIP6QH  .raw        75 610  1  1 : Pad 6 average data of buttons 11, 12, 13, 14
 GR      .gAPI       30 310  1  1 : Gamma ray
 PADFQH  .pct        94 995 99  1 : Pad force
 PADGQH  .dim        99 995 99  1 : Pad gain code
 RAD1QH  .mm         75 280 99  1 : Radius, tool axis to pad 1 face
 RAD2QH  .mm         75 280 99  1 : Radius, tool axis to pad 2 face
 RAD3QH  .mm         75 280 99  1 : Radius, tool axis to pad 3 face
 RAD4QH  .mm         75 280 99  1 : Radius, tool axis to pad 4 face
 RAD5QH  .mm         75 280 99  1 : Radius, tool axis to pad 5 face
 RAD6QH  .mm         75 280 99  1 : Radius, tool axis to pad 6 face
 RAZGSTQH.mG         99 995 99  1 : Raw Z-axis accelerometer shifted to STAR
 RBSTQH  .deg        99 995 99  1 : Relative bearing (relative to borehole high side) for STAR
 SPD     .m/min      99 636 99  1 : Speed
~Parameter Information Block
#MNEM.UNIT                     Value                    Description
#----.----   ----------------------------------------   -------------------------------
 HID1.       RESISTIVITY IMAGING LOG^T                : Header Identifer
 HID2.       GAMMA RAY LOG                            : Header Identifer
 FILE.       3953                                     : File Number
 CMT1.       UID                                      : Comment 1  
 CMT2.       1AA072209208W400                         : Comment 2  
 CMT3.       LICENSE                                  : Comment 3  
 CMT4.       0477502                                  : Comment 4  
 FL2 .       BH LOC. LSD  07                          : Field Location 2
 SECT.       22                                       : Section
 TOWN.       092                                      : Township
 RANG.       08W4                                     : Range
 OS1 .       ZDL-CN-GR-CAL                            : Other Services Line 1
 OS2 .       HDIL-GR-CAL, CVL                         : Other Services Line 2
 OS3 .       DAL-GR-CAL                               : Other Services Line 3
 OS4 .       COMPOSITE                                : Other Services Line 4
 PDAT.       G.L.                                     : Permanent Datum
 EPD .M      438.50                                   : Elevation Of Perm. Datum
 LMF .       K.B.                                     : Log Measured From
 APD .M      2.20                                     : Above Permanent Datum
 DMF .       KELLY BUSHING                            : Drilling Measured From
 EKB .M      440.70                                   : Elevation Of Kelly Bushing
 EGL .M      438.50                                   : Elevation Of Ground Level
 RUN .       1                                        : Run Number
 TRIP.       1                                        : Trip Number
 SON .       CA003953J                                : Service Order Number
 TDD .M      187.0                                    : Total Depth - Driller
 TDL .M      186.3                                    : Total Depth - Logger
 BLI .M      183.0                                    : Bottom Log Interval
 TLI .M      55.0                                     : Top Log Interval
 CSIZ.MM     177.8                                    : Casing Size
 CBDR.M      49.4                                     : Casing Bottom - Driller
 CBLO.M      49.4                                     : Casing Bottom - Logger
 BS  .MM     156.0                                    : Bit Size
 DFT .       WB (WATER BASE MUD)                      : Drilling Fluid Type
 DFD .G/L    1030.0                                   : Drilling Fluid Density
 DFV .S      79.0                                     : Drilling Fluid Viscosity
 DFPH.       7.0                                      : Drilling Fluid Ph
 DFL .ML     8.0                                      : Drilling Fluid Loss
 MSS .       F (FLOWLINE)                             : Mud Sample Source
 RMS .OHMM   1.2                                      : Resistivity Of Mud Sample
 MST .DEGC   25.0                                     : Mud Sample Temperature
 RMFS.OHMM   1.0                                      : Resistivity Of Mud Filtrate Sample
 MFST.DEGC   25.0                                     : Mud Filtrate Sample Temperature
 RMCS.OHMM   1.4                                      : Resistivity Of Mud Cake Sample
 MCST.DEGC   25.0                                     : Mud Cake Sample Temperature
 MFSS.       CALCULATED                               : Mud Filtrate Sample Source
 MCSS.       CALCULATED                               : Mud Cake Sample Source
 RMB .OHMM   2.0                                      : Mud Resistivity At Bht
 BHT .DEGC   7.0                                      : Bottom Hole Temperature
 TSC .       5.0 HOURS                                : Time Since Circulation
 MRT .DEGC   7.0                                      : Maximum Recorded Temperature
 LUN .       Z004250                                  : Logging Unit Number
 LUL .       LEDUC OH                                 : Logging Unit Location
 ENGI.       A.MALIK                                  : Engineer's Name
 WITN.       H.WILSON / P.ENE                         : Witness' Name
 TSTR.       /STAR/GR/                                : Title Service Mnemonic
 TSTG.       NA                                       : Title Service Mnemonic
 STUS.       FINAL                                    : Status
 LCNM.       BAKER ATLAS                              : Logging Company Name
 LCC .       150                                      : Logging Company Code
 OPMD.       OH.WIRE                                  : Operation Mode
 PANA.       A.MALIK                                  : Processing Analyst
 PCON.       BAKER ATLAS                              : Processing Contractor
 APIN.                                                : API Serial Number
 STAT.                                                : State Or Province
~Other information
LAT/LON  57.0175, -111.419                                                      
TIME STOPPED CIRCULATION  16-JAN-2016 0830AM                                    
STAR RUN WITH 0% PAD FORCE AND AUTOMATICALLY CONTROLLED GAINS                   
ANY STICK AND PULL AFFECTS LOG QUALITY                                          
RIG  ENCORE 402                                                                 
CREW  F.AJAGU, A.MALIK                                                          
#  Curve Data
~A   DEPT         AZSTQH       BKRGQH       DEVSTQH      DIP1QH       DIP2QH       DIP3QH       DIP4QH       DIP5QH       DIP6QH       GR           PADFQH       PADGQH       RAD1QH       RAD2QH       RAD3QH       RAD4QH       RAD5QH       RAD6QH       RAZGSTQH     RBSTQH       SPD       
# ...
      69.6468     321.4327       7.0000       0.0464     262.0000     304.0000     273.0000     384.0000     273.0000     258.0000      70.6579       1.2366       3.0000      81.1755      75.0072      74.2000      73.2820      82.0496      81.4260    1008.0573     190.0215       3.3340
      69.7230     321.2339       7.0000       0.0464     258.0000     250.0000     257.0000     271.0000     275.0000     204.0000      71.7355       1.2366       3.0000      81.1755      75.0072      74.2000      73.2820      82.0496      81.4260    1008.8755     190.0215       3.3376
      69.7992     321.6316       7.0000       0.0657     268.0000     242.0000     276.0000     268.0000     272.0000     188.0000      72.9570       1.2366       3.0000      81.1755      75.0072      74.2000      73.2820      82.0496      81.4260    1010.5120     235.0215       3.3417
      69.8754     322.3330       7.0000       0.0657     290.0000     244.0000     241.0000     280.0000     244.0000     195.0000      74.2015       1.2366       3.0000      81.1755      75.0072      74.2000      73.2820      82.0496      81.4260    1012.9667     235.0215       3.3473
      69.9516     322.2288       7.0000       0.0657     238.0000     250.0000     237.0000     317.0000     255.0000     213.0000      75.2789       1.2366       3.0000      81.1755      75.0072      74.2000      73.2820      82.0496      81.4260    1008.8755     235.0215       3.3551
      70.0278     322.2288       7.0000       0.0657     239.0000     239.0000     229.0000     262.0000     276.0000     228.0000      76.0024       1.2366       3.0000      81.1755      75.0072      74.2000      73.2820      82.0496      81.4260    1012.1484     235.0215       3.3640
      70.1040     322.9299       7.0000       0.0464     251.0000     237.0000     243.0000     245.0000     257.0000     232.0000      76.2981       1.2366       3.0000      81.1755      75.0072      74.2000      73.2820      82.0496      81.4260    1007.2390     190.0215       3.3705
      70.1802     324.1248       7.0000       0.0464     259.0000     208.0000     256.0000     266.0000     258.0000     213.0000      76.3210       1.2366       3.0000      81.1755      75.0072      74.2000      73.2820      82.0496      81.6769    1011.3301     190.0215       3.3710
      70.2564     325.7190       7.0000       0.0464     275.0000     232.0000     263.0000     286.0000     275.0000     243.0000      76.3307       1.2366       3.0000      81.1755      75.0072      74.2000      73.2820      82.0496      81.5514    1010.5120     190.0215       3.3640
      70.3326     327.6150       7.0000       0.0464     286.0000     250.0000     247.0000     282.0000     260.0000     234.0000      76.5167       1.2366       3.0000      81.1755      75.0072      74.2000      73.2820      82.0496      81.4260    1009.6937     190.0215       3.3520
      70.4088     328.6103       7.0000       0.0464     252.0000     272.0000     223.0000     270.0000     279.0000     255.0000      76.9563       1.2366       3.0000      81.1755      75.0072      74.2000      73.2820      82.0496      81.6769    1007.2390     190.0215       3.3412
      70.4850     330.2159       7.0000       0.0464     237.0000     216.0000     231.0000     230.0000     231.0000     217.0000      77.6625       1.2366       3.0000      81.1755      75.0072      74.2000      73.2820      82.0496      81.5514    1008.8755     190.0215       3.3361
      70.5612     332.7282       7.0000       0.0464     247.0000     224.0000     226.0000     279.0000     230.0000     213.0000      78.5068       1.2366       3.0000      81.1755      75.0072      74.2000      73.2820      82.0496      81.5514    1009.6937     190.0215       3.3384
      70.6374     334.1393       7.0000       0.0464     283.0000     219.0000     234.0000     232.0000     225.0000     199.0000      79.3372       1.2366       3.0000      81.1755      75.0072      74.2000      73.1538      82.0496      81.9278    1008.8755     190.0215       3.3469
      70.7136     334.5330       7.0000       0.0464     282.0000     242.0000     238.0000     231.0000     242.0000     231.0000      80.0520       1.2366       3.0000      81.1755      75.0072      74.2000      73.2820      82.0496      81.9278    1012.1484     190.0215       3.3585
      70.7898     334.7294       7.0000       0.0464     321.0000     229.0000     241.0000     241.0000     228.0000     226.0000      80.6262       1.2366       3.0000      81.1755      75.0072      74.2000      73.1538      82.0496      81.5514    1008.8755     190.0215       3.3698
      70.8660     335.2372       7.0000       0.0464     327.0000     247.0000     359.0000     230.0000     305.0000     238.0000      81.1074       1.2366       3.0000      81.3033      75.0072      74.2000      73.2820      82.0496      81.9278    1009.6937     190.0215       3.3792
      70.9422     335.6289       7.0000       0.0929     354.0000     306.0000     488.0000     332.0000     421.0000     314.0000      81.5954       1.2366       3.0000      81.3033      75.0072      74.2000      73.2820      82.0496      81.9278    1009.6937     190.0215       3.3864
      71.0184     336.4486       7.0000       0.0929     442.0000     362.0000     385.0000     379.0000     291.0000     404.0000      82.2323       1.2366       3.0000      81.3033      75.0072      74.5879      73.2820      82.0496      81.9278    1011.3301     190.0215       3.3920
      71.0946     336.7613       7.0000       0.0929     442.0000     299.0000     282.0000     273.0000     339.0000     266.0000      83.1966       1.2366       3.0000      81.6866      75.0072      74.5879      73.4102      82.0496      81.9278    1011.3301     190.0215       3.3964
      71.1708     336.7613       7.0000       0.0929     326.0000     314.0000     319.0000     319.0000     382.0000     272.0000      84.6246       1.2366       3.0000      81.6866      75.0072      74.9758      73.7949      82.0496      82.0532    1007.2390     190.0215       3.3997
      71.2470     337.2693       7.0000       0.0929     338.0000     334.0000     268.0000     472.0000     278.0000     421.0000      86.5109       1.2366       3.0000      81.6866      75.0072      74.9758      73.7949      82.0496      82.3041    1008.8755     190.0215       3.4009
      71.3232     337.7019       7.0000       0.0929     256.0000     375.0000     245.0000     374.0000     248.0000     362.0000      88.5949       1.2366       3.0000      81.6866      75.0072      74.9758      73.7949      82.0496      82.3041    1010.5120     190.0215       3.3976
      71.3994     337.5827       7.0000       0.0929     384.0000     240.0000     330.0000     249.0000     338.0000     250.0000      90.4812       1.2366       3.0000      81.6866      75.0072      74.9758      73.7949      82.0496      82.1787    1008.0573     190.0215       3.3871
      71.4756     336.0576       7.0000       0.0929     464.0000     282.0000     431.0000     404.0000     428.0000     373.0000      91.8019       1.2366       3.0000      81.6866      75.0072      75.2344      73.7949      82.0496      82.1787    1011.3301     190.0215       3.3667
      71.5518     334.5330       7.0000       0.0464     465.0000     426.0000     402.0000     502.0000     472.0000     415.0000      92.3581       1.2366       3.0000      81.6866      75.0072      75.4930      73.7949      82.0496      82.3041    1010.5120     190.0215       3.3378
      71.6280     334.3363       7.0000       0.0464     434.0000     405.0000     427.0000     423.0000     430.0000     382.0000      92.2119       1.2366       3.0000      81.6866      75.0072      75.3637      73.7949      82.0496      82.3041    1009.6937     190.0215       3.3060
      71.7042     333.5178       7.0000       0.0464     450.0000     398.0000     410.0000     433.0000     402.0000     414.0000      91.6389       1.2366       3.0000      81.6866      75.0072      75.4930      73.7949      82.0496      82.3041    1008.0573     190.0215       3.2808
