~VERSION INFORMATION 
VERS.          2.0   :CWLS LOG ASCII STANDARD - VERSION 2.0
WRAP.          NO    :ONE LINE PER DEPTH STEP
PROD.  Schlumberger   :LAS Producer
PROG.  DLIS to ASCII 19C2-270                          :LAS Program name and version
CREA.        2014/02/23 09:08                          :LAS Creation date {YYYY/MM/DD hh:mm}
DLIS_CREA.  2014-Feb-23 08:51                          :DLIS Creation date and time {YYYY-MMM-DD hh:mm}
SOURCE.     1AA063409108W400_FMI_SONIC_MAIN.dlis       :DLIS File Name
FILE-ID.     ConPr_R2L3Up_S008_FBST_DSLT_HGNS          :File Identification Number
#--------------------------------------------------
~WELL INFORMATION 
#MNEM.UNIT      DATA             DESCRIPTION
#---- ------ --------------   -----------------------------
STRT.M      54.71160        :START DEPTH
STOP.M      257.70840       :STOP DEPTH
STEP.M       0.15240        :STEP
NULL .          -999.25      :NULL VALUE
COMP.        SUNCOR ENERGY INC.                       :COMPANY
WELL.        SUNCOR LEWIS 6-34-91-8                   :WELL
FLD  .        LEWIS                                    :FIELD
LOC.        6-34-91-8W4                              :LOCATION
PROV .        ALBERTA                                  :PROVINCE
UWI.        1AA063409108W400                         :UNIQUE WELL ID
LIC  .        0464072                                  :LICENSE NUMBER
CTRY .        CA                                       :COUNTRY (WWW code)
DATE.        23-Feb-2014                              :LOG DATE {DD-MMM-YYYY}
SRVC .        Schlumberger                             :SERVICE COMPANY
LATI .DEG     56.934500 degrees                        :LATITUDE
LONG .DEG     -111.20540 degrees                       :LONGITUDE
GDAT .                                                 :GeoDetic Datum
SECT .        06-34                                    :Section
RANG .        08W4                                     :Range
TOWN .        091                                      :Township
#-----------------------------------------------------------------------------
~CURVE INFORMATION 
#MNEM.UNIT   API CODE                                  DESCRIPTION
#---- -----  --------                                  -----------------------
 DEPT.M         00 001 00 00             :Depth Index - Measured Depth
   BS.MM        61 280 07 00             :BIT SIZE {F14.5}
   C1.MM        42 280 06 00             :CALIPER 1 {F14.5}
   C2.MM        42 280 05 00             :CALIPER 2 {F14.5}
DEPTH.M         00 001 00 00             :DEPTH INDEX {F14.5}
DEVIM.DEG       00 630 00 00             :MEMORIZED DEVIATION {F14.5}
   DT.US/M      60 520 32 00             :DELTA-T (ALSO CALLED SLOWNESS OR INTERVAL TRANSIT TIME) {F14.5}
   EI.MA        00 000 00 00             :EMEX CURRENT {F14.5}
   EV.V         00 000 00 00             :EMEX VOLTAGE {F14.5}
 FBCR.OHMS      00 000 00 00             :CORRELATION RESISTANCE {F14.5}
   GR.GAPI      42 310 01 00             :GAMMA RAY {F14.5}
 HAZI.DEG       00 620 00 00             :HOLE AZIMUTH RELATIVE TO TRUE NORTH {F14.5}
HAZIM.DEG       00 620 00 00             :HOLE AZIMUTH RELATIVE TO TRUE NORTH {F14.5}
 P1AZ.DEG       00 630 00 00             :PAD 1 AZIMUTH IN HORIZONTAL PLANE (0 = TRUE NORTH) {F14.5}
P1NO_FBST.DEG   00 000 00 00             :PAD 1 AZIMUTH IN PLANE ORTHOGONAL TO TOOL AXIS (0 = TRUE NORTH), MEMORIZED TO FBST {F14.5}
   RB.DEG       00 631 00 00             :RELATIVE BEARING {F14.5}
 SDEV.DEG       00 000 00 00             :SONDE DEVIATION {F14.5}
 TENS.N         61 280 10 00             :CABLE TENSION {F14.5}
  TT1.US        60 520 32 01             :TRANSIT TIME 1 {F14.5}
  TT2.US        60 520 32 02             :TRANSIT TIME 2 {F14.5}
  TT3.US        60 520 32 03             :TRANSIT TIME 3 {F14.5}
  TT4.US        60 520 32 04             :TRANSIT TIME 4 {F14.5}
~PARAMETER INFORMATION 
#MNEM.UNIT    VALUE                      DESCRIPTION
#---- -----   --------------------       ------------------------
 CSGD.M       72.80000                   :Casing Bottom of Driller
 CSGL.M       73.20000                   :Logger Casing Shoe Depth
 CSGS.MM      177.80000                  :Current Casing Size
 CSGW.KG/M    25.30000                   :Casing Weight
 MUDD.K/M3    1090.00000                 :Drilling Fluid Density
  DFL.C3      6.00000                    :Drilling Fluid Loss
   PH.        10.00000                   :Drilling Fluid pH
  MUD.        Polymer                    :Drilling Fluid Type
 MUDV.S       108.00000                  :Drilling Fluid Viscosity
   GL.M       445.00000                  :Elevation of Ground Level
 EREF.M       449.00000                  :Elevation of Kelly Bushing
  ENG.        NICK POLLEY                :Engineer s Name
 DREF.        KB                         :Logging Measured From (Name of Logging Elevation Reference)
 BASE.        WINTER PROJECT             :LOGGING UNIT LOCATION
 FACT.        CP4P-00020                 :Service Order Number
  LIC.        0464072                    :API Well Number
 PROV.        ALBERTA                    :County or Parish
 UNIT.        3125                       :Logging Unit Number
 RMCT.DEGC    8.73000                    :Mudcake Sample Temperature
 RMFT.DEGC    8.73000                    :Mud Filtrate Sample Temperature
 TMAX.DEGC    12.28000                   :Maximum Recorded Temperature
 MUDS.        Flowline                   :Mud Sample Source
  RMT.DEGC    8.73000                    :Mud Sample Temperature
RANGE.        08W4                       :Range
  RMC.OHMM    1.18000                    :Resistivity of Mud Cake Sample
  RMF.OHMM    0.59200                    :Resistivity of Mud Filtrate Sample
   RM.OHMM    0.78900                    :Resistivity of Mud Sample
SECTION.      06-34                      :Section
 TIMC.        01 55 00                   :Time Circulation Stopped
 TIML.        07 55 00                   :Time Logger At Bottom
TOWNSHIP.     091                        :Township
  WIT.        JONATHAN FELL              :Witness s Name
  APD.M       4.00000                    :Elevation of Depth Reference (LMF) Above Permanent Datum
 APIN.        0464072                    :API Well Number
  BHT.DEGC    12.28000                   :Bottom Hole Temperature
  BLI.M       256.00000                  :Bottom Log Interval
   BS.MM      156.00000                  :Bit Size
   CN.        SUNCOR ENERGY INC.         :Company Name
 COUN.        ALBERTA                    :County or Parish
 LDAT.        23-Feb-2014                :Tools Above Rotary Table Date
  DCS.        23-Feb-2014                :Date Circulation Stopped
  DFL.C3      6.00000                    :Drilling Fluid Loss
 DLAB.        23-Feb-2014                :Date Logger At Bottom
  DMF.        KB                         :Drilling Measured From (Name of Drilling Elevation Reference)
  EDF.M       448.70001                  :Elevation of Drill Floor
  EGL.M       445.00000                  :Elevation of Ground Level
  EKB.M       449.00000                  :Elevation of Kelly Bushing
   FD.K/M3    1000.00000                 :Fluid Density
   FL.        6-34-91-8W4               :FIELD LOCATION
  FL1.        1AA063409108W400           :Field Location, Line 1
  FL2.                                   :Field Location, Line 2
   FN.        LEWIS                      :Field Name
 HID1.                                   :Header Identifier 1
 HID2.                                   :Header Identifier 2
 HIDE.        LEWIS                      :Header Identifier
 LATI.        56.934500 degrees          :Latitude
  LMF.        KB                         :Logging Measured From (Name of Logging Elevation Reference)
 LONG.        -111.20540 degrees         :Longitude
 MATR.        SAND                       :Rock Matrix for Neutron Porosity Corrections
 MCSS.        Calculated                 :Mudcake Sample Source
 MDEC.DEG     14.38033                   :Magnetic Field Declination
 MDEN.K/M3    2650.00000                 :Matrix Density for Density Porosity
 MRT1.DEGC    12.28000                   :Maximum Recorded Temperature 1
 MRT2.DEGC    -999.25000                 :Maximum Recorded Temperature 2
  NMT.        NOBARITE                   :HRDD Mud Type for Nuclear Devices
  OS1.                                   :Other Services Line 1
  OS2.                                   :Other Services Line 2
  OS3.                                   :Other Services Line 3
  OS4.                                   :Other Services Line 4
  OS5.                                   :Other Services Line 5
 PDAT.        GL                         :Permanent Datum
   R1.        THANK YOU FOR CHOOSING SCHLUMBERGER  :Remarks Line 1
   R2.        ALL TOOLS RAN AS PER TOOL SKETCH AND ALL PRESENTATIONS AS PER CLIENT REQUEST  :Remarks Line 2
   R3.        INDUCTION LOG – DESCENT #1 :Remarks Line 3
   R4.        NEUTRON / DENSITY LOG – DESCENT #1  :Remarks Line 4
  RMB.OHMM    0.70618                    :Resistivity of Mud at Bottom Hole Temperature
 RMFB.OHMM    0.52986                    :Resistivity of Mud Filtrate At Bottom Hole Temperature
  RUN.        ONE/2                      :Run Number
  SON.        CP4P-00020                 :SERVICE ORDER NUMBER
  TDD.M       256.00000                  :Driller Total Depth
  TDL.M       256.00000                  :Logger Total Depth
  TLI.M       75.00000                   :Top Log Interval
 UWID.        1AA063409108W400           :Unique Well Identifier
   WN.        SUNCOR LEWIS 6-34-91-8     :Well Name
  EPD.C3      445.000000                 :Elevation of Permanent Datum above Mean Sea Level
#-----------------------------------------------------------------------------
#
#      DEPT          BS            C1            C2            DEPTH         DEVIM         DT            EI            EV            FBCR          GR            HAZI          HAZIM         P1AZ        P1NO_FBST       RB            SDEV          TENS          TT1           TT2           TT3           TT4
#
#-----------------------------------------------------------------------------

~A       DEPT           BS           C1           C2        DEPTH        DEVIM           DT           EI           EV         FBCR           GR         HAZI        HAZIM         P1AZ    P1NO_FBST           RB         SDEV         TENS          TT1          TT2          TT3          TT4
# ...
    240.94440     156.00000     155.57140     155.37610     240.94798       0.48947     385.09720    2605.62769      12.41768  415145.56250      18.65263     209.16551     212.07216     289.05154     279.96658      79.88647       0.42915    5137.39941     718.87079     479.15012     712.98444     482.64841
    241.09680     156.00000     154.95706     155.37610     241.09937       0.49193     384.80844    2539.16626      12.74908  722407.12500      18.54701     209.15170     212.05771     289.88745     271.39111      80.73538       0.43250    5019.66992     703.52307     488.21494     701.16412     488.32745
    241.24920     156.00000     154.78616     155.37610     241.25127       0.49491     386.30585    2506.78735      12.69059  845202.18750      19.00616     209.19150     211.99268     289.44315     271.85773      80.25233       0.43331    5084.91064     698.20282     484.20728     696.79993     479.29385
    241.40160     156.00000     155.23109     157.94987     241.40146       0.49828     378.65915    2545.98267      12.55414 1299342.12500      19.00616     209.19530     211.82478     273.28479     273.54163      64.08950       0.44177    4979.63574     698.79010     473.62976     696.25800     470.77371
    241.55400     156.00000     161.10054     162.13225     241.55133       0.50220     360.86246    2581.77002      12.39818 1400485.25000      19.00616     209.28291     211.76904     271.41971     274.85242      62.13456       0.44648    4995.64941     691.12848     467.66821     690.44617     465.01907
    241.70640     156.00000     156.49294     160.84537     241.70639       0.50564     355.72287    2580.06567      12.26173  496090.09375      19.00616     209.38405     211.69118     272.49115     276.96924      63.10690       0.45236    4962.54736     694.54071     463.21494     693.33167     463.67548
    241.85880     156.00000     155.23109     157.94987     241.86324       0.50972     346.08221    2581.77002      12.10577  526816.75000      19.00616     209.52802     211.71571     274.50931     278.62347      64.97971       0.45835    5250.97754     697.95660     461.99933     695.80389     461.17969
    242.01120     156.00000     155.57140     156.66299     242.01242       0.51146     347.90973    2646.52734      11.87185  231084.59375      19.00616     209.66658     212.09047     275.28979     277.67117      65.62280       0.46429    4835.21680     698.02911     464.97516     696.03931     463.32672
    242.16360     156.00000     154.95706     155.37610     242.16295       0.51508     368.78412    2648.23169      11.69640  552676.68750      19.00616     209.86681     212.31885     278.39081     277.66284      68.52381       0.47004    4953.24316     704.54114     469.20123     703.19446     469.55234
    242.31600     156.00000     154.34271     155.37610     242.31316       0.51865     382.27777    2684.01880      11.59893  221856.14063      19.00616     210.12924     212.54826     278.16705     279.55630      68.03777       0.47545    4861.90625     705.47583     481.61301     704.02875     479.33295
    242.46840     156.00000     154.34271     154.73264     242.46521       0.52264     387.66299    2682.31470      11.57944  114275.75000      19.00616     210.40324     212.68358     277.46478     278.73001      67.06108       0.48032    4846.78223     706.89612     484.61591     706.00281     484.63986
    242.62080     156.00000     154.34271     155.37610     242.61761       0.52639     391.37955    2678.90674      11.63792  223509.76563      19.00616     210.70961     212.82188     278.79453     277.31741      68.08405       0.48362    4828.98926     721.26501     490.85336     720.40674     490.28571
    242.77320     156.00000     154.34271     155.37610     242.77205       0.53028     387.19006    2675.49829      11.65741 1788102.87500      19.00616     210.97577     212.74919     279.45023     276.05289      68.47281       0.48697    4944.64307     724.82062     493.91919     723.78656     491.21628
    242.92560     156.00000     154.34271     155.37610     242.92496       0.53430     384.39139    2639.71094      11.89134 1469047.87500      19.00616     211.23967     212.55006     277.83728     274.49393      66.59622       0.48878    4928.62939     728.77148     493.44397     728.11493     489.07214
    243.07800     156.00000     154.34271     155.37610     243.07668       0.53798     389.34909    2610.74072      12.18375  824547.81250      19.00616     211.42465     212.17050     276.76263     272.94980      65.33684       0.48987    4936.04346     735.88373     493.74979     734.22919     489.33548
    243.23040     156.00000     154.34271     155.37610     243.22755       0.54188     393.69534    2578.36133      12.45667  663886.56250      19.00616     211.59637     211.70155     275.26544     271.46445      63.66747       0.49032    4940.49170     738.53088     498.27658     735.55164     494.49890
    243.38280     156.00000     154.17105     155.37610     243.37979       0.54556     395.06192    2542.57471      12.14476 1051927.25000      19.00616     211.65363     211.11604     273.76990     270.56525      62.11536       0.49007    4981.71191     741.33221     503.56772     738.62622     500.35666
    243.53520     156.00000     154.34271     155.37610     243.53201       0.54935     398.59897    2641.41504      11.55994 1153216.87500      19.00616     211.75687     210.52884     272.04666     269.77899      60.29016       0.48916    4874.36133     753.00421     505.95264     750.56592     504.23148
    243.68760     156.00000     154.34271     155.37610     243.68871       0.55299     402.34695    2711.28540      10.99462  313653.18750      19.00616     211.77705     209.92108     271.12915     269.20584      59.35205       0.48860    4920.56738     769.48883     505.64383     771.75067     506.05093
    243.84000     156.00000     154.95706     155.37610     243.84044       0.55655     402.55869    2782.85938      10.42929  126430.15625      19.00616     211.81403     209.39873     269.97446     267.51657      58.15936       0.48776    4937.20850     781.81854     525.70007     781.26392     514.36554
    243.99240     156.00000     154.78616     155.37610     243.98921       0.56177     412.20401    2917.48755       9.64953  123188.90625      19.00616     211.89891     208.87909     269.64722     264.91846      57.74816       0.48666    4969.25684     787.49274     537.36853     787.69543     529.58630
    244.14480     156.00000     154.34271     155.37610     244.14606       0.56552     428.83786    2987.35742       9.16218  139605.04688      19.00616     211.96297     208.52942     268.49554     262.92932      56.53174       0.48687    4898.04834     783.12219     542.23755     790.26343     538.41669
    244.29720     156.00000     153.99940     152.80231     244.30164       0.57028     441.72101    3055.52344       8.83078   88237.54688      19.00616     212.02824     208.21724     266.22784     260.32877      54.19809       0.48701    4845.00293     772.39642     545.90723     782.18225     543.72998
    244.44960     156.00000     153.11401     152.80231     244.45302       0.57546     454.23874    3087.90283       8.69432   91781.14844      19.00616     212.08791     207.97725     263.92621     257.49548      51.83847       0.48809    4880.88525     769.43988     548.56964     768.46637     545.69269
    244.60200     156.00000     153.72836     152.80231     244.60356       0.58052     423.07675    3089.60620       8.63584  101186.29688      19.00616     212.07216     207.82069     261.66113     255.23164      49.58739       0.48947    4996.83594     763.76337     544.07104     754.20026     540.90997
    244.75440     156.00000     153.55595     152.80231     244.75308       0.58849     399.60141    3089.60620       8.71382  140707.25000      19.00616     212.05771     207.61253     259.00281     253.81375      46.94432       0.49193    4966.29102     753.24323     525.80951     743.00299     522.82819
