~Version Information
 VERS.                2.00:   CWLS log ASCII Standard -VERSION 2.00
 WRAP.                  NO:   One line per frame      
~Well Information Block
#MNEM.UNIT                   Data                        Description
#----.----   -----------------------------------------   -------------------------------
 STRT.M                                       26.9748 : Starting Depth
 STOP.M                                      187.9854 : Ending Depth
 STEP.M                                        0.0762 : Level Spacing
 NULL.                                      -999.2500 : Absent Value
 COMP.       SUNCOR ENERGY INC                        : Company
 WELL.       SUNCOR LEWIS 7-22-92-8                   : Well
 FLD .       UNDEFINED                                : Field
 LOC .       LSD 07-22-092-08W4                       : Location
 PROV.       ALBERTA                                  : Province
 CTRY.       CA                                       : Country
 SRVC.       Baker Hughes                             : Service Company
 DATE.       16-JAN-2016                              : Log Date
 UWI .       1AA072209208W400                         : Unique Well ID
 LIC .       0477502                                  : License Number
 LATI.DEG    57.0175 N                                : Latitude Coordinates
 LONG.DEG    -111.419 W                               : Longitude Coordinates
~Curve Information Block
#MNEM    .UNIT        API Codes     Curve Description
#--------.--------   LG--CV-CL--M   -------------------------------
 DEPT    .M           0 001  0  1 : Depth
 AZSTQH  .deg        99 995 99  1 : Azimuth of reference pad for STAR
 BKRGQH  .dim        99 995 99  1 : Bucker driver value
 DEVSTQH .deg        99 995 99  1 : Deviation for STAR
 DIP1QH  .raw        75 610  1  1 : Pad 1 average data of buttons 11, 12, 13, 14
 DIP2QH  .raw        75 610  1  1 : Pad 2 average data of buttons 11, 12, 13, 14
 DIP3QH  .raw        75 610  1  1 : Pad 3 average data of buttons 11, 12, 13, 14
 DIP4QH  .raw        75 610  1  1 : Pad 4 average data of buttons 11, 12, 13, 14
 DIP5QH  .raw        75 610  1  1 : Pad 5 average data of buttons 11, 12, 13, 14
 DIP6QH  .raw        75 610  1  1 : Pad 6 average data of buttons 11, 12, 13, 14
 GR      .gAPI       30 310  1  1 : Gamma ray
 PADFQH  .pct        94 995 99  1 : Pad force
 PADGQH  .dim        99 995 99  1 : Pad gain code
 RAD1QH  .mm         75 280 99  1 : Radius, tool axis to pad 1 face
 RAD2QH  .mm         75 280 99  1 : Radius, tool axis to pad 2 face
 RAD3QH  .mm         75 280 99  1 : Radius, tool axis to pad 3 face
 RAD4QH  .mm         75 280 99  1 : Radius, tool axis to pad 4 face
 RAD5QH  .mm         75 280 99  1 : Radius, tool axis to pad 5 face
 RAD6QH  .mm         75 280 99  1 : Radius, tool axis to pad 6 face
 RAZGSTQH.mG         99 995 99  1 : Raw Z-axis accelerometer shifted to STAR
 RBSTQH  .deg        99 995 99  1 : Relative bearing (relative to borehole high side) for STAR
 SPD     .m/min      99 636 99  1 : Speed
~Parameter Information Block
#MNEM.UNIT                     Value                    Description
#----.----   ----------------------------------------   -------------------------------
 HID1.       RESISTIVITY IMAGING LOG^T                : Header Identifer
 HID2.       GAMMA RAY LOG                            : Header Identifer
 FILE.       3953                                     : File Number
 CMT1.       UID                                      : Comment 1  
 CMT2.       1AA072209208W400                         : Comment 2  
 CMT3.       LICENSE                                  : Comment 3  
 CMT4.       0477502                                  : Comment 4  
 FL2 .       BH LOC. LSD  07                          : Field Location 2
 SECT.       22                                       : Section
 TOWN.       092                                      : Township
 RANG.       08W4                                     : Range
 OS1 .       ZDL-CN-GR-CAL                            : Other Services Line 1
 OS2 .       HDIL-GR-CAL, CVL                         : Other Services Line 2
 OS3 .       DAL-GR-CAL                               : Other Services Line 3
 OS4 .       COMPOSITE                                : Other Services Line 4
 PDAT.       G.L.                                     : Permanent Datum
 EPD .M      438.50                                   : Elevation Of Perm. Datum
 LMF .       K.B.                                     : Log Measured From
 APD .M      2.20                                     : Above Permanent Datum
 DMF .       KELLY BUSHING                            : Drilling Measured From
 EKB .M      440.70                                   : Elevation Of Kelly Bushing
 EGL .M      438.50                                   : Elevation Of Ground Level
 RUN .       1                                        : Run Number
 TRIP.       1                                        : Trip Number
 SON .       CA003953J                                : Service Order Number
 TDD .M      187.0                                    : Total Depth - Driller
 TDL .M      186.3                                    : Total Depth - Logger
 BLI .M      183.0                                    : Bottom Log Interval
 TLI .M      55.0                                     : Top Log Interval
 CSIZ.MM     177.8                                    : Casing Size
 CBDR.M      49.4                                     : Casing Bottom - Driller
 CBLO.M      49.4                                     : Casing Bottom - Logger
 BS  .MM     156.0                                    : Bit Size
 DFT .       WB (WATER BASE MUD)                      : Drilling Fluid Type
 DFD .G/L    1030.0                                   : Drilling Fluid Density
 DFV .S      79.0                                     : Drilling Fluid Viscosity
 DFPH.       7.0                                      : Drilling Fluid Ph
 DFL .ML     8.0                                      : Drilling Fluid Loss
 MSS .       F (FLOWLINE)                             : Mud Sample Source
 RMS .OHMM   1.2                                      : Resistivity Of Mud Sample
 MST .DEGC   25.0                                     : Mud Sample Temperature
 RMFS.OHMM   1.0                                      : Resistivity Of Mud Filtrate Sample
 MFST.DEGC   25.0                                     : Mud Filtrate Sample Temperature
 RMCS.OHMM   1.4                                      : Resistivity Of Mud Cake Sample
 MCST.DEGC   25.0                                     : Mud Cake Sample Temperature
 MFSS.       CALCULATED                               : Mud Filtrate Sample Source
 MCSS.       CALCULATED                               : Mud Cake Sample Source
 RMB .OHMM   2.0                                      : Mud Resistivity At Bht
 BHT .DEGC   7.0                                      : Bottom Hole Temperature
 TSC .       5.0 HOURS                                : Time Since Circulation
 MRT .DEGC   7.0                                      : Maximum Recorded Temperature
 LUN .       Z004250                                  : Logging Unit Number
 LUL .       LEDUC OH                                 : Logging Unit Location
 ENGI.       A.MALIK                                  : Engineer's Name
 WITN.       H.WILSON / P.ENE                         : Witness' Name
 TSTR.       /STAR/GR/                                : Title Service Mnemonic
 TSTG.       NA                                       : Title Service Mnemonic
 STUS.       FINAL                                    : Status
 LCNM.       BAKER ATLAS                              : Logging Company Name
 LCC .       150                                      : Logging Company Code
 OPMD.       OH.WIRE                                  : Operation Mode
 PANA.       A.MALIK                                  : Processing Analyst
 PCON.       BAKER ATLAS                              : Processing Contractor
 APIN.                                                : API Serial Number
 STAT.                                                : State Or Province
~Other information
LAT/LON  57.0175, -111.419                                                      
TIME STOPPED CIRCULATION  16-JAN-2016 0830AM                                    
STAR RUN WITH 0% PAD FORCE AND AUTOMATICALLY CONTROLLED GAINS                   
ANY STICK AND PULL AFFECTS LOG QUALITY                                          
RIG  ENCORE 402                                                                 
CREW  F.AJAGU, A.MALIK                                                          
#  Curve Data
~A   DEPT         AZSTQH       BKRGQH       DEVSTQH      DIP1QH       DIP2QH       DIP3QH       DIP4QH       DIP5QH       DIP6QH       GR           PADFQH       PADGQH       RAD1QH       RAD2QH       RAD3QH       RAD4QH       RAD5QH       RAD6QH       RAZGSTQH     RBSTQH       SPD       
# ...
      80.3148      14.4311       7.0000       0.1468     296.0000     338.0000     394.0000     319.0000     303.0000     307.0000      96.5031       1.2366       3.0000      80.0257      77.4038      73.2949      74.1795      82.5615      81.4260    1015.4213     208.4564       3.4594
      80.3910      14.8559       7.0000       0.1468     341.0000     294.0000     344.0000     270.0000     355.0000     304.0000      96.2004       1.2366       3.0000      80.0257      77.5299      73.2949      74.1795      82.5615      81.4260    1007.2390     208.4564       3.4592
      80.4672      15.1388       7.0000       0.1469     336.0000     338.0000     360.0000     311.0000     353.0000     327.0000      95.9886       1.2366       3.0000      80.0257      77.5299      73.4242      74.1795      82.5615      81.4260    1010.5120     208.4564       3.4547
      80.5434      14.7144       7.0000       0.1469     362.0000     323.0000     326.0000     349.0000     353.0000     318.0000      95.7624       1.2366       3.0000      80.4090      77.5299      73.6828      74.1795      82.5615      81.4260    1008.8755     208.4564       3.4442
      80.6196      16.2833       7.0000       0.1469     374.0000     347.0000     439.0000     372.0000     400.0000     298.0000      95.4179       1.2366       3.0000      80.4090      77.5299      74.2000      74.1795      82.5615      81.4260    1012.9667     208.4564       3.4281
      80.6958      18.2923       7.0000       0.1468     316.0000     386.0000     249.0000     372.0000     357.0000     367.0000      94.8155       1.2366       3.0000      80.0257      77.5299      73.8121      74.1795      82.5615      81.4260    1011.3301     208.4564       3.4090
      80.7720      19.6008       7.0000       0.1468     347.0000     299.0000     362.0000     410.0000     355.0000     298.0000      93.7589       1.2366       3.0000      80.0257      77.5299      73.6828      74.1795      82.5615      81.5514    1009.6937     208.4564       3.3905
      80.8482      20.4663       7.0000       0.1469     352.0000     338.0000     396.0000     324.0000     441.0000     306.0000      92.0674       1.2366       3.0000      80.1535      77.5299      73.8121      74.1795      82.5615      81.4260    1007.2390     208.4564       3.3748
      80.9244      20.4663       7.0000       0.1468     367.0000     414.0000     272.0000     411.0000     328.0000     408.0000      89.6349       1.2366       3.0000      80.1535      77.5299      73.8121      74.1795      82.5615      81.5514    1012.1484     208.4564       3.3624
      81.0006      20.0460       7.0000       0.1469     361.0000     330.0000     413.0000     384.0000     337.0000     352.0000      86.5336       1.3429       3.0000      80.4090      77.5299      73.8121      74.1795      82.5615      81.5514    1012.9667     208.4564       3.3511
      81.0768      20.1862       7.0000       0.1468     334.0000     322.0000     340.0000     358.0000     367.0000     294.0000      82.9655       1.2366       3.0000      80.4090      77.5299      73.9414      74.6923      82.5615      81.5514    1006.4208     208.4564       3.3388
      81.1530      21.0522       7.0000       0.1469     291.0000     322.0000     312.0000     352.0000     383.0000     260.0000      79.2587       1.3429       3.0000      80.5368      77.4038      75.1051      75.2051      82.6895      81.5514    1005.6026     208.4564       3.3249
      81.2292      20.9124       8.0000       0.1469     325.0000     632.0000     339.0000     687.0000     474.0000     616.0000      75.9368       1.3429       3.0000      81.0478      77.5299      75.4930      75.2051      83.0734      81.4260    1012.1484     208.4564       3.3114
      81.3054      20.3263       8.0000       0.1038     109.0000     433.0000     145.0000     654.0000     155.0000     564.0000      73.6009       1.3429       3.0000      80.5368      77.5299      75.8809      75.2051      83.0734      81.4260    1009.6937     216.5865       3.3014
      81.3816      21.2195       9.0000       0.1038     162.0000     272.0000     151.0000     395.0000     192.0000     320.0000      72.6598       1.3429       3.0000      80.5368      77.5299      75.8809      75.2051      82.8174      81.5514    1008.8755     216.5865       3.2982
      81.4578      21.6387       8.0000       0.1038     140.0000      66.0000     156.0000     124.0000     133.0000      45.0000      73.2446       1.3429       3.0000      81.1755      77.5299      76.0102      75.5897      82.5615      81.5514    1009.6937     216.5865       3.3033
      81.5340      20.4922       8.0000       0.1038     147.0000     128.0000     150.0000     126.0000     182.0000      82.0000      75.1576       1.2366       3.0000      80.4090      77.5299      76.0102      75.3333      82.5615      81.5514    1012.1484     216.5865       3.3154
      81.6102      19.9056       7.0000       0.1468      56.0000      54.0000      50.0000      56.0000      53.0000      51.0000      77.8967       1.3429       3.0000      80.5368      77.5299      74.5879      75.2051      82.5615      81.5514    1012.1484     208.4564       3.3307
      81.6864      20.3263       7.0000       0.1469     359.0000      49.0000     292.0000      47.0000     344.0000      18.0000      80.8204       1.2366       3.0000      80.5368      77.1515      74.7172      75.2051      82.5615      81.5514    1009.6937     208.4564       3.3455
      81.7626      20.6062       7.0000       0.1468     348.0000     313.0000     284.0000     332.0000     304.0000     311.0000      83.3162       1.3429       3.0000      81.1755      77.1515      74.5879      75.2051      82.5615      81.5514    1008.0573     208.4564       3.3583
      81.8388      20.7459       7.0000       0.1469     322.0000     311.0000     325.0000     294.0000     306.0000     322.0000      85.0137       1.3429       3.0000      81.1755      77.4038      74.7172      75.2051      82.5615      81.5514    1007.2390     208.4564       3.3699
      81.9150      21.0250       7.0000       0.1468     489.0000     303.0000     403.0000     304.0000     365.0000     329.0000      85.8173       1.3429       3.0000      80.4090      77.5299      74.2000      74.6923      82.5615      81.5514    1010.5120     208.4564       3.3818
      81.9912      21.1644       7.0000       0.1469     376.0000     395.0000     313.0000     323.0000     321.0000     354.0000      85.8490       1.2366       3.0000      80.4090      77.5299      73.8121      74.5641      82.5615      81.5514    1008.8755     208.4564       3.3936
      82.0674      21.7492       7.0000       0.1469     377.0000     382.0000     360.0000     292.0000     429.0000     315.0000      85.3421       1.2366       3.0000      80.4090      77.5299      74.2000      75.0769      82.5615      81.5514    1008.0573     208.4564       3.4042
      82.1436      22.0271       7.0000       0.1469     399.0000     397.0000     439.0000     367.0000     371.0000     323.0000      84.6355       1.2366       3.0000      80.5368      77.5299      74.5879      75.0769      82.6895      81.5514    1012.1484     208.4564       3.4118
      82.2198      22.9202       7.0000       0.1468     550.0000     391.0000     513.0000     399.0000     524.0000     218.0000      84.0706       1.2366       3.0000      81.1755      77.5299      74.9758      75.5897      82.6895      81.5514    1008.8755     208.4564       3.4156
      82.2960      23.6443       7.0000       0.1468     460.0000     501.0000     439.0000     475.0000     471.0000     410.0000      83.8459       1.2366       3.0000      80.5368      77.5299      75.1051      75.5897      82.5615      81.5514    1008.8755     208.4564       3.4158
      82.3722      23.4731       7.0000       0.1915     379.0000     536.0000     415.0000     499.0000     443.0000     436.0000      83.9315       1.3429       3.0000      80.9200      77.5299      74.8465      75.2051      82.5615      81.5514    1011.3301     204.0577       3.4139
