~VERSION INFORMATION 
VERS.          2.0   :CWLS LOG ASCII STANDARD - VERSION 2.0
WRAP.          NO    :ONE LINE PER DEPTH STEP
PROD.  Schlumberger   :LAS Producer
PROG.  DLIS to ASCII 19C2-270                          :LAS Program name and version
CREA.        2014/02/23 09:08                          :LAS Creation date {YYYY/MM/DD hh:mm}
DLIS_CREA.  2014-Feb-23 08:51                          :DLIS Creation date and time {YYYY-MMM-DD hh:mm}
SOURCE.     1AA063409108W400_FMI_SONIC_REPEAT.dlis     :DLIS File Name
FILE-ID.     ConPr_R2L2Up_S008_FBST_DSLT_HGNS          :File Identification Number
#--------------------------------------------------
~WELL INFORMATION 
#MNEM.UNIT      DATA             DESCRIPTION
#---- ------ --------------   -----------------------------
STRT.M      88.69680        :START DEPTH
STOP.M      258.01320       :STOP DEPTH
STEP.M       0.15240        :STEP
NULL .          -999.25      :NULL VALUE
COMP.        SUNCOR ENERGY INC.                       :COMPANY
WELL.        SUNCOR LEWIS 6-34-91-8                   :WELL
FLD  .        LEWIS                                    :FIELD
LOC.        6-34-91-8W4                              :LOCATION
PROV .        ALBERTA                                  :PROVINCE
UWI.        1AA063409108W400                         :UNIQUE WELL ID
LIC  .        0464072                                  :LICENSE NUMBER
CTRY .        CA                                       :COUNTRY (WWW code)
DATE.        23-Feb-2014                              :LOG DATE {DD-MMM-YYYY}
SRVC .        Schlumberger                             :SERVICE COMPANY
LATI .DEG     56.934500 degrees                        :LATITUDE
LONG .DEG     -111.20540 degrees                       :LONGITUDE
GDAT .                                                 :GeoDetic Datum
SECT .        06-34                                    :Section
RANG .        08W4                                     :Range
TOWN .        091                                      :Township
#-----------------------------------------------------------------------------
~CURVE INFORMATION 
#MNEM.UNIT   API CODE                                  DESCRIPTION
#---- -----  --------                                  -----------------------
 DEPT.M         00 001 00 00             :Depth Index - Measured Depth
   BS.MM        61 280 07 00             :BIT SIZE {F14.5}
   C1.MM        42 280 06 00             :CALIPER 1 {F14.5}
   C2.MM        42 280 05 00             :CALIPER 2 {F14.5}
DEPTH.M         00 001 00 00             :DEPTH INDEX {F14.5}
DEVIM.DEG       00 630 00 00             :MEMORIZED DEVIATION {F14.5}
   DT.US/M      60 520 32 00             :DELTA-T (ALSO CALLED SLOWNESS OR INTERVAL TRANSIT TIME) {F14.5}
   EI.MA        00 000 00 00             :EMEX CURRENT {F14.5}
   EV.V         00 000 00 00             :EMEX VOLTAGE {F14.5}
 FBCR.OHMS      00 000 00 00             :CORRELATION RESISTANCE {F14.5}
   GR.GAPI      42 310 01 00             :GAMMA RAY {F14.5}
 HAZI.DEG       00 620 00 00             :HOLE AZIMUTH RELATIVE TO TRUE NORTH {F14.5}
HAZIM.DEG       00 620 00 00             :HOLE AZIMUTH RELATIVE TO TRUE NORTH {F14.5}
 P1AZ.DEG       00 630 00 00             :PAD 1 AZIMUTH IN HORIZONTAL PLANE (0 = TRUE NORTH) {F14.5}
P1NO_FBST.DEG   00 000 00 00             :PAD 1 AZIMUTH IN PLANE ORTHOGONAL TO TOOL AXIS (0 = TRUE NORTH), MEMORIZED TO FBST {F14.5}
   RB.DEG       00 631 00 00             :RELATIVE BEARING {F14.5}
 SDEV.DEG       00 000 00 00             :SONDE DEVIATION {F14.5}
 TENS.N         61 280 10 00             :CABLE TENSION {F14.5}
  TT1.US        60 520 32 01             :TRANSIT TIME 1 {F14.5}
  TT2.US        60 520 32 02             :TRANSIT TIME 2 {F14.5}
  TT3.US        60 520 32 03             :TRANSIT TIME 3 {F14.5}
  TT4.US        60 520 32 04             :TRANSIT TIME 4 {F14.5}
~PARAMETER INFORMATION 
#MNEM.UNIT    VALUE                      DESCRIPTION
#---- -----   --------------------       ------------------------
 CSGD.M       72.80000                   :Casing Bottom of Driller
 CSGL.M       73.20000                   :Logger Casing Shoe Depth
 CSGS.MM      177.80000                  :Current Casing Size
 CSGW.KG/M    25.30000                   :Casing Weight
 MUDD.K/M3    1090.00000                 :Drilling Fluid Density
  DFL.C3      6.00000                    :Drilling Fluid Loss
   PH.        10.00000                   :Drilling Fluid pH
  MUD.        Polymer                    :Drilling Fluid Type
 MUDV.S       108.00000                  :Drilling Fluid Viscosity
   GL.M       445.00000                  :Elevation of Ground Level
 EREF.M       449.00000                  :Elevation of Kelly Bushing
  ENG.        NICK POLLEY                :Engineer s Name
 DREF.        KB                         :Logging Measured From (Name of Logging Elevation Reference)
 BASE.        WINTER PROJECT             :LOGGING UNIT LOCATION
 FACT.        CP4P-00020                 :Service Order Number
  LIC.        0464072                    :API Well Number
 PROV.        ALBERTA                    :County or Parish
 UNIT.        3125                       :Logging Unit Number
 RMCT.DEGC    8.73000                    :Mudcake Sample Temperature
 RMFT.DEGC    8.73000                    :Mud Filtrate Sample Temperature
 TMAX.DEGC    12.28000                   :Maximum Recorded Temperature
 MUDS.        Flowline                   :Mud Sample Source
  RMT.DEGC    8.73000                    :Mud Sample Temperature
RANGE.        08W4                       :Range
  RMC.OHMM    1.18000                    :Resistivity of Mud Cake Sample
  RMF.OHMM    0.59200                    :Resistivity of Mud Filtrate Sample
   RM.OHMM    0.78900                    :Resistivity of Mud Sample
SECTION.      06-34                      :Section
 TIMC.        01 55 00                   :Time Circulation Stopped
 TIML.        07 55 00                   :Time Logger At Bottom
TOWNSHIP.     091                        :Township
  WIT.        JONATHAN FELL              :Witness s Name
  APD.M       4.00000                    :Elevation of Depth Reference (LMF) Above Permanent Datum
 APIN.        0464072                    :API Well Number
  BHT.DEGC    12.28000                   :Bottom Hole Temperature
  BLI.M       256.00000                  :Bottom Log Interval
   BS.MM      156.00000                  :Bit Size
   CN.        SUNCOR ENERGY INC.         :Company Name
 COUN.        ALBERTA                    :County or Parish
 LDAT.        23-Feb-2014                :Tools Above Rotary Table Date
  DCS.        23-Feb-2014                :Date Circulation Stopped
  DFL.C3      6.00000                    :Drilling Fluid Loss
 DLAB.        23-Feb-2014                :Date Logger At Bottom
  DMF.        KB                         :Drilling Measured From (Name of Drilling Elevation Reference)
  EDF.M       448.70001                  :Elevation of Drill Floor
  EGL.M       445.00000                  :Elevation of Ground Level
  EKB.M       449.00000                  :Elevation of Kelly Bushing
   FD.K/M3    1000.00000                 :Fluid Density
   FL.        6-34-91-8W4               :FIELD LOCATION
  FL1.        1AA063409108W400           :Field Location, Line 1
  FL2.                                   :Field Location, Line 2
   FN.        LEWIS                      :Field Name
 HID1.                                   :Header Identifier 1
 HID2.                                   :Header Identifier 2
 HIDE.        LEWIS                      :Header Identifier
 LATI.        56.934500 degrees          :Latitude
  LMF.        KB                         :Logging Measured From (Name of Logging Elevation Reference)
 LONG.        -111.20540 degrees         :Longitude
 MATR.        SAND                       :Rock Matrix for Neutron Porosity Corrections
 MCSS.        Calculated                 :Mudcake Sample Source
 MDEC.DEG     14.38033                   :Magnetic Field Declination
 MDEN.K/M3    2650.00000                 :Matrix Density for Density Porosity
 MRT1.DEGC    12.28000                   :Maximum Recorded Temperature 1
 MRT2.DEGC    -999.25000                 :Maximum Recorded Temperature 2
  NMT.        NOBARITE                   :HRDD Mud Type for Nuclear Devices
  OS1.                                   :Other Services Line 1
  OS2.                                   :Other Services Line 2
  OS3.                                   :Other Services Line 3
  OS4.                                   :Other Services Line 4
  OS5.                                   :Other Services Line 5
 PDAT.        GL                         :Permanent Datum
   R1.        THANK YOU FOR CHOOSING SCHLUMBERGER  :Remarks Line 1
   R2.        ALL TOOLS RAN AS PER TOOL SKETCH AND ALL PRESENTATIONS AS PER CLIENT REQUEST  :Remarks Line 2
   R3.        INDUCTION LOG – DESCENT #1 :Remarks Line 3
   R4.        NEUTRON / DENSITY LOG – DESCENT #1  :Remarks Line 4
  RMB.OHMM    0.70618                    :Resistivity of Mud at Bottom Hole Temperature
 RMFB.OHMM    0.52986                    :Resistivity of Mud Filtrate At Bottom Hole Temperature
  RUN.        ONE/2                      :Run Number
  SON.        CP4P-00020                 :SERVICE ORDER NUMBER
  TDD.M       256.00000                  :Driller Total Depth
  TDL.M       256.00000                  :Logger Total Depth
  TLI.M       75.00000                   :Top Log Interval
 UWID.        1AA063409108W400           :Unique Well Identifier
   WN.        SUNCOR LEWIS 6-34-91-8     :Well Name
  EPD.C3      445.000000                 :Elevation of Permanent Datum above Mean Sea Level
#-----------------------------------------------------------------------------
#
#      DEPT          BS            C1            C2            DEPTH         DEVIM         DT            EI            EV            FBCR          GR            HAZI          HAZIM         P1AZ        P1NO_FBST       RB            SDEV          TENS          TT1           TT2           TT3           TT4
#
#-----------------------------------------------------------------------------

~A       DEPT           BS           C1           C2        DEPTH        DEVIM           DT           EI           EV         FBCR           GR         HAZI        HAZIM         P1AZ    P1NO_FBST           RB         SDEV         TENS          TT1          TT2          TT3          TT4
# ...
    100.58400     159.00000     104.11516     102.61360     106.98415    -999.25000     412.46985    3525.86890       5.67275    -999.25000      86.59161    -999.25000    -999.25000    -999.25000    -999.25000    -999.25000    -999.25000    3831.10498     829.19177     524.68555     821.52399     523.75311
    100.73640     159.00000     104.11516     102.61360     106.98415    -999.25000     476.94818    3525.86890       5.67275    -999.25000      90.86473    -999.25000    -999.25000    -999.25000    -999.25000    -999.25000    -999.25000    3831.10498     838.42310     540.73199     830.83270     547.86560
    100.88880     159.00000     104.11516     102.61360     106.98415    -999.25000     491.15424    3525.86890       5.67275    -999.25000      93.18964    -999.25000    -999.25000    -999.25000    -999.25000    -999.25000    -999.25000    3831.10498     839.06934     582.85687     835.53656     585.02295
    101.04120     159.00000     104.11516     102.61360     106.98415    -999.25000     500.83456    3525.86890       5.67275    -999.25000      98.46805    -999.25000    -999.25000    -999.25000    -999.25000    -999.25000    -999.25000    3831.10498     852.41870     602.34259     861.87219     598.56952
    101.19360     159.00000     104.11516     102.61360     106.98415    -999.25000     511.80682    3525.86890       5.67275    -999.25000     107.26539    -999.25000    -999.25000    -999.25000    -999.25000    -999.25000    -999.25000    3831.10498     902.21222     600.81421     907.14941     602.64758
    101.34600     159.00000     104.11516     102.61360     106.98415    -999.25000     518.76630    3525.86890       5.67275    -999.25000     108.20842    -999.25000    -999.25000    -999.25000    -999.25000    -999.25000    -999.25000    3831.10498     917.65710     606.52618     919.82153     611.41772
    101.49840     159.00000     104.11516     102.61360     106.98415    -999.25000     512.64612    3525.86890       5.67275    -999.25000     105.31792    -999.25000    -999.25000    -999.25000    -999.25000    -999.25000    -999.25000    3831.10498     922.59924     615.24695     923.47864     619.07849
    101.65080     159.00000     104.11516     102.61360     106.98415    -999.25000     512.01471    3525.86890       5.67275    -999.25000     104.31255    -999.25000    -999.25000    -999.25000    -999.25000    -999.25000    -999.25000    3831.10498     927.20831     622.73773     926.68134     619.13086
    101.80320     159.00000     104.11516     102.61360     106.98415    -999.25000     521.06757    3525.86890       5.67275    -999.25000     107.96490    -999.25000    -999.25000    -999.25000    -999.25000    -999.25000    -999.25000    3831.10498     933.69659     621.28021     925.98810     618.27087
    101.95560     159.00000     104.11516     102.61360     106.98415    -999.25000     522.84589    3525.86890       5.67275    -999.25000     110.44212    -999.25000    -999.25000    -999.25000    -999.25000    -999.25000    -999.25000    3831.10498     929.00244     618.99988     919.85522     613.52332
    102.10800     159.00000     104.11516     102.61360     106.98415    -999.25000     520.69269    3525.86890       5.67275    -999.25000     115.84640    -999.25000    -999.25000    -999.25000    -999.25000    -999.25000    -999.25000    3831.10498     923.27631     617.26416     913.84100     609.93896
    102.26040     159.00000     104.11516     102.61360     106.98415    -999.25000     512.09009    3525.86890       5.67275    -999.25000     114.58202    -999.25000    -999.25000    -999.25000    -999.25000    -999.25000    -999.25000    3831.10498     919.80096     612.50055     913.18542     604.66022
    102.41280     159.00000     104.11516     102.61360     106.98415    -999.25000     505.59216    3525.86890       5.67275    -999.25000     113.58895    -999.25000    -999.25000    -999.25000    -999.25000    -999.25000    -999.25000    3831.10498     916.97455     605.04047     911.16779     600.86914
    102.56520     159.00000     104.11516     102.61360     106.98415    -999.25000     497.89603    3525.86890       5.67275    -999.25000     105.88672    -999.25000    -999.25000    -999.25000    -999.25000    -999.25000    -999.25000    3831.10498     913.03857     604.27606     905.38385     598.71515
    102.71760     159.00000     104.11516     102.61360     106.98415    -999.25000     493.88095    3525.86890       5.67275    -999.25000     104.37858    -999.25000    -999.25000    -999.25000    -999.25000    -999.25000    -999.25000    3831.10498     905.65845     599.87897     903.77307     594.90912
    102.87000     159.00000     104.11516     102.61360     106.98415    -999.25000     492.92361    3525.86890       5.67275    -999.25000     102.76843    -999.25000    -999.25000    -999.25000    -999.25000    -999.25000    -999.25000    3831.10498     903.26892     597.25153     898.32623     591.17749
    103.02240     159.00000     104.11516     102.61360     106.98415    -999.25000     495.08151    3525.86890       5.67275    -999.25000     103.55830    -999.25000    -999.25000    -999.25000    -999.25000    -999.25000    -999.25000    3831.10498     896.32056     592.85797     892.46210     590.02429
    103.17480     159.00000     104.11516     102.61360     106.98415    -999.25000     494.45355    3525.86890       5.67275    -999.25000     101.67282    -999.25000    -999.25000    -999.25000    -999.25000    -999.25000    -999.25000    3831.10498     892.88898     589.35791     889.34082     588.99316
    103.32720     159.00000     104.11516     102.61360     106.98415    -999.25000     492.70026    3525.86890       5.67275    -999.25000      94.76056    -999.25000    -999.25000    -999.25000    -999.25000    -999.25000    -999.25000    3831.10498     887.92560     588.81354     885.46924     588.94806
    103.47960     159.00000     104.11516     102.61360     106.98415    -999.25000     488.90958    3525.86890       5.67275    -999.25000      93.25259    -999.25000    -999.25000    -999.25000    -999.25000    -999.25000    -999.25000    3831.10498     885.44189     589.85223     883.50684     588.28186
    103.63200     159.00000     104.11516     102.61360     106.98415    -999.25000     486.10742    3525.86890       5.67275    -999.25000      89.10518    -999.25000    -999.25000    -999.25000    -999.25000    -999.25000    -999.25000    3831.10498     888.31671     586.33057     887.20465     583.88007
    103.78440     159.00000     104.11516     102.61360     106.98415    -999.25000     483.42603    3525.86890       5.67275    -999.25000      90.99039    -999.25000    -999.25000    -999.25000    -999.25000    -999.25000    -999.25000    3831.10498     890.02057     582.88373     887.11578     580.69037
    103.93680     159.00000     104.11516     102.61360     106.98415    -999.25000     481.50916    3525.86890       5.67275    -999.25000      87.59710    -999.25000    -999.25000    -999.25000    -999.25000    -999.25000    -999.25000    3831.10498     885.07996     585.84503     881.48987     584.84015
    104.08920     159.00000     104.11516     102.61360     106.98415    -999.25000     484.30972    3525.86890       5.67275    -999.25000      92.87547    -999.25000    -999.25000    -999.25000    -999.25000    -999.25000    -999.25000    3831.10498     882.05573     586.61609     880.65369     585.03430
    104.24160     159.00000     104.11516     102.61360     106.98415    -999.25000     485.40140    3525.86890       5.67275    -999.25000      96.39437    -999.25000    -999.25000    -999.25000    -999.25000    -999.25000    -999.25000    3831.10498     885.01147     584.13519     884.72266     582.59357
    104.39400     159.00000     104.11516     102.61360     106.98415    -999.25000     485.72491    3525.86890       5.67275    -999.25000     100.54154    -999.25000    -999.25000    -999.25000    -999.25000    -999.25000    -999.25000    3831.10498     888.28912     584.10004     887.42590     584.81744
