~VERSION INFORMATION 
VERS.          2.0   :CWLS LOG ASCII STANDARD - VERSION 2.0
WRAP.          NO    :ONE LINE PER DEPTH STEP
PROD.  Schlumberger   :LAS Producer
PROG.  DLIS to ASCII 19C2-270                          :LAS Program name and version
CREA.        2014/02/23 09:08                          :LAS Creation date {YYYY/MM/DD hh:mm}
DLIS_CREA.  2014-Feb-23 08:51                          :DLIS Creation date and time {YYYY-MMM-DD hh:mm}
SOURCE.     1AA063409108W400_FMI_SONIC_REPEAT.dlis     :DLIS File Name
FILE-ID.     ConPr_R2L2Up_S008_FBST_DSLT_HGNS          :File Identification Number
#--------------------------------------------------
~WELL INFORMATION 
#MNEM.UNIT      DATA             DESCRIPTION
#---- ------ --------------   -----------------------------
STRT.M      88.69680        :START DEPTH
STOP.M      258.01320       :STOP DEPTH
STEP.M       0.15240        :STEP
NULL .          -999.25      :NULL VALUE
COMP.        SUNCOR ENERGY INC.                       :COMPANY
WELL.        SUNCOR LEWIS 6-34-91-8                   :WELL
FLD  .        LEWIS                                    :FIELD
LOC.        6-34-91-8W4                              :LOCATION
PROV .        ALBERTA                                  :PROVINCE
UWI.        1AA063409108W400                         :UNIQUE WELL ID
LIC  .        0464072                                  :LICENSE NUMBER
CTRY .        CA                                       :COUNTRY (WWW code)
DATE.        23-Feb-2014                              :LOG DATE {DD-MMM-YYYY}
SRVC .        Schlumberger                             :SERVICE COMPANY
LATI .DEG     56.934500 degrees                        :LATITUDE
LONG .DEG     -111.20540 degrees                       :LONGITUDE
GDAT .                                                 :GeoDetic Datum
SECT .        06-34                                    :Section
RANG .        08W4                                     :Range
TOWN .        091                                      :Township
#-----------------------------------------------------------------------------
~CURVE INFORMATION 
#MNEM.UNIT   API CODE                                  DESCRIPTION
#---- -----  --------                                  -----------------------
 DEPT.M         00 001 00 00             :Depth Index - Measured Depth
   BS.MM        61 280 07 00             :BIT SIZE {F14.5}
   C1.MM        42 280 06 00             :CALIPER 1 {F14.5}
   C2.MM        42 280 05 00             :CALIPER 2 {F14.5}
DEPTH.M         00 001 00 00             :DEPTH INDEX {F14.5}
DEVIM.DEG       00 630 00 00             :MEMORIZED DEVIATION {F14.5}
   DT.US/M      60 520 32 00             :DELTA-T (ALSO CALLED SLOWNESS OR INTERVAL TRANSIT TIME) {F14.5}
   EI.MA        00 000 00 00             :EMEX CURRENT {F14.5}
   EV.V         00 000 00 00             :EMEX VOLTAGE {F14.5}
 FBCR.OHMS      00 000 00 00             :CORRELATION RESISTANCE {F14.5}
   GR.GAPI      42 310 01 00             :GAMMA RAY {F14.5}
 HAZI.DEG       00 620 00 00             :HOLE AZIMUTH RELATIVE TO TRUE NORTH {F14.5}
HAZIM.DEG       00 620 00 00             :HOLE AZIMUTH RELATIVE TO TRUE NORTH {F14.5}
 P1AZ.DEG       00 630 00 00             :PAD 1 AZIMUTH IN HORIZONTAL PLANE (0 = TRUE NORTH) {F14.5}
P1NO_FBST.DEG   00 000 00 00             :PAD 1 AZIMUTH IN PLANE ORTHOGONAL TO TOOL AXIS (0 = TRUE NORTH), MEMORIZED TO FBST {F14.5}
   RB.DEG       00 631 00 00             :RELATIVE BEARING {F14.5}
 SDEV.DEG       00 000 00 00             :SONDE DEVIATION {F14.5}
 TENS.N         61 280 10 00             :CABLE TENSION {F14.5}
  TT1.US        60 520 32 01             :TRANSIT TIME 1 {F14.5}
  TT2.US        60 520 32 02             :TRANSIT TIME 2 {F14.5}
  TT3.US        60 520 32 03             :TRANSIT TIME 3 {F14.5}
  TT4.US        60 520 32 04             :TRANSIT TIME 4 {F14.5}
~PARAMETER INFORMATION 
#MNEM.UNIT    VALUE                      DESCRIPTION
#---- -----   --------------------       ------------------------
 CSGD.M       72.80000                   :Casing Bottom of Driller
 CSGL.M       73.20000                   :Logger Casing Shoe Depth
 CSGS.MM      177.80000                  :Current Casing Size
 CSGW.KG/M    25.30000                   :Casing Weight
 MUDD.K/M3    1090.00000                 :Drilling Fluid Density
  DFL.C3      6.00000                    :Drilling Fluid Loss
   PH.        10.00000                   :Drilling Fluid pH
  MUD.        Polymer                    :Drilling Fluid Type
 MUDV.S       108.00000                  :Drilling Fluid Viscosity
   GL.M       445.00000                  :Elevation of Ground Level
 EREF.M       449.00000                  :Elevation of Kelly Bushing
  ENG.        NICK POLLEY                :Engineer s Name
 DREF.        KB                         :Logging Measured From (Name of Logging Elevation Reference)
 BASE.        WINTER PROJECT             :LOGGING UNIT LOCATION
 FACT.        CP4P-00020                 :Service Order Number
  LIC.        0464072                    :API Well Number
 PROV.        ALBERTA                    :County or Parish
 UNIT.        3125                       :Logging Unit Number
 RMCT.DEGC    8.73000                    :Mudcake Sample Temperature
 RMFT.DEGC    8.73000                    :Mud Filtrate Sample Temperature
 TMAX.DEGC    12.28000                   :Maximum Recorded Temperature
 MUDS.        Flowline                   :Mud Sample Source
  RMT.DEGC    8.73000                    :Mud Sample Temperature
RANGE.        08W4                       :Range
  RMC.OHMM    1.18000                    :Resistivity of Mud Cake Sample
  RMF.OHMM    0.59200                    :Resistivity of Mud Filtrate Sample
   RM.OHMM    0.78900                    :Resistivity of Mud Sample
SECTION.      06-34                      :Section
 TIMC.        01 55 00                   :Time Circulation Stopped
 TIML.        07 55 00                   :Time Logger At Bottom
TOWNSHIP.     091                        :Township
  WIT.        JONATHAN FELL              :Witness s Name
  APD.M       4.00000                    :Elevation of Depth Reference (LMF) Above Permanent Datum
 APIN.        0464072                    :API Well Number
  BHT.DEGC    12.28000                   :Bottom Hole Temperature
  BLI.M       256.00000                  :Bottom Log Interval
   BS.MM      156.00000                  :Bit Size
   CN.        SUNCOR ENERGY INC.         :Company Name
 COUN.        ALBERTA                    :County or Parish
 LDAT.        23-Feb-2014                :Tools Above Rotary Table Date
  DCS.        23-Feb-2014                :Date Circulation Stopped
  DFL.C3      6.00000                    :Drilling Fluid Loss
 DLAB.        23-Feb-2014                :Date Logger At Bottom
  DMF.        KB                         :Drilling Measured From (Name of Drilling Elevation Reference)
  EDF.M       448.70001                  :Elevation of Drill Floor
  EGL.M       445.00000                  :Elevation of Ground Level
  EKB.M       449.00000                  :Elevation of Kelly Bushing
   FD.K/M3    1000.00000                 :Fluid Density
   FL.        6-34-91-8W4               :FIELD LOCATION
  FL1.        1AA063409108W400           :Field Location, Line 1
  FL2.                                   :Field Location, Line 2
   FN.        LEWIS                      :Field Name
 HID1.                                   :Header Identifier 1
 HID2.                                   :Header Identifier 2
 HIDE.        LEWIS                      :Header Identifier
 LATI.        56.934500 degrees          :Latitude
  LMF.        KB                         :Logging Measured From (Name of Logging Elevation Reference)
 LONG.        -111.20540 degrees         :Longitude
 MATR.        SAND                       :Rock Matrix for Neutron Porosity Corrections
 MCSS.        Calculated                 :Mudcake Sample Source
 MDEC.DEG     14.38033                   :Magnetic Field Declination
 MDEN.K/M3    2650.00000                 :Matrix Density for Density Porosity
 MRT1.DEGC    12.28000                   :Maximum Recorded Temperature 1
 MRT2.DEGC    -999.25000                 :Maximum Recorded Temperature 2
  NMT.        NOBARITE                   :HRDD Mud Type for Nuclear Devices
  OS1.                                   :Other Services Line 1
  OS2.                                   :Other Services Line 2
  OS3.                                   :Other Services Line 3
  OS4.                                   :Other Services Line 4
  OS5.                                   :Other Services Line 5
 PDAT.        GL                         :Permanent Datum
   R1.        THANK YOU FOR CHOOSING SCHLUMBERGER  :Remarks Line 1
   R2.        ALL TOOLS RAN AS PER TOOL SKETCH AND ALL PRESENTATIONS AS PER CLIENT REQUEST  :Remarks Line 2
   R3.        INDUCTION LOG – DESCENT #1 :Remarks Line 3
   R4.        NEUTRON / DENSITY LOG – DESCENT #1  :Remarks Line 4
  RMB.OHMM    0.70618                    :Resistivity of Mud at Bottom Hole Temperature
 RMFB.OHMM    0.52986                    :Resistivity of Mud Filtrate At Bottom Hole Temperature
  RUN.        ONE/2                      :Run Number
  SON.        CP4P-00020                 :SERVICE ORDER NUMBER
  TDD.M       256.00000                  :Driller Total Depth
  TDL.M       256.00000                  :Logger Total Depth
  TLI.M       75.00000                   :Top Log Interval
 UWID.        1AA063409108W400           :Unique Well Identifier
   WN.        SUNCOR LEWIS 6-34-91-8     :Well Name
  EPD.C3      445.000000                 :Elevation of Permanent Datum above Mean Sea Level
#-----------------------------------------------------------------------------
#
#      DEPT          BS            C1            C2            DEPTH         DEVIM         DT            EI            EV            FBCR          GR            HAZI          HAZIM         P1AZ        P1NO_FBST       RB            SDEV          TENS          TT1           TT2           TT3           TT4
#
#-----------------------------------------------------------------------------

~A       DEPT           BS           C1           C2        DEPTH        DEVIM           DT           EI           EV         FBCR           GR         HAZI        HAZIM         P1AZ    P1NO_FBST           RB         SDEV         TENS          TT1          TT2          TT3          TT4
# ...
    120.39600     159.00000     165.40100     165.02777     120.39281       0.49889     493.01282    3455.99878       6.29656   80147.38281     109.34139     242.83977     236.96561     210.05756     202.63113     327.21942       0.46347    4437.54590     889.59961     590.12183     880.23853     587.95087
    120.54840     159.00000     165.08478     165.67120     120.54488       0.50279     495.27527    3455.99878       6.29656   77422.43750     107.83126     242.62309     236.60484     205.59184     201.75975     322.97003       0.46539    4523.24854     883.26654     591.33923     872.84558     590.82288
    120.70080     159.00000     166.01534     165.67120     120.69762       0.50892     488.56821    3454.29492       6.25757   67323.38281     105.91920     242.41269     236.30196     203.26880     200.18231     320.85828       0.46734    4617.25391     877.35791     590.69312     872.29169     587.02875
    120.85320     159.00000     166.01534     165.67120     120.84985       0.51527     484.22772    3457.70288       6.25757   63618.11328     109.31241     242.27533     236.03467     202.33641     199.48596     320.06415       0.46885    4394.25000     880.46405     585.49817     879.34998     578.36108
    121.00560     159.00000     165.40100     165.67120     121.00639       0.52263     478.09134    3454.29492       6.27707   67175.83594     109.06110     242.12781     235.82043     200.80536     199.57185     318.67758       0.47040    4290.58789     885.03815     579.50653     883.64178     574.31390
    121.15800     159.00000     164.78664     165.02777     121.16244       0.52941     470.51733    3457.70288       6.19909   89617.15625     107.45420     242.09251     235.65852     199.85141     197.33257     317.76160       0.47085    4361.62988     888.51929     582.73804     887.04932     579.61035
    121.31040     159.00000     161.71490     164.70602     121.31012       0.53566     475.18912    3490.08154       6.14061  105645.05469     109.08796     242.05487     235.42802     199.53137     193.71672     317.47754       0.47172    4335.42773     889.82648     587.10138     894.51984     584.95276
    121.46280     159.00000     160.77380     160.52365     121.45911       0.54109     484.11063    3493.49023       6.02365   62657.17188     112.35541     241.86124     235.33409     198.71103     190.03535     316.85349       0.47202    4381.20166     897.38715     591.98828     899.41907     591.10645
    121.61520     159.00000     166.01534     168.88843     121.61503       0.54521     496.02084    3527.57300       5.88719   52404.37500     116.72263     241.62453     235.09505     195.53314     188.50916     313.91177       0.47289    4311.71680     899.18335     596.44391     900.06207     600.61090
    121.76760     159.00000     169.39426     169.53188     121.76966       0.54854     513.31531    3527.57300       5.75073   45450.98438     114.74759     241.16148     234.93134     191.82796     187.08714     310.66745       0.47420    4294.60986     898.99066     603.79242     898.79376     608.42761
    121.92000     159.00000     165.40100     168.24498     121.91901       0.55066     518.73254    3530.98169       5.69225   43520.49219     109.21793     240.59827     234.66722     189.03218     184.15208     308.43384       0.47716    4488.55225     895.12744     612.89807     897.10474     614.12830
    122.07240     159.00000     163.55794     165.02777     122.06921       0.55216     514.59851    3566.76831       5.65326   47199.69922     108.98208     239.92456     234.44043     187.97952     178.63443     308.05692       0.48034    4338.79541     896.12909     613.40289     900.99664     609.13892
    122.22480     159.00000     161.10054     165.02777     122.22162       0.55337     507.03653    3563.36035       5.67275   54391.00391     109.07198     239.21092     234.22839     185.91537     174.23817     306.70343       0.48503    4234.70703     900.86792     607.43787     902.40125     601.43018
    122.37720     159.00000     161.10054     165.02777     122.37782       0.55419     494.30261    3525.86890       5.75073   70860.64063     110.32887     238.64696     233.88248     181.63058     168.74258     302.98615       0.48978    4396.51123     899.67499     601.71875     894.44952     596.44641
    122.52960     159.00000     159.25751     163.09743     122.53403       0.55607     484.01660    3520.75684       5.86769   78579.32031     103.18105     238.12978     233.48523     176.49533     165.30756     298.36740       0.49485    4514.64844     893.64069     594.17963     890.09271     586.10699
    122.68200     159.00000     158.64316     165.02777     122.68643       0.55762     475.93561    3486.67358       6.00415   73467.17188      99.15914     237.87115     233.03539     171.04753     162.15587     293.17627       0.49889    4450.29736     890.56964     581.84363     885.76263     576.32770
    122.83440     159.00000     158.64316     165.02777     122.83884       0.56073     472.21167    3488.37793       6.10162   62429.44531     100.21146     237.72420     232.46022     167.20689     157.44952     289.48245       0.50108    4584.04053     887.02002     577.33057     878.45624     574.88599
    122.98680     159.00000     155.57140     160.52365     122.98797       0.56422     470.17441    3495.19434       6.12112   81404.50781     109.13470     237.74738     231.88600     163.78305     155.15118     286.03418       0.50278    4699.22852     881.16675     579.15985     875.15375     575.41956
    123.13920     159.00000     154.03554     157.62816     123.13602       0.56790     473.08102    3495.19434       6.14061  100732.63281     112.65392     237.82861     231.30362     159.59731     153.45216     281.76968       0.50194    4616.95752     878.61053     582.23932     873.69977     575.79120
    123.29160     159.00000     165.40100     166.95810     123.28841       0.57147     477.72437    3496.89868       6.12112   70751.99219     116.75438     237.88846     230.71387     156.12012     153.08545     278.22980       0.50023    4474.91113     876.47589     580.14746     872.48950     576.94025
    123.44400     159.00000     165.40100     169.21016     123.44082       0.57556     486.67398    3495.19434       6.16010   67962.63281     117.88508     237.89348     230.29782     154.17493     152.66664     276.28214       0.49878    4660.25342     872.42188     580.93304     871.53058     580.38855
    123.59640     159.00000     169.08708     169.85359     123.59782       0.57809     488.37192    3462.81567       6.19909   68240.01563     116.87996     237.83310     229.93257     153.20958     152.29102     275.37646       0.49641    4830.76855     867.91833     578.07568     869.28491     584.36371
    123.74880     159.00000     165.40100     169.53188     123.75340       0.58010     480.84665    3462.81567       6.19909   69224.94531     113.61285     237.59840     229.69011     152.83009     150.91618     275.23251       0.49584    4375.86377     861.70703     582.80756     863.39673     584.40723
    123.90120     159.00000     161.10054     166.31465     123.90563       0.58091     473.06735    3466.22363       6.25757   84694.64844     110.34559     237.30849     229.59746     152.42639     147.57033     275.11768       0.49631    4388.91211     860.07501     578.53278     865.28522     582.04913
    124.05360     159.00000     158.64316     166.63638     124.05668       0.58131     469.56299    3459.40698       6.35504   84394.29688     116.12643     236.96561     229.46649     152.03267     144.76720     275.06720       0.49889    4262.28613     866.25269     571.70697     864.78131     574.20923
    124.20600     159.00000     162.02209     167.60155     124.21043       0.58076     464.46927    3455.99878       6.45251   77087.85938     121.52997     236.60484     229.35313     149.28604     141.33080     272.67944       0.50279    4543.71045     835.14178     567.85590     824.06329     571.25116
