~VERSION INFORMATION 
VERS.          2.0   :CWLS LOG ASCII STANDARD - VERSION 2.0
WRAP.          NO    :ONE LINE PER DEPTH STEP
PROD.  Schlumberger   :LAS Producer
PROG.  DLIS to ASCII 19C2-270                          :LAS Program name and version
CREA.        2014/02/23 09:08                          :LAS Creation date {YYYY/MM/DD hh:mm}
DLIS_CREA.  2014-Feb-23 08:51                          :DLIS Creation date and time {YYYY-MMM-DD hh:mm}
SOURCE.     1AA063409108W400_FMI_SONIC_REPEAT.dlis     :DLIS File Name
FILE-ID.     ConPr_R2L2Up_S008_FBST_DSLT_HGNS          :File Identification Number
#--------------------------------------------------
~WELL INFORMATION 
#MNEM.UNIT      DATA             DESCRIPTION
#---- ------ --------------   -----------------------------
STRT.M      88.69680        :START DEPTH
STOP.M      258.01320       :STOP DEPTH
STEP.M       0.15240        :STEP
NULL .          -999.25      :NULL VALUE
COMP.        SUNCOR ENERGY INC.                       :COMPANY
WELL.        SUNCOR LEWIS 6-34-91-8                   :WELL
FLD  .        LEWIS                                    :FIELD
LOC.        6-34-91-8W4                              :LOCATION
PROV .        ALBERTA                                  :PROVINCE
UWI.        1AA063409108W400                         :UNIQUE WELL ID
LIC  .        0464072                                  :LICENSE NUMBER
CTRY .        CA                                       :COUNTRY (WWW code)
DATE.        23-Feb-2014                              :LOG DATE {DD-MMM-YYYY}
SRVC .        Schlumberger                             :SERVICE COMPANY
LATI .DEG     56.934500 degrees                        :LATITUDE
LONG .DEG     -111.20540 degrees                       :LONGITUDE
GDAT .                                                 :GeoDetic Datum
SECT .        06-34                                    :Section
RANG .        08W4                                     :Range
TOWN .        091                                      :Township
#-----------------------------------------------------------------------------
~CURVE INFORMATION 
#MNEM.UNIT   API CODE                                  DESCRIPTION
#---- -----  --------                                  -----------------------
 DEPT.M         00 001 00 00             :Depth Index - Measured Depth
   BS.MM        61 280 07 00             :BIT SIZE {F14.5}
   C1.MM        42 280 06 00             :CALIPER 1 {F14.5}
   C2.MM        42 280 05 00             :CALIPER 2 {F14.5}
DEPTH.M         00 001 00 00             :DEPTH INDEX {F14.5}
DEVIM.DEG       00 630 00 00             :MEMORIZED DEVIATION {F14.5}
   DT.US/M      60 520 32 00             :DELTA-T (ALSO CALLED SLOWNESS OR INTERVAL TRANSIT TIME) {F14.5}
   EI.MA        00 000 00 00             :EMEX CURRENT {F14.5}
   EV.V         00 000 00 00             :EMEX VOLTAGE {F14.5}
 FBCR.OHMS      00 000 00 00             :CORRELATION RESISTANCE {F14.5}
   GR.GAPI      42 310 01 00             :GAMMA RAY {F14.5}
 HAZI.DEG       00 620 00 00             :HOLE AZIMUTH RELATIVE TO TRUE NORTH {F14.5}
HAZIM.DEG       00 620 00 00             :HOLE AZIMUTH RELATIVE TO TRUE NORTH {F14.5}
 P1AZ.DEG       00 630 00 00             :PAD 1 AZIMUTH IN HORIZONTAL PLANE (0 = TRUE NORTH) {F14.5}
P1NO_FBST.DEG   00 000 00 00             :PAD 1 AZIMUTH IN PLANE ORTHOGONAL TO TOOL AXIS (0 = TRUE NORTH), MEMORIZED TO FBST {F14.5}
   RB.DEG       00 631 00 00             :RELATIVE BEARING {F14.5}
 SDEV.DEG       00 000 00 00             :SONDE DEVIATION {F14.5}
 TENS.N         61 280 10 00             :CABLE TENSION {F14.5}
  TT1.US        60 520 32 01             :TRANSIT TIME 1 {F14.5}
  TT2.US        60 520 32 02             :TRANSIT TIME 2 {F14.5}
  TT3.US        60 520 32 03             :TRANSIT TIME 3 {F14.5}
  TT4.US        60 520 32 04             :TRANSIT TIME 4 {F14.5}
~PARAMETER INFORMATION 
#MNEM.UNIT    VALUE                      DESCRIPTION
#---- -----   --------------------       ------------------------
 CSGD.M       72.80000                   :Casing Bottom of Driller
 CSGL.M       73.20000                   :Logger Casing Shoe Depth
 CSGS.MM      177.80000                  :Current Casing Size
 CSGW.KG/M    25.30000                   :Casing Weight
 MUDD.K/M3    1090.00000                 :Drilling Fluid Density
  DFL.C3      6.00000                    :Drilling Fluid Loss
   PH.        10.00000                   :Drilling Fluid pH
  MUD.        Polymer                    :Drilling Fluid Type
 MUDV.S       108.00000                  :Drilling Fluid Viscosity
   GL.M       445.00000                  :Elevation of Ground Level
 EREF.M       449.00000                  :Elevation of Kelly Bushing
  ENG.        NICK POLLEY                :Engineer s Name
 DREF.        KB                         :Logging Measured From (Name of Logging Elevation Reference)
 BASE.        WINTER PROJECT             :LOGGING UNIT LOCATION
 FACT.        CP4P-00020                 :Service Order Number
  LIC.        0464072                    :API Well Number
 PROV.        ALBERTA                    :County or Parish
 UNIT.        3125                       :Logging Unit Number
 RMCT.DEGC    8.73000                    :Mudcake Sample Temperature
 RMFT.DEGC    8.73000                    :Mud Filtrate Sample Temperature
 TMAX.DEGC    12.28000                   :Maximum Recorded Temperature
 MUDS.        Flowline                   :Mud Sample Source
  RMT.DEGC    8.73000                    :Mud Sample Temperature
RANGE.        08W4                       :Range
  RMC.OHMM    1.18000                    :Resistivity of Mud Cake Sample
  RMF.OHMM    0.59200                    :Resistivity of Mud Filtrate Sample
   RM.OHMM    0.78900                    :Resistivity of Mud Sample
SECTION.      06-34                      :Section
 TIMC.        01 55 00                   :Time Circulation Stopped
 TIML.        07 55 00                   :Time Logger At Bottom
TOWNSHIP.     091                        :Township
  WIT.        JONATHAN FELL              :Witness s Name
  APD.M       4.00000                    :Elevation of Depth Reference (LMF) Above Permanent Datum
 APIN.        0464072                    :API Well Number
  BHT.DEGC    12.28000                   :Bottom Hole Temperature
  BLI.M       256.00000                  :Bottom Log Interval
   BS.MM      156.00000                  :Bit Size
   CN.        SUNCOR ENERGY INC.         :Company Name
 COUN.        ALBERTA                    :County or Parish
 LDAT.        23-Feb-2014                :Tools Above Rotary Table Date
  DCS.        23-Feb-2014                :Date Circulation Stopped
  DFL.C3      6.00000                    :Drilling Fluid Loss
 DLAB.        23-Feb-2014                :Date Logger At Bottom
  DMF.        KB                         :Drilling Measured From (Name of Drilling Elevation Reference)
  EDF.M       448.70001                  :Elevation of Drill Floor
  EGL.M       445.00000                  :Elevation of Ground Level
  EKB.M       449.00000                  :Elevation of Kelly Bushing
   FD.K/M3    1000.00000                 :Fluid Density
   FL.        6-34-91-8W4               :FIELD LOCATION
  FL1.        1AA063409108W400           :Field Location, Line 1
  FL2.                                   :Field Location, Line 2
   FN.        LEWIS                      :Field Name
 HID1.                                   :Header Identifier 1
 HID2.                                   :Header Identifier 2
 HIDE.        LEWIS                      :Header Identifier
 LATI.        56.934500 degrees          :Latitude
  LMF.        KB                         :Logging Measured From (Name of Logging Elevation Reference)
 LONG.        -111.20540 degrees         :Longitude
 MATR.        SAND                       :Rock Matrix for Neutron Porosity Corrections
 MCSS.        Calculated                 :Mudcake Sample Source
 MDEC.DEG     14.38033                   :Magnetic Field Declination
 MDEN.K/M3    2650.00000                 :Matrix Density for Density Porosity
 MRT1.DEGC    12.28000                   :Maximum Recorded Temperature 1
 MRT2.DEGC    -999.25000                 :Maximum Recorded Temperature 2
  NMT.        NOBARITE                   :HRDD Mud Type for Nuclear Devices
  OS1.                                   :Other Services Line 1
  OS2.                                   :Other Services Line 2
  OS3.                                   :Other Services Line 3
  OS4.                                   :Other Services Line 4
  OS5.                                   :Other Services Line 5
 PDAT.        GL                         :Permanent Datum
   R1.        THANK YOU FOR CHOOSING SCHLUMBERGER  :Remarks Line 1
   R2.        ALL TOOLS RAN AS PER TOOL SKETCH AND ALL PRESENTATIONS AS PER CLIENT REQUEST  :Remarks Line 2
   R3.        INDUCTION LOG – DESCENT #1 :Remarks Line 3
   R4.        NEUTRON / DENSITY LOG – DESCENT #1  :Remarks Line 4
  RMB.OHMM    0.70618                    :Resistivity of Mud at Bottom Hole Temperature
 RMFB.OHMM    0.52986                    :Resistivity of Mud Filtrate At Bottom Hole Temperature
  RUN.        ONE/2                      :Run Number
  SON.        CP4P-00020                 :SERVICE ORDER NUMBER
  TDD.M       256.00000                  :Driller Total Depth
  TDL.M       256.00000                  :Logger Total Depth
  TLI.M       75.00000                   :Top Log Interval
 UWID.        1AA063409108W400           :Unique Well Identifier
   WN.        SUNCOR LEWIS 6-34-91-8     :Well Name
  EPD.C3      445.000000                 :Elevation of Permanent Datum above Mean Sea Level
#-----------------------------------------------------------------------------
#
#      DEPT          BS            C1            C2            DEPTH         DEVIM         DT            EI            EV            FBCR          GR            HAZI          HAZIM         P1AZ        P1NO_FBST       RB            SDEV          TENS          TT1           TT2           TT3           TT4
#
#-----------------------------------------------------------------------------

~A       DEPT           BS           C1           C2        DEPTH        DEVIM           DT           EI           EV         FBCR           GR         HAZI        HAZIM         P1AZ    P1NO_FBST           RB         SDEV         TENS          TT1          TT2          TT3          TT4
# ...
    187.75680     156.00000     149.42792     143.15063     187.75568       0.64762     428.30093    2569.84058      12.35920  202889.14063      51.41759     217.21033     217.63101      29.43504      35.01379     172.22456       0.59225    5518.85303     766.21082     527.28131     762.52802     523.45898
    187.90920     156.00000     146.97052     142.18550     187.91158       0.65236     423.99603    2574.95337      12.43717  231357.42188      56.14627     217.16089     217.77721      30.24821      35.23196     173.08928       0.59819    5307.28467     763.99713     522.50183     763.92224     516.43396
    188.06160     156.00000     146.97052     140.89857     188.06332       0.65684     416.94495    2573.24902      12.61262  233706.18750      54.21400     217.03967     218.02675      32.43090      34.39822     175.38992       0.60324    5192.85400     765.19794     512.69879     764.44250     510.84225
    188.21400     156.00000     147.58487     141.22031     188.21622       0.66041     411.11496    2542.57471      12.76857 2593866.00000      41.30075     216.87471     218.52959      35.01524      37.01760     178.14066       0.60798    5417.10010     764.34430     513.20428     760.93140     513.89117
    188.36640     156.00000     146.97052     141.22031     188.36778       0.66298     398.51324    2508.49170      13.02199 2058819.12500      34.80478     216.70946     218.67378      35.23344      41.34341     178.52495       0.61204    5730.49561     759.28076     513.73456     758.22424     512.90399
    188.51880     156.00000     149.12074     143.15063     188.51768       0.66487     394.81674    2474.40869      13.19744  359843.12500      30.45321     216.46149     218.75450      34.39968      43.79404     177.93826       0.61528    5828.83838     759.03094     509.28073     758.24133     500.28967
    188.67120     156.00000     149.42792     143.15063     188.67262       0.66554     397.65247    2435.21289      13.48985  872225.68750      29.69912     216.00545     218.70702      39.45934      47.30067     183.45338       0.61846    5887.49951     761.79492     500.14230     761.03052     500.63873
    188.82360     156.00000     149.42792     145.72443     188.82312       0.66456     403.41907    2436.91699      13.50934  548201.93750      31.29366     215.70888     218.59662      42.78285      51.83362     187.07474       0.62022    5992.05127     759.09558     499.78879     748.79541     500.56134
    188.97600     156.00000     149.42792     146.36787     188.97424       0.66231     402.39523    2433.50854      13.54833 1291348.12500      30.46103     215.42365     218.37306      45.17924      55.97507     189.75424       0.62149    5913.63281     751.17108     503.61099     750.07721     507.04565
    189.12840     156.00000     150.04227     147.65475     189.12807       0.65882     407.16132    2438.62134      13.50934 1867587.12500      32.22836     215.23055     218.09485      49.64110      58.63958     194.40926       0.62298    5532.19775     750.42249     506.56845     749.05536     506.24277
    189.28080     156.00000     150.04227     150.22852     189.28238       0.65420     408.75803    2433.50854      13.60681 2108170.00000      28.96081     215.12999     217.77448      54.07558      62.07957     198.94415       0.62380    5432.39063     751.45764     507.72684     753.31335     507.60355
    189.43320     156.00000     149.42792     150.22852     189.43272       0.64950     411.64056    2435.21289      13.62631 1191242.87500      28.84306     215.15785     217.40820      57.38628      67.02725     202.22604       0.62461    5261.65332     752.58130     507.54361     751.39154     507.35510
    189.58560     156.00000     146.97052     150.22852     189.58305       0.64526     410.39340    2397.72192      13.78226 2134159.50000      27.19358     215.29018     217.11583      60.52789      68.52137     205.23662       0.62484    4892.20996     750.60242     507.61960     749.18011     507.68024
    189.73800     156.00000     146.66335     147.97647     189.73911       0.64225     406.54660    2402.83423      13.72378 1512877.62500      25.81101     215.53163     216.85298      63.38431      71.74168     207.85100       0.62464    4794.34863     748.66205     508.65207     746.99194     506.50159
    189.89040     156.00000     148.19922     147.65475     189.89178       0.64174     403.70056    2404.53833      13.64580 2004622.00000      28.75653     215.92802     216.71935      67.03038      73.57436     211.10135       0.62432    5087.87598     749.17560     503.79233     746.07861     501.53717
    190.04280     156.00000     149.42792     147.65475     190.04097       0.64241     398.46286    2438.62134      13.68479  316392.78125      33.16309     216.26385     216.56161      68.52453      75.32630     212.26021       0.62384    5103.29639     749.25262     501.42575     746.13025     497.66248
    190.19520     156.00000     151.88531     150.22852     190.19266       0.64602     397.26315    2402.83423      13.82125 4093535.25000      37.98581     216.66820     216.50540      71.74490      78.29433     215.07600       0.62342    5705.67822     745.55560     498.89392     743.54462     495.89084
    190.34760     156.00000     151.88531     150.22852     190.34950       0.64959     395.98334    2404.53833      13.89922 3705315.00000      39.13268     216.96915     216.48433      73.57761      81.56901     216.60799       0.62325    5362.33105     744.15771     499.55405     742.39575     495.85526
    190.50000     156.00000     151.88531     148.94165     190.50156       0.65300     395.83728    2372.15967      14.09416 1009113.25000      35.48795     217.18382     216.49045      75.32958      84.04283     218.14421       0.62333    5003.65625     742.02069     498.39316     741.85718     494.65976
    190.65240     156.00000     151.88531     147.65475     190.65366       0.65490     397.00745    2373.86353      14.32809 1126895.87500      33.36729     217.47580     216.49925      79.89186      84.99061     222.41457       0.62649    4900.82813     744.63177     498.37210     742.52802     496.28113
    190.80480     156.00000     151.88531     147.65475     190.80737       0.65495     398.76703    2336.37231      14.60101 1075571.87500      31.98478     217.50435     216.45097      83.02868      85.33230     225.52217       0.62955    4710.66699     743.46503     499.41104     740.40344     497.93488
    190.95720     156.00000     151.88531     147.65475     190.95554       0.65353     398.76035    2271.61426      14.87392 1594238.25000      33.69717     217.50064     216.37456      84.65228      86.40279     227.15128       0.63368    4858.34766     741.96777     501.60852     740.15582     499.81497
    191.10960     156.00000     150.34944     145.72443     191.10832       0.65014     400.31360    2234.12354      15.20532 2502407.50000      31.45860     217.48727     216.24422      85.14746      86.16360     227.65807       0.63850    4881.92334     741.60034     501.19962     740.40430     499.25269
    191.26200     156.00000     149.42792     145.08096     191.26051       0.64538     399.66626    2171.06958      15.55621 2658392.25000      28.81936     217.55936     216.04614      85.91755      85.46160     228.35594       0.64336    4880.88525     743.20258     500.63947     741.91229     498.36166
    191.41440     156.00000     149.42792     145.40269     191.41455       0.64085     396.80252    2128.46582      15.98508 3534390.50000      23.96508     217.63101     215.85057      86.54118      84.99858     228.90714       0.64762    4996.74316     742.87323     499.75903     740.32538     498.23978
    191.56680     156.00000     150.04227     145.72443     191.56886       0.63626     395.76892    2058.59570      16.45294 3752676.00000      22.31548     217.77721     215.53621      85.55601      85.25722     227.77571       0.65236    5242.67383     742.60547     500.75043     740.37323     498.51566
