~Version Information
 VERS.                2.00:   CWLS log ASCII Standard -VERSION 2.00
 WRAP.                  NO:   One line per frame      
~Well Information Block
#MNEM.UNIT                   Data                        Description
#----.----   -----------------------------------------   -------------------------------
 STRT.M                                       27.0000 : Starting Depth
 STOP.M                                      188.0000 : Ending Depth
 STEP.M                                        0.1000 : Level Spacing
 NULL.                                      -999.2500 : Absent Value
 COMP.       SUNCOR ENERGY INC                        : Company
 WELL.       SUNCOR LEWIS 7-22-92-8                   : Well
 FLD .       UNDEFINED                                : Field
 LOC .       LSD 07-22-092-08W4                       : Location
 PROV.       ALBERTA                                  : Province
 CTRY.       CA                                       : Country
 SRVC.       Baker Hughes                             : Service Company
 DATE.       16-JAN-2016                              : Log Date
 UWI .       1AA072209208W400                         : Unique Well ID
 LIC .       0477502                                  : License Number
~Curve Information Block
#MNEM    .UNIT        API Codes     Curve Description
#--------.--------   LG--CV-CL--M   -------------------------------
 DEPT    .M           0   1  0  1 : Depth
 AZSTQH  .deg        99 995 99  1 : Azimuth of reference pad for STAR
 BKRGQH  .dim        99 995 99  1 : Bucker driver value
 DEVSTQH .deg        99 995 99  1 : Deviation for STAR
 DIP1QH  .raw        75 610  1  1 : Pad 1 average data of buttons 11, 12, 13, 14
 DIP2QH  .raw        75 610  1  1 : Pad 2 average data of buttons 11, 12, 13, 14
 DIP3QH  .raw        75 610  1  1 : Pad 3 average data of buttons 11, 12, 13, 14
 DIP4QH  .raw        75 610  1  1 : Pad 4 average data of buttons 11, 12, 13, 14
 DIP5QH  .raw        75 610  1  1 : Pad 5 average data of buttons 11, 12, 13, 14
 DIP6QH  .raw        75 610  1  1 : Pad 6 average data of buttons 11, 12, 13, 14
 GR      .gAPI       30 310  1  1 : Gamma ray
 PADFQH  .pct        94 995 99  1 : Pad force
 PADGQH  .dim        99 995 99  1 : Pad gain code
 RAD1QH  .mm         75 280 99  1 : Radius, tool axis to pad 1 face
 RAD2QH  .mm         75 280 99  1 : Radius, tool axis to pad 2 face
 RAD3QH  .mm         75 280 99  1 : Radius, tool axis to pad 3 face
 RAD4QH  .mm         75 280 99  1 : Radius, tool axis to pad 4 face
 RAD5QH  .mm         75 280 99  1 : Radius, tool axis to pad 5 face
 RAD6QH  .mm         75 280 99  1 : Radius, tool axis to pad 6 face
 RAZGSTQH.mG         99 995 99  1 : Raw Z-axis accelerometer shifted to STAR
 RBSTQH  .deg        99 995 99  1 : Relative bearing (relative to borehole high side) for STAR
 SPD     .m/min      99 636 99  1 : Speed
~Parameter Information Block
#MNEM.UNIT                     Value                    Description
#----.----   ----------------------------------------   -------------------------------
 HID1.       RESISTIVITY IMAGING LOG^T                : Header Identifer
 HID2.       GAMMA RAY LOG                            : Header Identifer
 FILE.       3953                                     : File Number
 CMT1.       UID                                      : Comment 1  
 CMT2.       1AA072209208W400                         : Comment 2  
 CMT3.       LICENSE                                  : Comment 3  
 CMT4.       0477502                                  : Comment 4  
 FL2 .       BH LOC. LSD  07                          : Field Location 2
 SECT.       22                                       : Section
 TOWN.       092                                      : Township
 RANG.       08W4                                     : Range
 OS1 .       ZDL-CN-GR-CAL                            : Other Services Line 1
 OS2 .       HDIL-GR-CAL, CVL                         : Other Services Line 2
 OS3 .       DAL-GR-CAL                               : Other Services Line 3
 OS4 .       COMPOSITE                                : Other Services Line 4
 PDAT.       G.L.                                     : Permanent Datum
 EPD .M      438.50                                   : Elevation Of Perm. Datum
 LMF .       K.B.                                     : Log Measured From
 APD .M      2.20                                     : Above Permanent Datum
 DMF .       KELLY BUSHING                            : Drilling Measured From
 EKB .M      440.70                                   : Elevation Of Kelly Bushing
 EGL .M      438.50                                   : Elevation Of Ground Level
 RUN .       1                                        : Run Number
 TRIP.       1                                        : Trip Number
 SON .       CA003953J                                : Service Order Number
 TDD .M      187.0                                    : Total Depth - Driller
 TDL .M      186.3                                    : Total Depth - Logger
 BLI .M      183.0                                    : Bottom Log Interval
 TLI .M      55.0                                     : Top Log Interval
 CSIZ.MM     177.8                                    : Casing Size
 CBDR.M      49.4                                     : Casing Bottom - Driller
 CBLO.M      49.4                                     : Casing Bottom - Logger
 BS  .MM     156.0                                    : Bit Size
 DFT .       WB (WATER BASE MUD)                      : Drilling Fluid Type
 DFD .G/L    1030.0                                   : Drilling Fluid Density
 DFV .S      79.0                                     : Drilling Fluid Viscosity
 DFPH.       7.0                                      : Drilling Fluid Ph
 DFL .ML     8.0                                      : Drilling Fluid Loss
 MSS .       F (FLOWLINE)                             : Mud Sample Source
 RMS .OHMM   1.2                                      : Resistivity Of Mud Sample
 MST .DEGC   25.0                                     : Mud Sample Temperature
 RMFS.OHMM   1.0                                      : Resistivity Of Mud Filtrate Sample
 MFST.DEGC   25.0                                     : Mud Filtrate Sample Temperature
 RMCS.OHMM   1.4                                      : Resistivity Of Mud Cake Sample
 MCST.DEGC   25.0                                     : Mud Cake Sample Temperature
 MFSS.       CALCULATED                               : Mud Filtrate Sample Source
 MCSS.       CALCULATED                               : Mud Cake Sample Source
 RMB .OHMM   2.0                                      : Mud Resistivity At Bht
 BHT .DEGC   7.0                                      : Bottom Hole Temperature
 TSC .       5.0 HOURS                                : Time Since Circulation
 MRT .DEGC   7.0                                      : Maximum Recorded Temperature
 LUN .       Z004250                                  : Logging Unit Number
 LUL .       LEDUC OH                                 : Logging Unit Location
 ENGI.       A.MALIK                                  : Engineer's Name
 WITN.       H.WILSON / P.ENE                         : Witness' Name
 TSTR.       /STAR/GR/                                : Title Service Mnemonic
 TSTG.       NA                                       : Title Service Mnemonic
 STUS.       FINAL                                    : Status
 LCNM.       BAKER ATLAS                              : Logging Company Name
 LCC .       150                                      : Logging Company Code
 OPMD.       OH.WIRE                                  : Operation Mode
 PANA.       A.MALIK                                  : Processing Analyst
 PCON.       BAKER ATLAS                              : Processing Contractor
 APIN.                                                : API Serial Number
 STAT.                                                : State Or Province
~Other information
LAT/LON  57.0175, -111.419                                                      
TIME STOPPED CIRCULATION  16-JAN-2016 0830AM                                    
STAR RUN WITH 0% PAD FORCE AND AUTOMATICALLY CONTROLLED GAINS                   
ANY STICK AND PULL AFFECTS LOG QUALITY                                          
RIG  ENCORE 402                                                                 
CREW  F.AJAGU, A.MALIK                                                          
#  Curve Data
~A  DEPT        AZSTQH      BKRGQH      DEVSTQH     DIP1QH      DIP2QH      DIP3QH      DIP4QH      DIP5QH      DIP6QH      GR          PADFQH      PADGQH      RAD1QH      RAD2QH      RAD3QH      RAD4QH      RAD5QH      RAD6QH      RAZGSTQH    RBSTQH      SPD       
# ...
     58.0000    269.9524      7.0000      0.0657    515.0000    434.0000    534.0000    442.0000    530.0000    395.0000     93.6616      1.1304      3.0000     79.6424     75.0072     74.5879     73.7949     82.0496     80.9242   1008.8755    325.0215      3.3314
     58.1000    261.5865      7.0000      0.0657    448.0000    591.0000    467.0000    574.0000    419.0000    464.0000     93.9161      1.2366      3.0000     79.5147     75.0072     74.5879     73.7949     82.0496     81.0496   1008.8755    325.0215      3.2992
     58.2000    275.4583      7.0000      0.0657    544.0000    459.0000    434.0000    471.0000    453.0000    482.0000     93.9255      1.2366      3.0000     79.5147     75.0072     74.3293     73.7949     82.0496     81.0496   1009.6937    325.0215      3.2711
     58.3000    283.2013      7.0000      0.0657    525.0000    472.0000    449.0000    537.0000    545.0000    476.0000     93.7485      1.2366      3.0000     79.5147     75.0072     74.2000     73.7949     82.0496     80.9242   1010.5120    325.0215      3.2561
     58.4000    270.6739      7.0000      0.0657    431.0000    373.0000    431.0000    450.0000    438.0000    466.0000     93.4961      1.2366      3.0000     79.5147     75.0072     74.0707     73.7949     82.0496     80.9242   1014.6031    325.0215      3.2627
     58.5000    295.9073      7.0000      0.0657    390.4961    615.5433    300.0236    407.5118    397.4252    331.4803     93.1606      1.2366      3.0000     79.5147     75.0072     74.2000     73.5385     82.0496     80.9242   1006.4208    325.0215      3.2907
     58.6000    283.4164      7.0000      0.0657    349.0000    303.0000    257.0000    374.0000    314.0000    344.0000     92.7259      1.2366      3.0000     79.5147     75.0072     74.2000     73.5385     82.0496     80.5478   1008.0573    325.0215      3.3351
     58.7000    276.5879      7.0000      0.0657    273.0000    223.0000     94.0000    295.0000    184.0000    266.0000     92.3760      1.2366      3.0000     79.5147     75.0072     74.2000     73.7949     82.0496     80.5478   1009.6937    325.0215      3.3803
     58.8000    288.2186      7.0000      0.1038    240.0945    140.3937    230.5748    177.6063    212.5433    204.3937     92.1694      1.2366      3.0000     79.5147     75.0072     74.2000     73.7949     82.0496     80.9242   1010.8341    343.4564      3.4099
     58.9000    249.4589      7.0000      0.1038    253.0000    234.0000    270.0000    197.0000    252.0000    184.0000     92.0649      1.2366      3.0000     79.5147     75.0072     74.2000     73.7949     82.0496     81.0496   1009.6937    343.4564      3.4185
     59.0000    247.1548      7.0000      0.1038    379.0000    261.0000    300.0000    270.0000    318.0000    304.0000     91.8973      1.2366      3.0000     79.5147     75.0072     74.2000     73.5385     81.9216     80.9242   1008.0573    343.4564      3.4100
     59.1000    244.7542      7.0000      0.0929    295.0000    341.0000    289.0000    357.0000    266.0000    259.0000     91.5956      1.2366      3.0000     79.5147     75.0072     74.2000     73.7949     82.0496     81.0496   1008.8755     10.0215      3.3955
     59.2000    186.5915      7.0000      0.0464    301.0000    270.0000    264.0000    362.0000    488.0000    253.0000     91.2922      1.2366      3.0000     79.5147     75.0072     74.2000     73.4102     81.9216     81.0496   1012.1484     10.0215      3.3795
     59.3000    197.1048      7.0000      0.0464    308.3701    321.1968    267.1732    293.4331    257.4803    226.7165     91.0547      1.1789      3.0000     79.5147     75.0072     74.2000     73.4102     81.9912     80.9242   1009.6937     10.0215      3.3669
     59.4000    262.7372      7.0000      0.0464    314.0000    261.0000    261.0000    263.0000    293.0000    267.0000     90.8886      1.2366      3.0000     79.5147     75.0072     74.2000     73.4102     82.0496     80.9242   1008.8755     10.0215      3.3630
     59.5000    269.5349      7.0000      0.0464    338.0000    250.0000    249.0000    242.0000    314.0000    230.0000     90.7288      1.2366      3.0000     79.5147     75.0072     74.2000     73.2820     82.0496     80.9242   1010.5120     10.0215      3.3689
     59.6000    268.9042      7.0000      0.0657    299.0000    252.9685    302.3622    249.2992    364.2992    232.4646     90.4834      1.2366      3.0000     79.5147     75.0072     74.2000     73.2820     82.0496     80.9242   1009.2298    325.0215      3.3804
     59.7000    268.4951      7.0000      0.0657    284.0000    317.0000    214.0000    303.0000    270.0000    277.0000     90.1677      1.2366      3.0000     79.5147     75.0072     74.0707     73.2820     82.0496     81.0496   1008.0573    325.0215      3.3866
     59.8000    268.0042      7.0000      0.0657    255.0000    285.0000    219.0000    286.0000    293.0000    288.0000     89.9188      1.2366      3.0000     79.5147     75.0072     74.0707     73.4102     82.0496     80.9242   1010.5120    325.0215      3.3763
     59.9000    266.6934      7.0000      0.0657    245.0000    230.0000    253.0000    257.0000    288.0000    290.0000     89.8868      1.2366      3.0000     79.8980     75.0072     74.0707     73.4102     82.0496     80.9242   1011.3301    325.0215      3.3385
     60.0000    264.2291      7.0000      0.0657    302.0000    267.0000    291.0000    267.0000    283.0000    247.0000     90.1199      1.2366      3.0000     80.0257     74.8811     74.0707     73.2820     81.9216     81.0496   1008.0573    325.0215      3.2678
     60.1000    262.4680      7.0000      0.0657    427.8583    278.5039    462.1024    305.8347    586.0079    243.8346     90.5527      1.2366      3.0000     80.0257     74.8811     74.0707     73.2820     82.0496     81.0496   1011.3301    325.0215      3.1708
     60.2000    263.1752      7.0000      0.0657    604.0000    433.0000    489.0000    526.0000    605.0000    381.0000     91.0353      1.2366      3.0000     80.0257     74.8811     74.0707     73.2820     82.0496     81.0496   1012.1484    325.0215      3.0528
     60.3000    263.7501      7.0000      0.0657    585.0000    589.0000    556.0000    552.0000    630.0000    540.0000     91.2806      1.2366      3.0000     80.0257     74.8811     74.0707     73.2820     82.0496     81.0496   1008.8755    325.0215      2.9123
     60.4000    263.4427      7.0000      0.1038    536.7008    321.1496    476.5591    385.8032    548.9685    488.8347     91.1638      1.2366      3.0000     80.0257     74.8811     74.0707     73.4102     82.0496     80.9834   1008.0573    343.4564      2.7407
     60.5000    265.4770      7.0000      0.0657    582.0000    421.0000    374.0000    564.0000    541.0000    328.0000     90.6792      1.2366      3.0000     80.0257     74.8811     74.0707     73.2820     82.0496     80.9242   1008.0573    325.0215      2.5331
     60.6000    268.7936      7.0000      0.0657    489.0000    462.0000    496.0000    496.0000    524.0000    388.0000     90.0072      1.2366      3.0000     80.0257     74.8811     74.0707     73.4102     82.0496     80.9242   1008.0573    325.0215      2.3013
     60.7000    271.4769      7.0000      0.0657    291.0000    506.0000    385.0000    434.0000    436.0000    487.0000     89.4318      1.2366      3.0000     80.0257     74.8811     74.0707     73.2820     82.0496     80.9242   1008.0573    325.0215      2.0841
     60.8000    271.4976      7.0000      0.0657    416.0000    442.0000    332.0000    509.0000    368.0000    333.0000     89.0216      1.2366      3.0000     80.0257     74.8811     74.0707     73.4102     82.0496     80.9242   1008.8755    325.0215      1.9419
     60.9000    270.2154      7.0000      0.0657    497.0000    467.0000    354.0000    425.0000    436.0000    264.0000     88.6969      1.2366      3.0000     80.0257     74.8811     74.0707     73.5385     82.0496     80.9242   1012.1484    325.0215      1.9805
     61.0000    269.3676      7.0000      0.0657    375.0000    461.0000    411.0000    425.0000    472.0000    375.0000     88.4486      1.2366      3.0000     80.0257     74.8811     74.0707     73.4102     82.0496     80.9242   1009.6937    325.0215      2.2311
