~Version Information
 VERS.                2.00:   CWLS log ASCII Standard -VERSION 2.00
 WRAP.                  NO:   One line per frame      
~Well Information Block
#MNEM.UNIT                   Data                        Description
#----.----   -----------------------------------------   -------------------------------
 STRT.M                                       27.0000 : Starting Depth
 STOP.M                                      188.0000 : Ending Depth
 STEP.M                                        0.1000 : Level Spacing
 NULL.                                      -999.2500 : Absent Value
 COMP.       SUNCOR ENERGY INC                        : Company
 WELL.       SUNCOR LEWIS 7-22-92-8                   : Well
 FLD .       UNDEFINED                                : Field
 LOC .       LSD 07-22-092-08W4                       : Location
 PROV.       ALBERTA                                  : Province
 CTRY.       CA                                       : Country
 SRVC.       Baker Hughes                             : Service Company
 DATE.       16-JAN-2016                              : Log Date
 UWI .       1AA072209208W400                         : Unique Well ID
 LIC .       0477502                                  : License Number
~Curve Information Block
#MNEM    .UNIT        API Codes     Curve Description
#--------.--------   LG--CV-CL--M   -------------------------------
 DEPT    .M           0   1  0  1 : Depth
 AZSTQH  .deg        99 995 99  1 : Azimuth of reference pad for STAR
 BKRGQH  .dim        99 995 99  1 : Bucker driver value
 DEVSTQH .deg        99 995 99  1 : Deviation for STAR
 DIP1QH  .raw        75 610  1  1 : Pad 1 average data of buttons 11, 12, 13, 14
 DIP2QH  .raw        75 610  1  1 : Pad 2 average data of buttons 11, 12, 13, 14
 DIP3QH  .raw        75 610  1  1 : Pad 3 average data of buttons 11, 12, 13, 14
 DIP4QH  .raw        75 610  1  1 : Pad 4 average data of buttons 11, 12, 13, 14
 DIP5QH  .raw        75 610  1  1 : Pad 5 average data of buttons 11, 12, 13, 14
 DIP6QH  .raw        75 610  1  1 : Pad 6 average data of buttons 11, 12, 13, 14
 GR      .gAPI       30 310  1  1 : Gamma ray
 PADFQH  .pct        94 995 99  1 : Pad force
 PADGQH  .dim        99 995 99  1 : Pad gain code
 RAD1QH  .mm         75 280 99  1 : Radius, tool axis to pad 1 face
 RAD2QH  .mm         75 280 99  1 : Radius, tool axis to pad 2 face
 RAD3QH  .mm         75 280 99  1 : Radius, tool axis to pad 3 face
 RAD4QH  .mm         75 280 99  1 : Radius, tool axis to pad 4 face
 RAD5QH  .mm         75 280 99  1 : Radius, tool axis to pad 5 face
 RAD6QH  .mm         75 280 99  1 : Radius, tool axis to pad 6 face
 RAZGSTQH.mG         99 995 99  1 : Raw Z-axis accelerometer shifted to STAR
 RBSTQH  .deg        99 995 99  1 : Relative bearing (relative to borehole high side) for STAR
 SPD     .m/min      99 636 99  1 : Speed
~Parameter Information Block
#MNEM.UNIT                     Value                    Description
#----.----   ----------------------------------------   -------------------------------
 HID1.       RESISTIVITY IMAGING LOG^T                : Header Identifer
 HID2.       GAMMA RAY LOG                            : Header Identifer
 FILE.       3953                                     : File Number
 CMT1.       UID                                      : Comment 1  
 CMT2.       1AA072209208W400                         : Comment 2  
 CMT3.       LICENSE                                  : Comment 3  
 CMT4.       0477502                                  : Comment 4  
 FL2 .       BH LOC. LSD  07                          : Field Location 2
 SECT.       22                                       : Section
 TOWN.       092                                      : Township
 RANG.       08W4                                     : Range
 OS1 .       ZDL-CN-GR-CAL                            : Other Services Line 1
 OS2 .       HDIL-GR-CAL, CVL                         : Other Services Line 2
 OS3 .       DAL-GR-CAL                               : Other Services Line 3
 OS4 .       COMPOSITE                                : Other Services Line 4
 PDAT.       G.L.                                     : Permanent Datum
 EPD .M      438.50                                   : Elevation Of Perm. Datum
 LMF .       K.B.                                     : Log Measured From
 APD .M      2.20                                     : Above Permanent Datum
 DMF .       KELLY BUSHING                            : Drilling Measured From
 EKB .M      440.70                                   : Elevation Of Kelly Bushing
 EGL .M      438.50                                   : Elevation Of Ground Level
 RUN .       1                                        : Run Number
 TRIP.       1                                        : Trip Number
 SON .       CA003953J                                : Service Order Number
 TDD .M      187.0                                    : Total Depth - Driller
 TDL .M      186.3                                    : Total Depth - Logger
 BLI .M      183.0                                    : Bottom Log Interval
 TLI .M      55.0                                     : Top Log Interval
 CSIZ.MM     177.8                                    : Casing Size
 CBDR.M      49.4                                     : Casing Bottom - Driller
 CBLO.M      49.4                                     : Casing Bottom - Logger
 BS  .MM     156.0                                    : Bit Size
 DFT .       WB (WATER BASE MUD)                      : Drilling Fluid Type
 DFD .G/L    1030.0                                   : Drilling Fluid Density
 DFV .S      79.0                                     : Drilling Fluid Viscosity
 DFPH.       7.0                                      : Drilling Fluid Ph
 DFL .ML     8.0                                      : Drilling Fluid Loss
 MSS .       F (FLOWLINE)                             : Mud Sample Source
 RMS .OHMM   1.2                                      : Resistivity Of Mud Sample
 MST .DEGC   25.0                                     : Mud Sample Temperature
 RMFS.OHMM   1.0                                      : Resistivity Of Mud Filtrate Sample
 MFST.DEGC   25.0                                     : Mud Filtrate Sample Temperature
 RMCS.OHMM   1.4                                      : Resistivity Of Mud Cake Sample
 MCST.DEGC   25.0                                     : Mud Cake Sample Temperature
 MFSS.       CALCULATED                               : Mud Filtrate Sample Source
 MCSS.       CALCULATED                               : Mud Cake Sample Source
 RMB .OHMM   2.0                                      : Mud Resistivity At Bht
 BHT .DEGC   7.0                                      : Bottom Hole Temperature
 TSC .       5.0 HOURS                                : Time Since Circulation
 MRT .DEGC   7.0                                      : Maximum Recorded Temperature
 LUN .       Z004250                                  : Logging Unit Number
 LUL .       LEDUC OH                                 : Logging Unit Location
 ENGI.       A.MALIK                                  : Engineer's Name
 WITN.       H.WILSON / P.ENE                         : Witness' Name
 TSTR.       /STAR/GR/                                : Title Service Mnemonic
 TSTG.       NA                                       : Title Service Mnemonic
 STUS.       FINAL                                    : Status
 LCNM.       BAKER ATLAS                              : Logging Company Name
 LCC .       150                                      : Logging Company Code
 OPMD.       OH.WIRE                                  : Operation Mode
 PANA.       A.MALIK                                  : Processing Analyst
 PCON.       BAKER ATLAS                              : Processing Contractor
 APIN.                                                : API Serial Number
 STAT.                                                : State Or Province
~Other information
LAT/LON  57.0175, -111.419                                                      
TIME STOPPED CIRCULATION  16-JAN-2016 0830AM                                    
STAR RUN WITH 0% PAD FORCE AND AUTOMATICALLY CONTROLLED GAINS                   
ANY STICK AND PULL AFFECTS LOG QUALITY                                          
RIG  ENCORE 402                                                                 
CREW  F.AJAGU, A.MALIK                                                          
#  Curve Data
~A  DEPT        AZSTQH      BKRGQH      DEVSTQH     DIP1QH      DIP2QH      DIP3QH      DIP4QH      DIP5QH      DIP6QH      GR          PADFQH      PADGQH      RAD1QH      RAD2QH      RAD3QH      RAD4QH      RAD5QH      RAD6QH      RAZGSTQH    RBSTQH      SPD       
# ...
     76.6000    342.0654      6.0000      0.0464    427.4409    344.4803    375.8032    420.4409    391.2756    360.3622     99.6212      1.2366      3.0000     81.2419     77.4038     76.7860     75.9743     82.5615     81.8023   1009.6937    190.0215      3.4110
     76.7000    342.8234      6.0000      0.0464    450.0000    360.0000    423.0000    403.0000    432.0000    341.0000    101.2550      1.2366      3.0000     81.3033     77.4038     76.7860     75.8461     82.5615     81.9278   1011.3301    190.0215      3.4133
     76.8000    342.6976      6.0000      0.0464    453.0000    352.0000    459.0000    397.0000    397.0000    337.0000    102.5596      1.3429      3.0000     81.3033     77.5299     76.7860     75.9743     82.5615     81.9278   1007.2390    190.0215      3.4234
     76.9000    342.3815      6.0000      0.0464    381.5433    377.2283    425.1811    410.4095    428.6378    384.1811    103.0555      1.2801      3.0000     81.3033     77.4038     76.7860     75.9743     82.5615     81.7282   1008.3923    190.0215      3.4243
     77.0000    342.8879      6.0000      0.0464    487.0000    337.0000    476.0000    440.0000    429.0000    394.0000    102.8632      1.3429      3.0000     81.3033     77.4038     76.7860     75.9743     82.5615     81.5514   1008.0573    190.0215      3.4066
     77.1000    342.0654      6.0000      0.0464    420.0000    373.0000    439.0000    444.0000    399.0000    376.0000    102.4281      1.2366      3.0000     81.3033     77.4038     76.7860     75.9743     82.5615     81.6769   1003.1479    190.0215      3.3758
     77.2000    340.9257      6.0000      0.0464    416.0000    391.0000    461.0000    421.0000    389.0000    329.0000    102.0505      1.3429      3.0000     81.3033     77.4038     76.7860     75.8461     82.1776     81.8023   1005.6026    190.0215      3.3444
     77.3000    339.8565      6.0000      0.0464    362.0000    362.0000    419.0000    390.0000    391.0000    376.0000    101.6938      1.2366      3.0000     81.1755     77.4038     76.7860     75.9743     82.3055     81.6769   1010.5120    190.0215      3.3239
     77.4000    339.7854      6.0000      0.0464    435.3543    311.4409    518.7953    509.6772    380.8268    388.2047    101.1222      1.2366      3.0000     81.1755     77.4038     76.3411     75.8461     82.5615     81.7322   1009.6937    190.0215      3.3125
     77.5000    339.7854      6.0000      0.0464    458.0000    369.0000    477.0000    514.0000    432.0000    368.0000    100.0883      1.2366      3.0000     81.1755     76.3947     76.2688     75.5897     82.3055     81.6769   1008.8755    190.0215      3.3011
     77.6000    339.0335      6.0000      0.0464    398.0000    354.0000    460.0000    452.0000    408.0000    366.0000     98.5533      1.3429      3.0000     81.3033     77.5299     76.2688     75.5897     82.1776     81.9278   1008.0573    190.0215      3.2804
     77.7000    339.0335      6.0000      0.0464    420.5512    304.2283    439.7559    445.3465    369.9370    368.2047     96.8886      1.3429      3.0000     81.3033     77.5299     76.3981     75.9743     82.5615     81.9278   1008.1410    190.0215      3.2538
     77.8000    338.7190      6.0000      0.0464    403.0000    372.0000    450.0000    469.0000    370.0000    411.0000     95.4787      1.2366      3.0000     81.3033     76.3947     76.3981     76.1025     82.4335     81.9278   1008.8755    190.0215      3.2336
     77.9000    338.3307      6.0000      0.0464    400.0000    299.0000    404.0000    405.0000    385.0000    351.0000     94.9047      1.3429      3.0000     81.3033     77.5299     76.2688     76.1025     82.1776     81.9278   1006.4208    190.0215      3.2401
     78.0000    338.0161      6.0000      0.0464    377.0000    358.0000    401.0000    384.0000    373.0000    346.0000     94.9927      1.3429      3.0000     81.1755     77.5299     76.2688     76.1025     82.5615     81.9278   1008.0573    190.0215      3.2708
     78.1000    337.5070      6.0000      0.0464    293.0000    224.0000    318.0000    383.0000    338.0000    293.0000     95.3078      1.3429      3.0000     81.3033     77.5299     76.2688     76.1025     82.5615     81.9278   1009.6937    190.0215      3.3142
     78.2000    337.5070      6.0000      0.0464    336.0079    319.3937    340.5984    391.1968    339.1968    295.6063     95.3026      1.3429      3.0000     81.3033     77.5299     76.3981     76.1025     82.5615     81.9278   1008.0573    190.0215      3.3480
     78.3000    338.2106      6.0000      0.0464    315.0000    361.0000    332.0000    372.0000    297.0000    313.0000     94.8311      1.3429      3.0000     81.3033     77.5299     76.0102     75.9743     82.5615     81.9278   1008.0573    190.0215      3.3582
     78.4000    338.2106      7.0000      0.0464    493.0000    552.0000    539.0000    640.0000    495.0000    540.0000     94.0317      1.3429      3.0000     81.3033     77.5299     76.0102     75.5897     82.5615     81.9278   1008.8755    190.0215      3.3472
     78.5000    338.5250      7.0000      0.0464    506.0945    467.9291    482.0945    567.0472    492.4646    485.0000     93.1827      1.3429      3.0000     81.1755     77.5299     76.0102     75.5897     82.5615     81.9278   1010.9307    190.0215      3.3218
     78.6000    338.6455      7.0000      0.0464    543.0000    518.0000    545.0000    535.0000    629.0000    435.0000     92.5320      1.3429      3.0000     81.3033     77.5299     75.8809     75.2051     82.5615     81.8023   1008.8755    190.0215      3.2910
     78.7000    340.2941      7.0000      0.0464    948.0000    559.0000    579.0000    593.0000    823.0000    526.0000     91.9404      1.3429      3.0000     81.1755     77.4038     75.8809     74.8205     82.5615     81.9278   1008.8755    190.0215      3.2652
     78.8000    339.9786      7.0000      0.0464    533.0000    510.0000    531.0000    592.0000    580.0000    688.0000     91.1695      1.2366      3.0000     80.4090     77.4038     76.0102     74.6923     82.5615     81.9278   1010.5120    190.0215      3.2575
     78.9000    339.0335      7.0000      0.0464    315.0000    415.0000    461.0000    565.0000    277.0000    482.0000     90.2465      1.2366      3.0000     80.4090     77.4038     75.8809     74.8205     82.5615     81.9278   1009.6937    190.0215      3.2752
     79.0000    338.7190      7.0000      0.0464    430.0000    350.0000    472.0000    358.0000    440.0000    286.0000     89.4774      1.2366      3.0000     80.5368     76.3947     75.8809     74.6923     82.5615     81.6769   1013.7849    190.0215      3.3112
     79.1000    339.2761      7.0000      0.0464    345.0000    417.0000    383.0000    480.0000    350.0000    370.0000     89.1854      1.3429      3.0000     80.6645     77.0254     75.8809     74.6923     82.5615     81.6769   1008.0573    190.0215      3.3566
     79.2000    341.9407      7.0000      0.0464    346.0000    324.0000    369.0000    369.0000    366.0000    364.0000     89.6494      1.3429      3.0000     80.4090     77.4038     75.8809     74.6923     82.5615     81.8023   1014.6031    190.0215      3.3981
     79.3000    342.7624      7.0000      0.0929    407.6063    342.1653    323.0866    346.9449    300.5512    307.1102     90.7015      1.2927      3.0000     80.4090     77.4038     75.8809     74.1795     82.5615     81.9278   1010.9436    190.0215      3.4307
     79.4000    341.9407      7.0000      0.0929    420.0000    419.0000    384.0000    411.0000    334.0000    419.0000     92.0508      1.2366      3.0000     80.4090     77.4038     75.4930     75.0769     82.5615     81.9278   1009.6937    190.0215      3.4554
     79.5000    341.4336      7.0000      0.0929    460.0000    388.0000    496.0000    383.0000    536.0000    335.0000     93.3794      1.2366      3.0000     80.4090     77.4038     75.7516     74.6923     82.9454     81.5514   1008.0573    190.0215      3.4708
     79.6000    342.6976      7.0000      0.0658    515.7559    458.2441    596.2520    548.1653    554.6614    474.6614     94.7428      1.2366      3.0000     80.4623     77.4773     75.8809     74.8205     83.5852     81.5514   1012.6252    190.0215      3.4776
