~VERSION INFORMATION 
VERS.          2.0   :CWLS LOG ASCII STANDARD - VERSION 2.0
WRAP.          NO    :ONE LINE PER DEPTH STEP
PROD.  Schlumberger   :LAS Producer
PROG.  DLIS to ASCII 19C2-270                          :LAS Program name and version
CREA.        2014/02/23 09:08                          :LAS Creation date {YYYY/MM/DD hh:mm}
DLIS_CREA.  2014-Feb-23 08:51                          :DLIS Creation date and time {YYYY-MMM-DD hh:mm}
SOURCE.     1AA063409108W400_FMI_SONIC_REPEAT.dlis     :DLIS File Name
FILE-ID.     ConPr_R2L2Up_S008_FBST_DSLT_HGNS          :File Identification Number
#--------------------------------------------------
~WELL INFORMATION 
#MNEM.UNIT      DATA             DESCRIPTION
#---- ------ --------------   -----------------------------
STRT.M      88.69680        :START DEPTH
STOP.M      258.01320       :STOP DEPTH
STEP.M       0.15240        :STEP
NULL .          -999.25      :NULL VALUE
COMP.        SUNCOR ENERGY INC.                       :COMPANY
WELL.        SUNCOR LEWIS 6-34-91-8                   :WELL
FLD  .        LEWIS                                    :FIELD
LOC.        6-34-91-8W4                              :LOCATION
PROV .        ALBERTA                                  :PROVINCE
UWI.        1AA063409108W400                         :UNIQUE WELL ID
LIC  .        0464072                                  :LICENSE NUMBER
CTRY .        CA                                       :COUNTRY (WWW code)
DATE.        23-Feb-2014                              :LOG DATE {DD-MMM-YYYY}
SRVC .        Schlumberger                             :SERVICE COMPANY
LATI .DEG     56.934500 degrees                        :LATITUDE
LONG .DEG     -111.20540 degrees                       :LONGITUDE
GDAT .                                                 :GeoDetic Datum
SECT .        06-34                                    :Section
RANG .        08W4                                     :Range
TOWN .        091                                      :Township
#-----------------------------------------------------------------------------
~CURVE INFORMATION 
#MNEM.UNIT   API CODE                                  DESCRIPTION
#---- -----  --------                                  -----------------------
 DEPT.M         00 001 00 00             :Depth Index - Measured Depth
   BS.MM        61 280 07 00             :BIT SIZE {F14.5}
   C1.MM        42 280 06 00             :CALIPER 1 {F14.5}
   C2.MM        42 280 05 00             :CALIPER 2 {F14.5}
DEPTH.M         00 001 00 00             :DEPTH INDEX {F14.5}
DEVIM.DEG       00 630 00 00             :MEMORIZED DEVIATION {F14.5}
   DT.US/M      60 520 32 00             :DELTA-T (ALSO CALLED SLOWNESS OR INTERVAL TRANSIT TIME) {F14.5}
   EI.MA        00 000 00 00             :EMEX CURRENT {F14.5}
   EV.V         00 000 00 00             :EMEX VOLTAGE {F14.5}
 FBCR.OHMS      00 000 00 00             :CORRELATION RESISTANCE {F14.5}
   GR.GAPI      42 310 01 00             :GAMMA RAY {F14.5}
 HAZI.DEG       00 620 00 00             :HOLE AZIMUTH RELATIVE TO TRUE NORTH {F14.5}
HAZIM.DEG       00 620 00 00             :HOLE AZIMUTH RELATIVE TO TRUE NORTH {F14.5}
 P1AZ.DEG       00 630 00 00             :PAD 1 AZIMUTH IN HORIZONTAL PLANE (0 = TRUE NORTH) {F14.5}
P1NO_FBST.DEG   00 000 00 00             :PAD 1 AZIMUTH IN PLANE ORTHOGONAL TO TOOL AXIS (0 = TRUE NORTH), MEMORIZED TO FBST {F14.5}
   RB.DEG       00 631 00 00             :RELATIVE BEARING {F14.5}
 SDEV.DEG       00 000 00 00             :SONDE DEVIATION {F14.5}
 TENS.N         61 280 10 00             :CABLE TENSION {F14.5}
  TT1.US        60 520 32 01             :TRANSIT TIME 1 {F14.5}
  TT2.US        60 520 32 02             :TRANSIT TIME 2 {F14.5}
  TT3.US        60 520 32 03             :TRANSIT TIME 3 {F14.5}
  TT4.US        60 520 32 04             :TRANSIT TIME 4 {F14.5}
~PARAMETER INFORMATION 
#MNEM.UNIT    VALUE                      DESCRIPTION
#---- -----   --------------------       ------------------------
 CSGD.M       72.80000                   :Casing Bottom of Driller
 CSGL.M       73.20000                   :Logger Casing Shoe Depth
 CSGS.MM      177.80000                  :Current Casing Size
 CSGW.KG/M    25.30000                   :Casing Weight
 MUDD.K/M3    1090.00000                 :Drilling Fluid Density
  DFL.C3      6.00000                    :Drilling Fluid Loss
   PH.        10.00000                   :Drilling Fluid pH
  MUD.        Polymer                    :Drilling Fluid Type
 MUDV.S       108.00000                  :Drilling Fluid Viscosity
   GL.M       445.00000                  :Elevation of Ground Level
 EREF.M       449.00000                  :Elevation of Kelly Bushing
  ENG.        NICK POLLEY                :Engineer s Name
 DREF.        KB                         :Logging Measured From (Name of Logging Elevation Reference)
 BASE.        WINTER PROJECT             :LOGGING UNIT LOCATION
 FACT.        CP4P-00020                 :Service Order Number
  LIC.        0464072                    :API Well Number
 PROV.        ALBERTA                    :County or Parish
 UNIT.        3125                       :Logging Unit Number
 RMCT.DEGC    8.73000                    :Mudcake Sample Temperature
 RMFT.DEGC    8.73000                    :Mud Filtrate Sample Temperature
 TMAX.DEGC    12.28000                   :Maximum Recorded Temperature
 MUDS.        Flowline                   :Mud Sample Source
  RMT.DEGC    8.73000                    :Mud Sample Temperature
RANGE.        08W4                       :Range
  RMC.OHMM    1.18000                    :Resistivity of Mud Cake Sample
  RMF.OHMM    0.59200                    :Resistivity of Mud Filtrate Sample
   RM.OHMM    0.78900                    :Resistivity of Mud Sample
SECTION.      06-34                      :Section
 TIMC.        01 55 00                   :Time Circulation Stopped
 TIML.        07 55 00                   :Time Logger At Bottom
TOWNSHIP.     091                        :Township
  WIT.        JONATHAN FELL              :Witness s Name
  APD.M       4.00000                    :Elevation of Depth Reference (LMF) Above Permanent Datum
 APIN.        0464072                    :API Well Number
  BHT.DEGC    12.28000                   :Bottom Hole Temperature
  BLI.M       256.00000                  :Bottom Log Interval
   BS.MM      156.00000                  :Bit Size
   CN.        SUNCOR ENERGY INC.         :Company Name
 COUN.        ALBERTA                    :County or Parish
 LDAT.        23-Feb-2014                :Tools Above Rotary Table Date
  DCS.        23-Feb-2014                :Date Circulation Stopped
  DFL.C3      6.00000                    :Drilling Fluid Loss
 DLAB.        23-Feb-2014                :Date Logger At Bottom
  DMF.        KB                         :Drilling Measured From (Name of Drilling Elevation Reference)
  EDF.M       448.70001                  :Elevation of Drill Floor
  EGL.M       445.00000                  :Elevation of Ground Level
  EKB.M       449.00000                  :Elevation of Kelly Bushing
   FD.K/M3    1000.00000                 :Fluid Density
   FL.        6-34-91-8W4               :FIELD LOCATION
  FL1.        1AA063409108W400           :Field Location, Line 1
  FL2.                                   :Field Location, Line 2
   FN.        LEWIS                      :Field Name
 HID1.                                   :Header Identifier 1
 HID2.                                   :Header Identifier 2
 HIDE.        LEWIS                      :Header Identifier
 LATI.        56.934500 degrees          :Latitude
  LMF.        KB                         :Logging Measured From (Name of Logging Elevation Reference)
 LONG.        -111.20540 degrees         :Longitude
 MATR.        SAND                       :Rock Matrix for Neutron Porosity Corrections
 MCSS.        Calculated                 :Mudcake Sample Source
 MDEC.DEG     14.38033                   :Magnetic Field Declination
 MDEN.K/M3    2650.00000                 :Matrix Density for Density Porosity
 MRT1.DEGC    12.28000                   :Maximum Recorded Temperature 1
 MRT2.DEGC    -999.25000                 :Maximum Recorded Temperature 2
  NMT.        NOBARITE                   :HRDD Mud Type for Nuclear Devices
  OS1.                                   :Other Services Line 1
  OS2.                                   :Other Services Line 2
  OS3.                                   :Other Services Line 3
  OS4.                                   :Other Services Line 4
  OS5.                                   :Other Services Line 5
 PDAT.        GL                         :Permanent Datum
   R1.        THANK YOU FOR CHOOSING SCHLUMBERGER  :Remarks Line 1
   R2.        ALL TOOLS RAN AS PER TOOL SKETCH AND ALL PRESENTATIONS AS PER CLIENT REQUEST  :Remarks Line 2
   R3.        INDUCTION LOG – DESCENT #1 :Remarks Line 3
   R4.        NEUTRON / DENSITY LOG – DESCENT #1  :Remarks Line 4
  RMB.OHMM    0.70618                    :Resistivity of Mud at Bottom Hole Temperature
 RMFB.OHMM    0.52986                    :Resistivity of Mud Filtrate At Bottom Hole Temperature
  RUN.        ONE/2                      :Run Number
  SON.        CP4P-00020                 :SERVICE ORDER NUMBER
  TDD.M       256.00000                  :Driller Total Depth
  TDL.M       256.00000                  :Logger Total Depth
  TLI.M       75.00000                   :Top Log Interval
 UWID.        1AA063409108W400           :Unique Well Identifier
   WN.        SUNCOR LEWIS 6-34-91-8     :Well Name
  EPD.C3      445.000000                 :Elevation of Permanent Datum above Mean Sea Level
#-----------------------------------------------------------------------------
#
#      DEPT          BS            C1            C2            DEPTH         DEVIM         DT            EI            EV            FBCR          GR            HAZI          HAZIM         P1AZ        P1NO_FBST       RB            SDEV          TENS          TT1           TT2           TT3           TT4
#
#-----------------------------------------------------------------------------

~A       DEPT           BS           C1           C2        DEPTH        DEVIM           DT           EI           EV         FBCR           GR         HAZI        HAZIM         P1AZ    P1NO_FBST           RB         SDEV         TENS          TT1          TT2          TT3          TT4
# ...
    175.86960     156.00000     150.04227     146.36787     175.87054       0.51656     411.29816    2436.91699      13.50934 2062694.12500      32.65219     219.33223     216.55389     358.15958     356.42270     138.82819       0.50677    5711.51660     767.16986     515.65131     765.27216     513.00470
    176.02200     156.00000     151.27098     150.22852     176.02034       0.51726     408.01437    2436.91699      13.60681 1018840.56250      37.51745     219.49918     216.10895     357.93625     357.88348     138.43692       0.50831    6098.80859     769.41132     514.06512     767.68121     512.85651
    176.17440     156.00000     150.04227     147.65475     176.17216       0.51843     408.07458    2435.21289      13.62631  752473.93750      40.90947     219.57996     215.50577     357.84592     359.37988     138.26936       0.50871    5623.38623     769.88654     514.22076     768.54907     513.65350
    176.32680     156.00000     151.27098     150.22852     176.32838       0.52024     412.64252    2438.62134      13.64580  929179.06250      46.56348     219.52380     214.83592     356.42270       0.12447     136.90044       0.50804    5291.99365     770.76257     512.98151     768.59460     514.24872
    176.47920     156.00000     151.27098     152.80231     176.48195       0.52208     415.56451    2438.62134      13.68479  800699.00000      48.21337     219.29366     214.16566     357.88348     356.80988     138.59076       0.50654    5004.54590     768.73383     513.02130     767.32776     516.69647
    176.63160     156.00000     149.42792     150.22852     176.63028       0.52540     419.43228    2440.32568      13.62631  367092.75000      50.36072     218.90044     213.63068     359.37988     355.83081     140.47928       0.50469    5186.62646     766.43658     516.91528     765.63074     518.73132
    176.78400     156.00000     149.42792     145.72443     176.78209       0.52697     419.99185    2438.62134      13.68479 1029275.50000      50.03140     217.85722     213.14709     358.66223     352.83279     140.80667       0.50202    4802.96729     765.86743     518.58014     766.99872     518.20844
    176.93640     156.00000     149.42792     146.68958     176.93474       0.52767     415.61136    2404.53833      13.74327  189760.64063      47.18166     216.97597     212.82240     356.04843     346.73508     139.07127       0.49990    4874.95459     767.66949     517.03467     767.49164     515.64240
    177.08880     156.00000     149.42792     150.22852     177.08974       0.52796     414.82458    2402.83423      13.74327 1277349.37500      43.82376     216.01750     212.60361     355.02655     339.86850     139.00934       0.49884    5469.08838     768.83759     514.38818     768.04565     514.17578
    177.24120     156.00000     150.65662     151.51540     177.24242       0.52738     411.71115    2401.12988      13.89922 1232777.50000      43.65357     215.06999     212.60847     350.30884     337.84109     135.24088       0.49866    5618.10400     767.14624     513.50793     765.78741     513.11212
    177.39360     156.00000     150.65662     150.87196     177.39359       0.52669     409.66968    2367.04688      14.01619  324768.62500      41.67410     214.22502     212.76292     342.67532     342.32819     128.45192       0.49883    5491.60742     765.40436     512.55444     763.99438     511.79358
    177.54600     156.00000     150.34944     151.51540     177.54884       0.52597     410.65930    2399.42554      13.93821 1217731.25000      43.26410     213.51624     213.07391     338.09274     346.13055     124.57784       0.50009    5198.02490     764.06165     510.47589     762.88416     511.77390
    177.69840     156.00000     150.04227     151.51540     177.70233       0.52519     410.01321    2361.93457      14.21113 2192803.25000      42.00785     213.07724     213.44167     339.45181     344.68552     126.37663       0.50172    5065.04199     764.14343     510.52600     761.24719     511.70636
    177.85080     156.00000     150.65662     150.22852     177.85117       0.52434     411.35043    2298.88086      14.40607  160223.39063      46.25080     212.96185     213.92130     344.98358     343.71542     132.02429       0.50455    5046.35938     761.70557     511.86990     761.60492     511.22021
    178.00320     156.00000     149.42792     150.22852     178.00160       0.52448     411.04578    2297.17651      14.63999  430711.56250      46.50236     213.12175     214.39696     345.88779     344.21930     132.76619       0.50730    5049.00977     760.39398     513.86053     759.23859     512.05945
    178.15560     156.00000     151.27098     150.22852     178.15765       0.52421     410.77280    2264.79785      14.83493  626397.12500      44.96223     213.53580     214.80557     343.64331     340.27008     130.10867       0.51054    5332.02783     760.66479     512.09711     759.85333     511.18323
    178.30800     156.00000     151.27098     150.22852     178.30939       0.52466     411.68341    2225.60254      14.95190 3185679.00000      47.08180     214.10886     215.20984     344.32535     338.63013     130.21646       0.51289    5440.47168     759.85919     508.79993     758.29510     508.94104
    178.46040     156.00000     150.96381     151.19368     178.46056       0.52460     409.51224    2227.30688      15.04937  203314.12500      48.71557     214.73367     215.45245     344.21927     339.50031     129.48672       0.51504    5170.50195     759.62012     510.42502     758.36664     510.52020
    178.61280     156.00000     150.65662     151.51540     178.61182       0.52273     408.76752    2227.30688      15.14684  311360.84375      50.83631     215.36804     215.32295     340.27011     339.44147     124.90363       0.51625    4961.25000     757.01306     508.68808     755.70544     507.23981
    178.76520     156.00000     149.42792     150.22852     178.76376       0.52066     404.67871    2194.92773      15.14684 3835022.00000      50.01170     215.91922     215.24011     338.63019     334.70950     122.71046       0.51663    4866.07666     757.40350     510.44452     755.93439     508.61694
    178.91760     156.00000     144.82028     147.97647     178.91713       0.51792     405.73349    2196.63184      15.12735  294029.71875      48.75500     216.36104     214.97845     339.50034     327.42697     123.13991       0.51652    4734.68701     758.01202     509.02856     756.38837     506.27231
    179.07000     156.00000     145.74181     147.65475     179.07079       0.51452     407.03168    2193.22388      15.14684  357841.31250      44.65471     217.06206     214.45656     337.51440     316.34222     120.45342       0.51726    4725.40137     758.67499     508.20108     756.07361     504.39685
    179.22240     156.00000     146.97052     148.61992     179.22684       0.51093     406.15457    2189.81519      15.12735 2756033.75000      37.58528     217.07916     213.84729     331.84198     310.59845     114.76471       0.51641    5221.61914     758.44519     509.62320     755.98633     506.62503
    179.37480     156.00000     145.74181     149.58507     179.37636       0.50701     408.73483    2222.19409      15.06886 3152942.75000      36.70541     216.86307     213.12180     321.84750     310.92883     104.98641       0.51630    5466.86426     757.76166     507.56665     755.26056     506.19772
    179.52720     156.00000     144.51311     148.94165     179.52798       0.50398     407.03400    2191.51978      15.10785  474883.21875      39.27410     216.55389     212.28569     312.18463     310.89020      95.62907       0.51656    5179.12012     758.05914     509.37308     755.18506     509.09787
    179.67960     156.00000     144.51311     147.65475     179.68324       0.50166     409.39981    2194.92773      15.14684 1720724.25000      40.14604     216.10895     211.53430     310.57855     312.66147      94.47090       0.51726    5033.99707     756.05975     508.95355     754.04742     508.31500
