~Version Information
 VERS.                2.00:   CWLS log ASCII Standard -VERSION 2.00
 WRAP.                  NO:   One line per frame      
~Well Information Block
#MNEM.UNIT                   Data                        Description
#----.----   -----------------------------------------   -------------------------------
 STRT.M                                       27.0000 : Starting Depth
 STOP.M                                      188.0000 : Ending Depth
 STEP.M                                        0.1000 : Level Spacing
 NULL.                                      -999.2500 : Absent Value
 COMP.       SUNCOR ENERGY INC                        : Company
 WELL.       SUNCOR LEWIS 7-22-92-8                   : Well
 FLD .       UNDEFINED                                : Field
 LOC .       LSD 07-22-092-08W4                       : Location
 PROV.       ALBERTA                                  : Province
 CTRY.       CA                                       : Country
 SRVC.       Baker Hughes                             : Service Company
 DATE.       16-JAN-2016                              : Log Date
 UWI .       1AA072209208W400                         : Unique Well ID
 LIC .       0477502                                  : License Number
~Curve Information Block
#MNEM    .UNIT        API Codes     Curve Description
#--------.--------   LG--CV-CL--M   -------------------------------
 DEPT    .M           0   1  0  1 : Depth
 AZSTQH  .deg        99 995 99  1 : Azimuth of reference pad for STAR
 BKRGQH  .dim        99 995 99  1 : Bucker driver value
 DEVSTQH .deg        99 995 99  1 : Deviation for STAR
 DIP1QH  .raw        75 610  1  1 : Pad 1 average data of buttons 11, 12, 13, 14
 DIP2QH  .raw        75 610  1  1 : Pad 2 average data of buttons 11, 12, 13, 14
 DIP3QH  .raw        75 610  1  1 : Pad 3 average data of buttons 11, 12, 13, 14
 DIP4QH  .raw        75 610  1  1 : Pad 4 average data of buttons 11, 12, 13, 14
 DIP5QH  .raw        75 610  1  1 : Pad 5 average data of buttons 11, 12, 13, 14
 DIP6QH  .raw        75 610  1  1 : Pad 6 average data of buttons 11, 12, 13, 14
 GR      .gAPI       30 310  1  1 : Gamma ray
 PADFQH  .pct        94 995 99  1 : Pad force
 PADGQH  .dim        99 995 99  1 : Pad gain code
 RAD1QH  .mm         75 280 99  1 : Radius, tool axis to pad 1 face
 RAD2QH  .mm         75 280 99  1 : Radius, tool axis to pad 2 face
 RAD3QH  .mm         75 280 99  1 : Radius, tool axis to pad 3 face
 RAD4QH  .mm         75 280 99  1 : Radius, tool axis to pad 4 face
 RAD5QH  .mm         75 280 99  1 : Radius, tool axis to pad 5 face
 RAD6QH  .mm         75 280 99  1 : Radius, tool axis to pad 6 face
 RAZGSTQH.mG         99 995 99  1 : Raw Z-axis accelerometer shifted to STAR
 RBSTQH  .deg        99 995 99  1 : Relative bearing (relative to borehole high side) for STAR
 SPD     .m/min      99 636 99  1 : Speed
~Parameter Information Block
#MNEM.UNIT                     Value                    Description
#----.----   ----------------------------------------   -------------------------------
 HID1.       RESISTIVITY IMAGING LOG^T                : Header Identifer
 HID2.       GAMMA RAY LOG                            : Header Identifer
 FILE.       3953                                     : File Number
 CMT1.       UID                                      : Comment 1  
 CMT2.       1AA072209208W400                         : Comment 2  
 CMT3.       LICENSE                                  : Comment 3  
 CMT4.       0477502                                  : Comment 4  
 FL2 .       BH LOC. LSD  07                          : Field Location 2
 SECT.       22                                       : Section
 TOWN.       092                                      : Township
 RANG.       08W4                                     : Range
 OS1 .       ZDL-CN-GR-CAL                            : Other Services Line 1
 OS2 .       HDIL-GR-CAL, CVL                         : Other Services Line 2
 OS3 .       DAL-GR-CAL                               : Other Services Line 3
 OS4 .       COMPOSITE                                : Other Services Line 4
 PDAT.       G.L.                                     : Permanent Datum
 EPD .M      438.50                                   : Elevation Of Perm. Datum
 LMF .       K.B.                                     : Log Measured From
 APD .M      2.20                                     : Above Permanent Datum
 DMF .       KELLY BUSHING                            : Drilling Measured From
 EKB .M      440.70                                   : Elevation Of Kelly Bushing
 EGL .M      438.50                                   : Elevation Of Ground Level
 RUN .       1                                        : Run Number
 TRIP.       1                                        : Trip Number
 SON .       CA003953J                                : Service Order Number
 TDD .M      187.0                                    : Total Depth - Driller
 TDL .M      186.3                                    : Total Depth - Logger
 BLI .M      183.0                                    : Bottom Log Interval
 TLI .M      55.0                                     : Top Log Interval
 CSIZ.MM     177.8                                    : Casing Size
 CBDR.M      49.4                                     : Casing Bottom - Driller
 CBLO.M      49.4                                     : Casing Bottom - Logger
 BS  .MM     156.0                                    : Bit Size
 DFT .       WB (WATER BASE MUD)                      : Drilling Fluid Type
 DFD .G/L    1030.0                                   : Drilling Fluid Density
 DFV .S      79.0                                     : Drilling Fluid Viscosity
 DFPH.       7.0                                      : Drilling Fluid Ph
 DFL .ML     8.0                                      : Drilling Fluid Loss
 MSS .       F (FLOWLINE)                             : Mud Sample Source
 RMS .OHMM   1.2                                      : Resistivity Of Mud Sample
 MST .DEGC   25.0                                     : Mud Sample Temperature
 RMFS.OHMM   1.0                                      : Resistivity Of Mud Filtrate Sample
 MFST.DEGC   25.0                                     : Mud Filtrate Sample Temperature
 RMCS.OHMM   1.4                                      : Resistivity Of Mud Cake Sample
 MCST.DEGC   25.0                                     : Mud Cake Sample Temperature
 MFSS.       CALCULATED                               : Mud Filtrate Sample Source
 MCSS.       CALCULATED                               : Mud Cake Sample Source
 RMB .OHMM   2.0                                      : Mud Resistivity At Bht
 BHT .DEGC   7.0                                      : Bottom Hole Temperature
 TSC .       5.0 HOURS                                : Time Since Circulation
 MRT .DEGC   7.0                                      : Maximum Recorded Temperature
 LUN .       Z004250                                  : Logging Unit Number
 LUL .       LEDUC OH                                 : Logging Unit Location
 ENGI.       A.MALIK                                  : Engineer's Name
 WITN.       H.WILSON / P.ENE                         : Witness' Name
 TSTR.       /STAR/GR/                                : Title Service Mnemonic
 TSTG.       NA                                       : Title Service Mnemonic
 STUS.       FINAL                                    : Status
 LCNM.       BAKER ATLAS                              : Logging Company Name
 LCC .       150                                      : Logging Company Code
 OPMD.       OH.WIRE                                  : Operation Mode
 PANA.       A.MALIK                                  : Processing Analyst
 PCON.       BAKER ATLAS                              : Processing Contractor
 APIN.                                                : API Serial Number
 STAT.                                                : State Or Province
~Other information
LAT/LON  57.0175, -111.419                                                      
TIME STOPPED CIRCULATION  16-JAN-2016 0830AM                                    
STAR RUN WITH 0% PAD FORCE AND AUTOMATICALLY CONTROLLED GAINS                   
ANY STICK AND PULL AFFECTS LOG QUALITY                                          
RIG  ENCORE 402                                                                 
CREW  F.AJAGU, A.MALIK                                                          
#  Curve Data
~A  DEPT        AZSTQH      BKRGQH      DEVSTQH     DIP1QH      DIP2QH      DIP3QH      DIP4QH      DIP5QH      DIP6QH      GR          PADFQH      PADGQH      RAD1QH      RAD2QH      RAD3QH      RAD4QH      RAD5QH      RAD6QH      RAZGSTQH    RBSTQH      SPD       
# ...
    163.4000    179.7808     10.0000      0.4205    202.0000    145.0000    222.0000    332.0000    175.0000     45.0000     21.1735      1.2366      6.0000     82.9641     78.2867     76.3981     78.1538     84.6090     83.5587   1012.1484    106.3617      3.5149
    163.5000    180.0634     10.0000      0.4205    218.0000    223.0000    182.0000    193.0000    213.0000      3.0000     22.3052      1.2366      6.0000     83.2197     77.9083     76.2688     77.2564     84.6090     81.5514   1000.6932    106.3617      3.5189
    163.6000    179.7808     10.0000      0.4205    328.4882    181.3071    187.6929    259.7874    170.3858      5.5512     23.1292      1.2366      6.0000     82.0698     78.7913     76.0102     77.7692     84.6795     81.9278   1007.4066    106.3617      3.5228
    163.7000    180.4883     10.0000      0.4204    517.0000    224.0000    552.0000    289.0000    341.0000    190.0000     23.2536      1.2366      6.0000     82.1976     78.2867     76.3981     76.8718     84.6090     81.9278   1015.4213    106.3617      3.5255
    163.8000    180.9369     10.0000      0.4205    356.0000    605.0000    257.0000    599.0000    245.0000    132.0000     22.9269      1.2366      7.0000     82.9641     79.6742     76.2688     78.5384     84.6090     85.5659   1003.9661    106.3617      3.5260
    163.9000    180.3465     10.0000      0.4204    397.1496    292.5354    289.1181    310.0945    281.3228      7.6772     22.5027      1.2366      7.0000     82.9641     77.9083     76.3258     76.4872     84.6090     84.2412   1011.4268    106.3617      3.5224
    164.0000    179.4724     10.0000      0.4205    548.0000    314.0000    351.0000    272.0000    224.0000      9.0000     22.3418      1.2366      7.0000     82.9641     77.9083     76.2688     76.8718     84.6090     84.0605   1006.4208    106.3617      3.5147
    164.1000    178.7397     10.0000      0.4204    661.0000    636.0000    538.0000    354.0000    593.0000     76.0000     22.5910      1.2366      7.0000     82.9641     77.9083     76.7860     76.8718     84.6090     84.8132   1006.4208    106.3617      3.5066
    164.2000    178.5989     10.0000      0.4204    379.0000    288.0000    306.0000    993.0000    336.0000    400.0000     23.1341      1.2366      7.0000     82.1976     77.9083     76.0102     76.3590     84.6090     85.1895   1013.7849    106.3617      3.5003
    164.3000    178.4293     10.0000      0.4205    598.0000    270.0000    447.0000    548.0000    700.0000    116.0000     23.5935      1.2366      7.0000     79.5147     77.9083     75.4930     76.7436     83.8412     80.1715   1011.3301    106.3617      3.4965
    164.4000    178.1476     10.0000      0.4205    264.2283    509.9055    248.1890    634.6536    215.3150     37.4095     23.5384      1.1931      7.0000     79.1314     77.9083     74.9758     75.5897     82.9454     78.0388   1011.1433    106.3617      3.4934
    164.5000    178.0070     10.0000      0.4205    354.0000    189.0000    299.0000    357.0000    209.0000     12.0000     22.8641      1.2366      7.0000     79.5147     77.9083     75.3637     75.8461     82.4335     81.0496   1012.1484    106.3617      3.4911
    164.6000    178.0070     10.0000      0.4205    352.0000    256.0000    310.0000    368.0000    443.0000     10.0000     21.7000      1.2366      7.0000     79.0037     77.9083     74.5879     76.4872     82.5615     82.1787   1002.3297    106.3617      3.4892
    164.7000    178.0070     10.0000      0.4205    542.2441    268.0472    489.5512    615.2598    358.0787     15.5591     20.4119      1.2366      7.0000     79.0037     77.6511     76.2016     76.3590     82.5615     79.6697   1013.4241    106.3617      3.4856
    164.8000    177.4147     10.0000      0.4206    179.0000    362.0000    244.0000    453.0000    234.0000     31.0000     19.3565      1.2366      7.0000     81.3033     77.9083     76.0102     77.2564     83.9691     82.4296   1007.2390    106.3617      3.4810
    164.9000    176.9622     10.0000      0.4205    342.0000    377.0000    400.0000    222.0000    275.0000      6.0000     18.7384      1.2366      7.0000     80.2812     77.9083     76.7860     77.2564     84.6090     82.1787   1006.4208    106.3617      3.4763
    165.0000    176.3691     10.0000      0.4205    392.0000    171.0000    267.0000    439.0000    241.0000     11.0000     18.7459      1.2366      7.0000     81.0478     78.4129     77.1739     77.3846     84.6090     81.9278   1004.7843    106.3617      3.4710
    165.1000    175.4612     10.0000      0.4179    417.0000    207.0000    207.0000    408.0000    369.0000      7.0000     19.3823      1.2366      7.0000     81.1755     78.9174     77.5619     77.2564     84.9929     81.8023   1008.0573    100.0215      3.4641
    165.2000    173.6807     10.0000      0.4179    443.0000    243.0000    306.0000    273.0000    259.0000     11.0000     20.5980      1.2366      7.0000     80.9200     78.4129     77.9498     77.2564     86.5285     81.9278   1003.9661    100.0215      3.4577
    165.3000    173.0880     10.0000      0.4179    267.0000    184.0000    352.0000    374.0000    263.0000      7.0000     22.1215      1.2366      7.0000     79.5147     78.7913     77.6911     78.5384     84.9929     83.3078   1012.9667    100.0215      3.4560
    165.4000    172.9505     10.0000      0.4179    226.0000    361.0000    278.0000    428.0000    233.0000      5.0000     23.4074      1.2366      7.0000     82.1976     78.7913     77.5619     78.1538     84.9929     85.5659   1012.9667    100.0215      3.4607
    165.5000    172.3152     10.0000      0.4179    275.5591    207.2756    360.1811    305.0787    295.2362      4.0394     24.0565      1.2366      7.0000     82.1976     78.7913     77.6911     77.2564     84.6090     85.8168   1019.5447    100.0215      3.4704
    165.6000    171.7231     10.0000      0.4205    294.0000    196.0000    394.0000    479.0000    295.0000      6.0000     23.8454      1.2366      7.0000     82.5809     78.4129     77.1739     78.5384     84.6090     84.8132   1008.0573     93.6813      3.4790
    165.7000    171.2680     10.0000      0.4205    326.0000    267.0000    462.0000    407.0000    123.0000      9.0000     23.0046      1.2366      7.0000     82.5809     78.0345     77.1739     76.8718     84.6090     84.0605   1004.7843     93.6813      3.4812
    165.8000    171.1318     10.0000      0.4205    184.2756     93.6378    108.5433    124.7323     99.2756      1.4094     21.8772      1.1931      6.0000     82.5809     78.4129     76.7860     76.8718     84.6090     84.5623   1012.6317     93.6813      3.4776
    165.9000    170.8129     10.0000      0.4205    277.0000    134.0000    212.0000    231.0000    165.0000      4.0000     20.8321      1.2366      6.0000     82.5809     78.4129     77.1739     76.8718     84.7370     84.0605   1008.8755     93.6813      3.4720
    166.0000    170.6294     10.0000      0.4205    220.0000    124.0000    155.0000    324.0000    226.0000      3.0000     20.0888      1.2366      6.0000     82.5809     78.7913     77.1739     77.0000     84.6090     84.1859   1010.5120     93.6813      3.4664
    166.1000    170.3580     10.0000      0.4205    227.0000    226.0000    172.0000    295.0000    387.0000      2.0000     19.6053      1.2366      6.0000     82.7086     79.2958     77.6911     77.7692     84.6090     84.9386   1004.7843     93.6813      3.4612
    166.2000    169.3979     10.0000      0.4205    232.0000    119.0000    160.0000    234.0000    328.0000     77.0000     19.2763      1.2366      6.0000     82.7086     79.2958     77.3032     76.8718     84.6090     84.0605   1008.0573     93.6813      3.4573
    166.3000    168.1665     10.0000      0.4205    364.4173    366.0079    419.2992    542.4016    779.0079    301.2520     19.0604      1.1898      7.0000     82.5809     78.9174     77.5048     76.4306     84.6090     83.6841   1012.6058     93.6813      3.4575
    166.4000    167.0690     10.0000      0.4205    399.0000    345.0000    213.0000    820.0000    289.0000     41.0000     18.9269      1.2366      7.0000     82.9641     79.2958     77.8205     77.2564     84.7370     83.9350   1012.1484     93.6813      3.4648
