~VERSION INFORMATION 
VERS.          2.0   :CWLS LOG ASCII STANDARD - VERSION 2.0
WRAP.          NO    :ONE LINE PER DEPTH STEP
PROD.  Schlumberger   :LAS Producer
PROG.  DLIS to ASCII 19C2-270                          :LAS Program name and version
CREA.        2014/02/23 09:08                          :LAS Creation date {YYYY/MM/DD hh:mm}
DLIS_CREA.  2014-Feb-23 08:51                          :DLIS Creation date and time {YYYY-MMM-DD hh:mm}
SOURCE.     1AA063409108W400_FMI_SONIC_REPEAT.dlis     :DLIS File Name
FILE-ID.     ConPr_R2L2Up_S008_FBST_DSLT_HGNS          :File Identification Number
#--------------------------------------------------
~WELL INFORMATION 
#MNEM.UNIT      DATA             DESCRIPTION
#---- ------ --------------   -----------------------------
STRT.M      88.69680        :START DEPTH
STOP.M      258.01320       :STOP DEPTH
STEP.M       0.15240        :STEP
NULL .          -999.25      :NULL VALUE
COMP.        SUNCOR ENERGY INC.                       :COMPANY
WELL.        SUNCOR LEWIS 6-34-91-8                   :WELL
FLD  .        LEWIS                                    :FIELD
LOC.        6-34-91-8W4                              :LOCATION
PROV .        ALBERTA                                  :PROVINCE
UWI.        1AA063409108W400                         :UNIQUE WELL ID
LIC  .        0464072                                  :LICENSE NUMBER
CTRY .        CA                                       :COUNTRY (WWW code)
DATE.        23-Feb-2014                              :LOG DATE {DD-MMM-YYYY}
SRVC .        Schlumberger                             :SERVICE COMPANY
LATI .DEG     56.934500 degrees                        :LATITUDE
LONG .DEG     -111.20540 degrees                       :LONGITUDE
GDAT .                                                 :GeoDetic Datum
SECT .        06-34                                    :Section
RANG .        08W4                                     :Range
TOWN .        091                                      :Township
#-----------------------------------------------------------------------------
~CURVE INFORMATION 
#MNEM.UNIT   API CODE                                  DESCRIPTION
#---- -----  --------                                  -----------------------
 DEPT.M         00 001 00 00             :Depth Index - Measured Depth
   BS.MM        61 280 07 00             :BIT SIZE {F14.5}
   C1.MM        42 280 06 00             :CALIPER 1 {F14.5}
   C2.MM        42 280 05 00             :CALIPER 2 {F14.5}
DEPTH.M         00 001 00 00             :DEPTH INDEX {F14.5}
DEVIM.DEG       00 630 00 00             :MEMORIZED DEVIATION {F14.5}
   DT.US/M      60 520 32 00             :DELTA-T (ALSO CALLED SLOWNESS OR INTERVAL TRANSIT TIME) {F14.5}
   EI.MA        00 000 00 00             :EMEX CURRENT {F14.5}
   EV.V         00 000 00 00             :EMEX VOLTAGE {F14.5}
 FBCR.OHMS      00 000 00 00             :CORRELATION RESISTANCE {F14.5}
   GR.GAPI      42 310 01 00             :GAMMA RAY {F14.5}
 HAZI.DEG       00 620 00 00             :HOLE AZIMUTH RELATIVE TO TRUE NORTH {F14.5}
HAZIM.DEG       00 620 00 00             :HOLE AZIMUTH RELATIVE TO TRUE NORTH {F14.5}
 P1AZ.DEG       00 630 00 00             :PAD 1 AZIMUTH IN HORIZONTAL PLANE (0 = TRUE NORTH) {F14.5}
P1NO_FBST.DEG   00 000 00 00             :PAD 1 AZIMUTH IN PLANE ORTHOGONAL TO TOOL AXIS (0 = TRUE NORTH), MEMORIZED TO FBST {F14.5}
   RB.DEG       00 631 00 00             :RELATIVE BEARING {F14.5}
 SDEV.DEG       00 000 00 00             :SONDE DEVIATION {F14.5}
 TENS.N         61 280 10 00             :CABLE TENSION {F14.5}
  TT1.US        60 520 32 01             :TRANSIT TIME 1 {F14.5}
  TT2.US        60 520 32 02             :TRANSIT TIME 2 {F14.5}
  TT3.US        60 520 32 03             :TRANSIT TIME 3 {F14.5}
  TT4.US        60 520 32 04             :TRANSIT TIME 4 {F14.5}
~PARAMETER INFORMATION 
#MNEM.UNIT    VALUE                      DESCRIPTION
#---- -----   --------------------       ------------------------
 CSGD.M       72.80000                   :Casing Bottom of Driller
 CSGL.M       73.20000                   :Logger Casing Shoe Depth
 CSGS.MM      177.80000                  :Current Casing Size
 CSGW.KG/M    25.30000                   :Casing Weight
 MUDD.K/M3    1090.00000                 :Drilling Fluid Density
  DFL.C3      6.00000                    :Drilling Fluid Loss
   PH.        10.00000                   :Drilling Fluid pH
  MUD.        Polymer                    :Drilling Fluid Type
 MUDV.S       108.00000                  :Drilling Fluid Viscosity
   GL.M       445.00000                  :Elevation of Ground Level
 EREF.M       449.00000                  :Elevation of Kelly Bushing
  ENG.        NICK POLLEY                :Engineer s Name
 DREF.        KB                         :Logging Measured From (Name of Logging Elevation Reference)
 BASE.        WINTER PROJECT             :LOGGING UNIT LOCATION
 FACT.        CP4P-00020                 :Service Order Number
  LIC.        0464072                    :API Well Number
 PROV.        ALBERTA                    :County or Parish
 UNIT.        3125                       :Logging Unit Number
 RMCT.DEGC    8.73000                    :Mudcake Sample Temperature
 RMFT.DEGC    8.73000                    :Mud Filtrate Sample Temperature
 TMAX.DEGC    12.28000                   :Maximum Recorded Temperature
 MUDS.        Flowline                   :Mud Sample Source
  RMT.DEGC    8.73000                    :Mud Sample Temperature
RANGE.        08W4                       :Range
  RMC.OHMM    1.18000                    :Resistivity of Mud Cake Sample
  RMF.OHMM    0.59200                    :Resistivity of Mud Filtrate Sample
   RM.OHMM    0.78900                    :Resistivity of Mud Sample
SECTION.      06-34                      :Section
 TIMC.        01 55 00                   :Time Circulation Stopped
 TIML.        07 55 00                   :Time Logger At Bottom
TOWNSHIP.     091                        :Township
  WIT.        JONATHAN FELL              :Witness s Name
  APD.M       4.00000                    :Elevation of Depth Reference (LMF) Above Permanent Datum
 APIN.        0464072                    :API Well Number
  BHT.DEGC    12.28000                   :Bottom Hole Temperature
  BLI.M       256.00000                  :Bottom Log Interval
   BS.MM      156.00000                  :Bit Size
   CN.        SUNCOR ENERGY INC.         :Company Name
 COUN.        ALBERTA                    :County or Parish
 LDAT.        23-Feb-2014                :Tools Above Rotary Table Date
  DCS.        23-Feb-2014                :Date Circulation Stopped
  DFL.C3      6.00000                    :Drilling Fluid Loss
 DLAB.        23-Feb-2014                :Date Logger At Bottom
  DMF.        KB                         :Drilling Measured From (Name of Drilling Elevation Reference)
  EDF.M       448.70001                  :Elevation of Drill Floor
  EGL.M       445.00000                  :Elevation of Ground Level
  EKB.M       449.00000                  :Elevation of Kelly Bushing
   FD.K/M3    1000.00000                 :Fluid Density
   FL.        6-34-91-8W4               :FIELD LOCATION
  FL1.        1AA063409108W400           :Field Location, Line 1
  FL2.                                   :Field Location, Line 2
   FN.        LEWIS                      :Field Name
 HID1.                                   :Header Identifier 1
 HID2.                                   :Header Identifier 2
 HIDE.        LEWIS                      :Header Identifier
 LATI.        56.934500 degrees          :Latitude
  LMF.        KB                         :Logging Measured From (Name of Logging Elevation Reference)
 LONG.        -111.20540 degrees         :Longitude
 MATR.        SAND                       :Rock Matrix for Neutron Porosity Corrections
 MCSS.        Calculated                 :Mudcake Sample Source
 MDEC.DEG     14.38033                   :Magnetic Field Declination
 MDEN.K/M3    2650.00000                 :Matrix Density for Density Porosity
 MRT1.DEGC    12.28000                   :Maximum Recorded Temperature 1
 MRT2.DEGC    -999.25000                 :Maximum Recorded Temperature 2
  NMT.        NOBARITE                   :HRDD Mud Type for Nuclear Devices
  OS1.                                   :Other Services Line 1
  OS2.                                   :Other Services Line 2
  OS3.                                   :Other Services Line 3
  OS4.                                   :Other Services Line 4
  OS5.                                   :Other Services Line 5
 PDAT.        GL                         :Permanent Datum
   R1.        THANK YOU FOR CHOOSING SCHLUMBERGER  :Remarks Line 1
   R2.        ALL TOOLS RAN AS PER TOOL SKETCH AND ALL PRESENTATIONS AS PER CLIENT REQUEST  :Remarks Line 2
   R3.        INDUCTION LOG – DESCENT #1 :Remarks Line 3
   R4.        NEUTRON / DENSITY LOG – DESCENT #1  :Remarks Line 4
  RMB.OHMM    0.70618                    :Resistivity of Mud at Bottom Hole Temperature
 RMFB.OHMM    0.52986                    :Resistivity of Mud Filtrate At Bottom Hole Temperature
  RUN.        ONE/2                      :Run Number
  SON.        CP4P-00020                 :SERVICE ORDER NUMBER
  TDD.M       256.00000                  :Driller Total Depth
  TDL.M       256.00000                  :Logger Total Depth
  TLI.M       75.00000                   :Top Log Interval
 UWID.        1AA063409108W400           :Unique Well Identifier
   WN.        SUNCOR LEWIS 6-34-91-8     :Well Name
  EPD.C3      445.000000                 :Elevation of Permanent Datum above Mean Sea Level
#-----------------------------------------------------------------------------
#
#      DEPT          BS            C1            C2            DEPTH         DEVIM         DT            EI            EV            FBCR          GR            HAZI          HAZIM         P1AZ        P1NO_FBST       RB            SDEV          TENS          TT1           TT2           TT3           TT4
#
#-----------------------------------------------------------------------------

~A       DEPT           BS           C1           C2        DEPTH        DEVIM           DT           EI           EV         FBCR           GR         HAZI        HAZIM         P1AZ    P1NO_FBST           RB         SDEV         TENS          TT1          TT2          TT3          TT4
# ...
    243.23040     156.00000     155.23109     155.37610     243.22925       0.56261     388.50128    2641.41504      12.53464  363576.62500      17.31999     214.50450     210.87138     222.99910     220.63533       8.49495       0.49806    4751.88721     737.33984     494.26624     731.99866     485.50687
    243.38280     156.00000     155.23109     155.37610     243.38216       0.56557     391.51776    2605.62769      12.57363  990000.75000      17.31999     214.64262     210.67033     222.26817     218.88557       7.62512       0.49953    4652.83984     738.83801     501.59012     732.44061     492.32635
    243.53520     156.00000     155.23109     155.37610     243.53456       0.56854     395.89825    2638.00659      11.98881 1144689.87500      17.31999     214.77742     210.45988     221.58871     217.40825       6.80926       0.50035    4710.37012     743.19305     506.61380     737.00732     499.54352
    243.68760     156.00000     154.61525     155.37610     243.68600       0.57093     400.58487    2738.55176      11.40399  930419.62500      17.31999     214.88570     210.21539     220.63658     215.61484       5.75239       0.50090    4624.76074     764.53497     508.48889     756.46149     502.04001
    243.84000     156.00000     154.92319     155.37610     243.83983       0.57316     404.20682    2805.01367      10.83866  144043.87500      17.31999     214.95641     209.92769     218.88675     214.73140       3.93021       0.50088    4720.11914     779.80780     513.36469     774.62366     505.33295
    243.99240     156.00000     155.40126     155.37610     243.99345       0.57616     406.03323    2908.96704      10.09789  129131.96094      17.31999     214.94945     209.62181     216.45154     213.30235       1.50310       0.50038    4744.17676     788.14093     527.90674     784.63135     519.93311
    244.14480     156.00000     155.23109     155.37610     244.14558       0.57918     423.44861    2978.83643       9.49358  132203.21875      17.31999     214.98639     209.29271     215.00819     211.04787       0.02228       0.50192    4721.50928     794.79901     538.39392     792.90381     532.79089
    244.29720     156.00000     153.99940     152.80231     244.29723       0.58308     438.87881    3050.41113       9.04522   48397.32813      17.31999     215.07170     208.97513     214.34639     210.16130     359.27390       0.50228    4654.61914     793.95074     546.57690     792.65808     542.57855
    244.44960     156.00000     153.38354     152.80231     244.44864       0.58793     454.31842    3120.28149       8.83078   94349.56250      17.31999     215.04533     208.64178     212.03296     208.28493     356.98795       0.50452    4641.99707     784.91730     551.02637     777.95953     549.05786
    244.60200     156.00000     153.38354     152.80231     244.60373       0.59526     454.92548    3123.68945       8.73331   45496.51563      17.31999     215.02177     208.19437     210.56752     206.41589     355.54584       0.50618    4749.58887     778.27954     550.62317     767.65082     548.28485
    244.75440     156.00000     153.99940     152.80231     244.75443       0.60110     433.36945    3121.98560       8.73331  139619.79688      17.31999     214.89587     207.96313     209.44864     205.64081     354.55215       0.50843    4951.46387     768.29749     548.88824     757.65259     535.55853
    244.90680     156.00000     153.99940     152.80231     244.90489       0.60667     410.96909    3118.57715       8.98673   87371.57813      17.31999     214.72400     207.77129     207.05081     204.70981     352.32846       0.51115    4922.79150     755.34656     532.16772     743.87885     515.86841
    245.05920     156.00000     154.47899     155.37610     245.05983       0.61255     388.17477    3077.67773       9.29864  163328.81250      17.31999     214.43915     207.59853     206.19862     204.14801     351.76059       0.51426    4938.91602     745.66406     499.53781     725.67609     495.68274
    245.21160     156.00000     155.23109     155.37610     245.21062       0.61796     367.45865    3014.62378       9.88346  218143.06250      17.31999     214.09326     207.49379     205.64156     203.49637     351.54758       0.51714    4970.14648     724.49066     471.24493     703.86554     471.03543
    245.36400     156.00000     155.40126     155.37610     245.36240       0.62335     345.39371    2951.57080      10.19536  185778.85938      17.31999     213.72974     207.43973     204.71056     202.62607     350.98160       0.52079    5009.80957     689.16425     458.86731     683.80090     453.18570
    245.51640     156.00000     154.61525     155.37610     245.51305       0.62860     328.07739    2888.51685      10.74119  319203.96875      17.31999     213.29321     207.41362     204.14873     201.99170     350.85590       0.52394    5095.58643     662.74756     441.05640     668.02069     437.23361
    245.66880     156.00000     154.61525     155.37610     245.66609       0.63350     319.56915    2852.72949      11.11158  290766.90625      17.31999     212.94054     207.44757     203.49709     200.80420     350.55560       0.52732    4996.18701     652.20111     432.10504     652.29114     430.75705
    245.82120     156.00000     155.23109     155.37610     245.82246       0.63853     314.06717    2815.23877      11.20905  312596.59375      17.31999     212.54727     207.58134     202.62677     199.78716     350.07901       0.53058    5214.98389     635.36792     427.70822     637.28906     425.89093
    245.97360     156.00000     155.23109     155.37610     245.97296       0.64387     316.29321    2811.83008      11.28703  379190.15625      17.31999     212.20663     207.78108     201.42578     198.97258     349.21918       0.53541    5198.48828     624.38391     422.98810     623.92535     425.04510
    246.12600     156.00000     155.23109     155.37610     246.12408       0.64944     317.51532    2842.50464      11.30652  331129.21875      17.31999     211.91736     208.07756     200.22234     198.22200     348.30603       0.53961    5187.46045     620.91125     422.72632     619.41370     422.33618
    246.27840     156.00000     155.40126     155.37610     246.28046       0.65604     317.38962    2743.66431      11.26753  334340.81250      17.31999     211.69649     208.64798     199.38445     197.51190     347.68875       0.54336    5111.56250     618.33392     422.56705     622.20282     421.51151
    246.43080     156.00000     154.61525     155.37610     246.43202       0.66256     315.32816    2849.32153      11.38450  257162.71875      17.31999     211.46356     209.11569     198.63332     196.64203     347.16983       0.54785    5096.77246     618.50104     422.70908     622.39862     422.33286
    246.58320     156.00000     154.47899     155.37610     246.58240       0.66958     316.26733    2711.28540      11.38450  347953.75000      17.31999     211.28940     209.53661     197.85287     195.82948     346.56329       0.55228    5286.43359     618.36108     422.73596     623.44324     430.13788
    246.73560     156.00000     153.38354     155.37610     246.73845       0.67701     316.44495    2811.83008      11.26753  353095.06250      17.31999     211.11856     209.88123     197.09703     194.59814     345.97879       0.55675    5243.34131     618.39752     422.73990     626.71320     429.13593
    246.88800     156.00000     153.38354     155.05437     246.88956       0.68457     316.71216    2741.95972      11.13107  302686.75000      17.31999     210.96066     210.14159     196.21014     193.79088     345.24960       0.56082    5143.92383     618.46222     422.67474     627.55200     430.34473
    247.04040     156.00000     153.38354     152.80231     247.03960       0.69247     316.66910    2847.61743      11.20905  242944.78125      17.31999     210.76219     210.22701     195.44992     193.26169     344.68835       0.56443    5063.46631     618.45013     422.72095     628.06836     433.10815
