~Version Information
 VERS.                2.00:   CWLS log ASCII Standard -VERSION 2.00
 WRAP.                  NO:   One line per frame      
~Well Information Block
#MNEM.UNIT                   Data                        Description
#----.----   -----------------------------------------   -------------------------------
 STRT.M                                       27.0000 : Starting Depth
 STOP.M                                      188.0000 : Ending Depth
 STEP.M                                        0.1000 : Level Spacing
 NULL.                                      -999.2500 : Absent Value
 COMP.       SUNCOR ENERGY INC                        : Company
 WELL.       SUNCOR LEWIS 7-22-92-8                   : Well
 FLD .       UNDEFINED                                : Field
 LOC .       LSD 07-22-092-08W4                       : Location
 PROV.       ALBERTA                                  : Province
 CTRY.       CA                                       : Country
 SRVC.       Baker Hughes                             : Service Company
 DATE.       16-JAN-2016                              : Log Date
 UWI .       1AA072209208W400                         : Unique Well ID
 LIC .       0477502                                  : License Number
~Curve Information Block
#MNEM    .UNIT        API Codes     Curve Description
#--------.--------   LG--CV-CL--M   -------------------------------
 DEPT    .M           0   1  0  1 : Depth
 AZSTQH  .deg        99 995 99  1 : Azimuth of reference pad for STAR
 BKRGQH  .dim        99 995 99  1 : Bucker driver value
 DEVSTQH .deg        99 995 99  1 : Deviation for STAR
 DIP1QH  .raw        75 610  1  1 : Pad 1 average data of buttons 11, 12, 13, 14
 DIP2QH  .raw        75 610  1  1 : Pad 2 average data of buttons 11, 12, 13, 14
 DIP3QH  .raw        75 610  1  1 : Pad 3 average data of buttons 11, 12, 13, 14
 DIP4QH  .raw        75 610  1  1 : Pad 4 average data of buttons 11, 12, 13, 14
 DIP5QH  .raw        75 610  1  1 : Pad 5 average data of buttons 11, 12, 13, 14
 DIP6QH  .raw        75 610  1  1 : Pad 6 average data of buttons 11, 12, 13, 14
 GR      .gAPI       30 310  1  1 : Gamma ray
 PADFQH  .pct        94 995 99  1 : Pad force
 PADGQH  .dim        99 995 99  1 : Pad gain code
 RAD1QH  .mm         75 280 99  1 : Radius, tool axis to pad 1 face
 RAD2QH  .mm         75 280 99  1 : Radius, tool axis to pad 2 face
 RAD3QH  .mm         75 280 99  1 : Radius, tool axis to pad 3 face
 RAD4QH  .mm         75 280 99  1 : Radius, tool axis to pad 4 face
 RAD5QH  .mm         75 280 99  1 : Radius, tool axis to pad 5 face
 RAD6QH  .mm         75 280 99  1 : Radius, tool axis to pad 6 face
 RAZGSTQH.mG         99 995 99  1 : Raw Z-axis accelerometer shifted to STAR
 RBSTQH  .deg        99 995 99  1 : Relative bearing (relative to borehole high side) for STAR
 SPD     .m/min      99 636 99  1 : Speed
~Parameter Information Block
#MNEM.UNIT                     Value                    Description
#----.----   ----------------------------------------   -------------------------------
 HID1.       RESISTIVITY IMAGING LOG^T                : Header Identifer
 HID2.       GAMMA RAY LOG                            : Header Identifer
 FILE.       3953                                     : File Number
 CMT1.       UID                                      : Comment 1  
 CMT2.       1AA072209208W400                         : Comment 2  
 CMT3.       LICENSE                                  : Comment 3  
 CMT4.       0477502                                  : Comment 4  
 FL2 .       BH LOC. LSD  07                          : Field Location 2
 SECT.       22                                       : Section
 TOWN.       092                                      : Township
 RANG.       08W4                                     : Range
 OS1 .       ZDL-CN-GR-CAL                            : Other Services Line 1
 OS2 .       HDIL-GR-CAL, CVL                         : Other Services Line 2
 OS3 .       DAL-GR-CAL                               : Other Services Line 3
 OS4 .       COMPOSITE                                : Other Services Line 4
 PDAT.       G.L.                                     : Permanent Datum
 EPD .M      438.50                                   : Elevation Of Perm. Datum
 LMF .       K.B.                                     : Log Measured From
 APD .M      2.20                                     : Above Permanent Datum
 DMF .       KELLY BUSHING                            : Drilling Measured From
 EKB .M      440.70                                   : Elevation Of Kelly Bushing
 EGL .M      438.50                                   : Elevation Of Ground Level
 RUN .       1                                        : Run Number
 TRIP.       1                                        : Trip Number
 SON .       CA003953J                                : Service Order Number
 TDD .M      187.0                                    : Total Depth - Driller
 TDL .M      186.3                                    : Total Depth - Logger
 BLI .M      183.0                                    : Bottom Log Interval
 TLI .M      55.0                                     : Top Log Interval
 CSIZ.MM     177.8                                    : Casing Size
 CBDR.M      49.4                                     : Casing Bottom - Driller
 CBLO.M      49.4                                     : Casing Bottom - Logger
 BS  .MM     156.0                                    : Bit Size
 DFT .       WB (WATER BASE MUD)                      : Drilling Fluid Type
 DFD .G/L    1030.0                                   : Drilling Fluid Density
 DFV .S      79.0                                     : Drilling Fluid Viscosity
 DFPH.       7.0                                      : Drilling Fluid Ph
 DFL .ML     8.0                                      : Drilling Fluid Loss
 MSS .       F (FLOWLINE)                             : Mud Sample Source
 RMS .OHMM   1.2                                      : Resistivity Of Mud Sample
 MST .DEGC   25.0                                     : Mud Sample Temperature
 RMFS.OHMM   1.0                                      : Resistivity Of Mud Filtrate Sample
 MFST.DEGC   25.0                                     : Mud Filtrate Sample Temperature
 RMCS.OHMM   1.4                                      : Resistivity Of Mud Cake Sample
 MCST.DEGC   25.0                                     : Mud Cake Sample Temperature
 MFSS.       CALCULATED                               : Mud Filtrate Sample Source
 MCSS.       CALCULATED                               : Mud Cake Sample Source
 RMB .OHMM   2.0                                      : Mud Resistivity At Bht
 BHT .DEGC   7.0                                      : Bottom Hole Temperature
 TSC .       5.0 HOURS                                : Time Since Circulation
 MRT .DEGC   7.0                                      : Maximum Recorded Temperature
 LUN .       Z004250                                  : Logging Unit Number
 LUL .       LEDUC OH                                 : Logging Unit Location
 ENGI.       A.MALIK                                  : Engineer's Name
 WITN.       H.WILSON / P.ENE                         : Witness' Name
 TSTR.       /STAR/GR/                                : Title Service Mnemonic
 TSTG.       NA                                       : Title Service Mnemonic
 STUS.       FINAL                                    : Status
 LCNM.       BAKER ATLAS                              : Logging Company Name
 LCC .       150                                      : Logging Company Code
 OPMD.       OH.WIRE                                  : Operation Mode
 PANA.       A.MALIK                                  : Processing Analyst
 PCON.       BAKER ATLAS                              : Processing Contractor
 APIN.                                                : API Serial Number
 STAT.                                                : State Or Province
~Other information
LAT/LON  57.0175, -111.419                                                      
TIME STOPPED CIRCULATION  16-JAN-2016 0830AM                                    
STAR RUN WITH 0% PAD FORCE AND AUTOMATICALLY CONTROLLED GAINS                   
ANY STICK AND PULL AFFECTS LOG QUALITY                                          
RIG  ENCORE 402                                                                 
CREW  F.AJAGU, A.MALIK                                                          
#  Curve Data
~A  DEPT        AZSTQH      BKRGQH      DEVSTQH     DIP1QH      DIP2QH      DIP3QH      DIP4QH      DIP5QH      DIP6QH      GR          PADFQH      PADGQH      RAD1QH      RAD2QH      RAD3QH      RAD4QH      RAD5QH      RAD6QH      RAZGSTQH    RBSTQH      SPD       
# ...
    126.2000    174.7788     10.0000      0.2501    120.0000     59.0000     93.0000     60.0000     88.0000      0.0000     28.3370      1.2366      4.0000     77.5983     75.0072     75.1051     75.9743     81.9216     80.9242   1007.2390     78.2201      3.4302
    126.3000    174.4669     10.0000      0.2501    355.5984    139.3150    540.5512     67.6378    658.2283    461.8110     28.4741      1.2366      4.0000     77.3428     74.9556     75.8280     75.4615     81.9216     81.0496    992.5496     78.2201      3.4233
    126.4000    174.7788     10.0000      0.2501    515.0000    740.0000    417.0000    540.0000    650.0000    582.0000     27.0993      1.1304      7.0000     77.0873     74.6288     74.9758     75.4615     82.0496     80.9242   1009.6937     78.2201      3.4157
    126.5000    175.8130     10.0000      0.2501    261.0000    527.0000    183.0000    414.0000    342.0000     16.0000     24.8642      1.2366      7.0000     78.1094     74.6288     75.3637     75.5897     81.9216     81.0496   1005.6026     78.2201      3.4091
    126.6000    176.5368     10.0000      0.2501    344.2835    341.5197    225.6772    214.4409    318.6772      6.4803     22.8151      1.2366      7.0000     79.1314     74.8811     76.0102     75.8461     81.9882     80.9844   1005.6026     78.2201      3.4051
    126.7000    178.4329     10.0000      0.2368    188.0000    104.0000    149.0000    115.0000    199.0000      2.0000     21.5574      1.2366      6.0000     79.0037     75.0072     75.8809     75.4615     82.0496     80.6733   1008.0573     88.7116      3.4040
    126.8000    179.6024     10.0000      0.2368    175.0000     96.0000    212.0000    146.0000    185.0000      6.0000     21.1220      1.2366      6.0000     79.1314     74.8811     76.2688     75.0769     82.0496     80.9242   1004.7843     88.7116      3.4059
    126.9000    180.1618     10.0000      0.2368    110.0000     88.0000    152.0000    261.0000    157.0000      2.0000     21.2315      1.2366      6.0000     79.5147     74.6288     77.1739     76.2308     82.0496     81.0496   1013.7849     88.7116      3.4099
    127.0000    180.4658     10.0000      0.2368    207.0000    115.0000    218.0000    197.0000    339.0000      8.0000     21.4660      1.2366      6.0000     81.1755     77.9083     77.4325     79.5641     83.4573     82.9314   1005.6026     88.7116      3.4136
    127.1000    182.0519     10.0000      0.2368    704.0000    205.0000    525.0000    219.0000    134.0000     19.0000     21.6535      1.2366      6.0000     78.7481     77.4038     76.2688     79.5641     82.9454     82.5550   1011.3301     88.7116      3.4161
    127.2000    182.1924     10.0000      0.2368    213.0000    682.0000    279.0000    243.0000    354.0000     32.0000     21.8061      1.2366      7.0000     77.9816     74.5027     76.2688     76.8718     82.5615     79.6697   1011.3301     88.7116      3.4162
    127.3000    183.6186     10.0000      0.2368    170.0000    261.0000    277.0000    255.0000    223.0000      4.0000     22.0852      1.2366      7.0000     77.8538     74.5027     76.2688     76.4872     82.0496     79.6697   1003.1479     88.7116      3.4147
    127.4000    182.3330     10.0000      0.2368    240.1102    191.2362    233.7244    205.1575    171.3622      5.0000     22.6196      1.2366      7.0000     76.8318     74.5027     76.2688     75.4615     81.9882     79.2933   1000.6609     88.7116      3.4133
    127.5000    181.7711     10.0000      0.2368    235.0000    233.0000    247.0000    201.0000    180.0000      5.0000     23.3660      1.2366      7.0000     77.0873     75.0072     76.2688     76.8718     82.4335     80.4224   1011.3301     88.7116      3.4147
    127.6000    182.3330     10.0000      0.2368    594.0000    180.0000    162.0000    191.0000    211.0000      4.0000     24.2019      1.2366      7.0000     77.3428     75.3857     76.2688     76.8718     83.4573     81.4260   1009.6937     88.7116      3.4219
    127.7000    182.6146     10.0000      0.2368    184.8189    248.8583    224.7244    497.8976    164.6378    134.5905     25.1128      1.1739      7.0000     77.8538     75.5863     76.2688     77.2564     83.4573     81.5514   1004.5975     88.7116      3.4343
    127.8000    182.3330     10.0000      0.2368     94.0000    106.0000    108.0000     98.0000    137.0000      1.0000     26.0516      1.2366      6.0000     77.3428     75.3857     76.3981     76.7436     83.4573     81.5514   1005.6026     88.7116      3.4487
    127.9000    183.1956     10.0000      0.2368    144.0000     71.0000    479.0000     84.0000    119.0000      2.0000     26.8451      1.2366      5.0000     78.1094     75.3857     76.3981     77.3846     83.9691     81.8023   1014.6031     88.7116      3.4597
    128.0000    185.1871     10.0000      0.2368    437.0000    116.0000    510.0000    125.0000    355.0000      0.0000     27.2416      1.2366      5.0000     80.4090     75.3857     76.6567     78.1538     84.6090     83.1823   1013.7849     88.7116      3.4650
    128.1000    186.3301     10.0000      0.2786    813.0000    628.0000    638.0000    293.0000    251.0000    250.0000     26.9464      1.2366      5.0000     80.0257     75.3857     76.6567     78.5384     84.6090     83.1823   1012.1484    100.0215      3.4661
    128.2000    186.7551     10.0000      0.2322    442.6535    510.6378    675.5984    702.2677    547.3543     19.6457     25.9332      1.2366      7.0000     79.6424     75.2744     75.4930     78.5384     84.6090     82.6805   1010.5120    100.0215      3.4642
    128.3000    187.3222     10.0000      0.2322    303.0000    346.0000    239.0000    348.0000    314.0000      9.0000     24.6435      1.2366      7.0000     80.0257     74.5027     75.3637     78.1538     83.4573     81.6769   1012.1484    100.0215      3.4588
    128.4000    187.1804     10.0000      0.2322    513.0000    179.0000    486.0000    278.0000    693.0000      8.0000     23.5350      1.2366      7.0000     80.2812     74.1243     75.3637     78.1538     83.4573     81.4260   1008.8755    100.0215      3.4503
    128.5000    187.4704     10.0000      0.2787    237.9606    463.7795    113.4488    813.2834    211.2047     52.3701     22.9852      1.2366      7.0000     80.1535     75.8902     75.3637     78.5384     84.6090     82.4296   1002.6969    100.0215      3.4402
    128.6000    187.3289     10.0000      0.2786    133.0000     70.0000    145.0000     97.0000    154.0000      2.0000     22.9524      1.2366      6.0000     80.4090     75.8902     74.9758     78.7949     84.6090     82.6805   1007.2390    100.0215      3.4310
    128.7000    187.8951     10.0000      0.2786    301.0000    141.0000    141.0000    190.0000    796.0000      3.0000     23.1925      1.2366      6.0000     79.5147     75.8902     74.5879     78.7949     84.6090     82.6805   1017.0578    100.0215      3.4258
    128.8000    188.0368     10.0000      0.2787    255.0000    192.0000    154.0000    129.0000    639.0000     22.0000     23.2233      1.2366      6.0000     79.5147     75.8902     77.1739     79.1795     84.0971     82.5550   1002.3297    100.0215      3.4268
    128.9000    189.0288     10.0000      0.2786    286.0000    351.0000    336.0000    533.0000    270.0000    903.0000     22.7911      1.1304      7.0000     79.5147     75.8902     77.1739     79.0513     84.6090     82.3041   1012.1484    100.0215      3.4312
    129.0000    189.1706     10.0000      0.2786    360.4016    252.0079    248.6220    279.8347    381.3622      3.5984     21.9667      1.2366      7.0000     79.5147     75.8902     77.1739     78.9998     84.6090     82.3041   1010.0158    100.0215      3.4359
    129.1000    189.3124     10.0000      0.2786    341.0000    227.0000    441.0000    312.0000    344.0000     11.0000     21.1582      1.2366      7.0000     79.5147     75.8902     77.1739     79.5641     84.9929     82.6805   1017.8760    100.0215      3.4376
    129.2000    189.8797     10.0000      0.2786    756.0000    410.0000    389.0000    238.0000    338.0000     56.0000     20.8565      1.1304      7.0000     79.3869     75.8902     77.1739     79.1795     85.1209     82.6805   1006.4208    100.0215      3.4346
