~Version Information
 VERS.                2.00:   CWLS log ASCII Standard -VERSION 2.00
 WRAP.                  NO:   One line per frame      
~Well Information Block
#MNEM.UNIT                   Data                        Description
#----.----   -----------------------------------------   -------------------------------
 STRT.M                                       26.9748 : Starting Depth
 STOP.M                                      187.9854 : Ending Depth
 STEP.M                                        0.0762 : Level Spacing
 NULL.                                      -999.2500 : Absent Value
 COMP.       SUNCOR ENERGY INC                        : Company
 WELL.       SUNCOR LEWIS 7-22-92-8                   : Well
 FLD .       UNDEFINED                                : Field
 LOC .       LSD 07-22-092-08W4                       : Location
 PROV.       ALBERTA                                  : Province
 CTRY.       CA                                       : Country
 SRVC.       Baker Hughes                             : Service Company
 DATE.       16-JAN-2016                              : Log Date
 UWI .       1AA072209208W400                         : Unique Well ID
 LIC .       0477502                                  : License Number
 LATI.DEG    57.0175 N                                : Latitude Coordinates
 LONG.DEG    -111.419 W                               : Longitude Coordinates
~Curve Information Block
#MNEM    .UNIT        API Codes     Curve Description
#--------.--------   LG--CV-CL--M   -------------------------------
 DEPT    .M           0 001  0  1 : Depth
 AZSTQH  .deg        99 995 99  1 : Azimuth of reference pad for STAR
 BKRGQH  .dim        99 995 99  1 : Bucker driver value
 DEVSTQH .deg        99 995 99  1 : Deviation for STAR
 DIP1QH  .raw        75 610  1  1 : Pad 1 average data of buttons 11, 12, 13, 14
 DIP2QH  .raw        75 610  1  1 : Pad 2 average data of buttons 11, 12, 13, 14
 DIP3QH  .raw        75 610  1  1 : Pad 3 average data of buttons 11, 12, 13, 14
 DIP4QH  .raw        75 610  1  1 : Pad 4 average data of buttons 11, 12, 13, 14
 DIP5QH  .raw        75 610  1  1 : Pad 5 average data of buttons 11, 12, 13, 14
 DIP6QH  .raw        75 610  1  1 : Pad 6 average data of buttons 11, 12, 13, 14
 GR      .gAPI       30 310  1  1 : Gamma ray
 PADFQH  .pct        94 995 99  1 : Pad force
 PADGQH  .dim        99 995 99  1 : Pad gain code
 RAD1QH  .mm         75 280 99  1 : Radius, tool axis to pad 1 face
 RAD2QH  .mm         75 280 99  1 : Radius, tool axis to pad 2 face
 RAD3QH  .mm         75 280 99  1 : Radius, tool axis to pad 3 face
 RAD4QH  .mm         75 280 99  1 : Radius, tool axis to pad 4 face
 RAD5QH  .mm         75 280 99  1 : Radius, tool axis to pad 5 face
 RAD6QH  .mm         75 280 99  1 : Radius, tool axis to pad 6 face
 RAZGSTQH.mG         99 995 99  1 : Raw Z-axis accelerometer shifted to STAR
 RBSTQH  .deg        99 995 99  1 : Relative bearing (relative to borehole high side) for STAR
 SPD     .m/min      99 636 99  1 : Speed
~Parameter Information Block
#MNEM.UNIT                     Value                    Description
#----.----   ----------------------------------------   -------------------------------
 HID1.       RESISTIVITY IMAGING LOG^T                : Header Identifer
 HID2.       GAMMA RAY LOG                            : Header Identifer
 FILE.       3953                                     : File Number
 CMT1.       UID                                      : Comment 1  
 CMT2.       1AA072209208W400                         : Comment 2  
 CMT3.       LICENSE                                  : Comment 3  
 CMT4.       0477502                                  : Comment 4  
 FL2 .       BH LOC. LSD  07                          : Field Location 2
 SECT.       22                                       : Section
 TOWN.       092                                      : Township
 RANG.       08W4                                     : Range
 OS1 .       ZDL-CN-GR-CAL                            : Other Services Line 1
 OS2 .       HDIL-GR-CAL, CVL                         : Other Services Line 2
 OS3 .       DAL-GR-CAL                               : Other Services Line 3
 OS4 .       COMPOSITE                                : Other Services Line 4
 PDAT.       G.L.                                     : Permanent Datum
 EPD .M      438.50                                   : Elevation Of Perm. Datum
 LMF .       K.B.                                     : Log Measured From
 APD .M      2.20                                     : Above Permanent Datum
 DMF .       KELLY BUSHING                            : Drilling Measured From
 EKB .M      440.70                                   : Elevation Of Kelly Bushing
 EGL .M      438.50                                   : Elevation Of Ground Level
 RUN .       1                                        : Run Number
 TRIP.       1                                        : Trip Number
 SON .       CA003953J                                : Service Order Number
 TDD .M      187.0                                    : Total Depth - Driller
 TDL .M      186.3                                    : Total Depth - Logger
 BLI .M      183.0                                    : Bottom Log Interval
 TLI .M      55.0                                     : Top Log Interval
 CSIZ.MM     177.8                                    : Casing Size
 CBDR.M      49.4                                     : Casing Bottom - Driller
 CBLO.M      49.4                                     : Casing Bottom - Logger
 BS  .MM     156.0                                    : Bit Size
 DFT .       WB (WATER BASE MUD)                      : Drilling Fluid Type
 DFD .G/L    1030.0                                   : Drilling Fluid Density
 DFV .S      79.0                                     : Drilling Fluid Viscosity
 DFPH.       7.0                                      : Drilling Fluid Ph
 DFL .ML     8.0                                      : Drilling Fluid Loss
 MSS .       F (FLOWLINE)                             : Mud Sample Source
 RMS .OHMM   1.2                                      : Resistivity Of Mud Sample
 MST .DEGC   25.0                                     : Mud Sample Temperature
 RMFS.OHMM   1.0                                      : Resistivity Of Mud Filtrate Sample
 MFST.DEGC   25.0                                     : Mud Filtrate Sample Temperature
 RMCS.OHMM   1.4                                      : Resistivity Of Mud Cake Sample
 MCST.DEGC   25.0                                     : Mud Cake Sample Temperature
 MFSS.       CALCULATED                               : Mud Filtrate Sample Source
 MCSS.       CALCULATED                               : Mud Cake Sample Source
 RMB .OHMM   2.0                                      : Mud Resistivity At Bht
 BHT .DEGC   7.0                                      : Bottom Hole Temperature
 TSC .       5.0 HOURS                                : Time Since Circulation
 MRT .DEGC   7.0                                      : Maximum Recorded Temperature
 LUN .       Z004250                                  : Logging Unit Number
 LUL .       LEDUC OH                                 : Logging Unit Location
 ENGI.       A.MALIK                                  : Engineer's Name
 WITN.       H.WILSON / P.ENE                         : Witness' Name
 TSTR.       /STAR/GR/                                : Title Service Mnemonic
 TSTG.       NA                                       : Title Service Mnemonic
 STUS.       FINAL                                    : Status
 LCNM.       BAKER ATLAS                              : Logging Company Name
 LCC .       150                                      : Logging Company Code
 OPMD.       OH.WIRE                                  : Operation Mode
 PANA.       A.MALIK                                  : Processing Analyst
 PCON.       BAKER ATLAS                              : Processing Contractor
 APIN.                                                : API Serial Number
 STAT.                                                : State Or Province
~Other information
LAT/LON  57.0175, -111.419                                                      
TIME STOPPED CIRCULATION  16-JAN-2016 0830AM                                    
STAR RUN WITH 0% PAD FORCE AND AUTOMATICALLY CONTROLLED GAINS                   
ANY STICK AND PULL AFFECTS LOG QUALITY                                          
RIG  ENCORE 402                                                                 
CREW  F.AJAGU, A.MALIK                                                          
#  Curve Data
~A   DEPT         AZSTQH       BKRGQH       DEVSTQH      DIP1QH       DIP2QH       DIP3QH       DIP4QH       DIP5QH       DIP6QH       GR           PADFQH       PADGQH       RAD1QH       RAD2QH       RAD3QH       RAD4QH       RAD5QH       RAD6QH       RAZGSTQH     RBSTQH       SPD       
# ...
      50.4444     107.6161       0.0000       0.2322       0.0000       0.0000       0.0000       0.0000       0.0000       0.0000      67.1602     -76.3229       0.0000      67.8888      67.9437      65.6660      64.5641      70.1485      71.3899    1012.9667     280.0215       3.4972
      50.5206     119.6085       0.0000       0.2322       0.0000       0.0000       0.0000       0.0000       0.0000       0.0000      63.3424     -76.3229       0.0000      67.8888      67.9437      65.6660      64.5641      70.1485      71.3899    1012.9667     280.0215       3.4931
      50.5968     130.7668       0.0000       0.2322       0.0000       0.0000       0.0000       0.0000       0.0000       0.0000      60.1069     -76.3229       0.0000      67.8888      67.8176      65.6660      64.5641      70.1485      71.3899    1012.1484     280.0215       3.4913
      50.6730      92.3638       0.0000       0.1915       0.0000       0.0000       0.0000       0.0000       0.0000       0.0000      57.6164     -76.3229       0.0000      67.7610      67.6914      65.6660      64.5641      70.1485      71.3899    1012.1484     265.9852       3.4922
      50.7492      83.2001       0.0000       0.2368       0.0000       0.0000       0.0000       0.0000       0.0000       0.0000      55.8900     -76.3229       0.0000      67.8888      67.6914      65.6660      64.5641      70.1485      71.3899    1009.6937     268.7115       3.4953
      50.8254     100.2917       0.0000       0.1857       0.0000       0.0000       0.0000       0.0000       0.0000       0.0000      54.8508     -76.3229       0.0000      67.8888      67.6914      65.7953      64.5641      70.1485      71.3899    1008.8755     280.0215       3.4997
      50.9016     112.3167       0.0000       0.1857       0.0000       0.0000       0.0000       0.0000       0.0000       0.0000      54.4326     -76.4292       0.0000      67.8888      67.6914      65.6660      64.5641      70.1485      71.3899    1007.2390     280.0215       3.5041
      50.9778     103.9563       0.0000       0.1857       0.0000       0.0000       0.0000       0.0000       0.0000       0.0000      54.6710     -76.3229       0.0000      67.8888      67.6914      65.6660      64.5641      70.1485      71.3899    1011.3301     280.0215       3.5072
      51.0540     119.5581       0.0000       0.1915       0.0000       0.0000       0.0000       0.0000       0.0000       0.0000      55.7479     -76.3229       0.0000      67.8888      67.6914      65.6660      64.5641      70.1485      71.3899    1012.1484     294.0577       3.5085
      51.1302     143.6411       0.0000       0.1915       0.0000       0.0000       0.0000       0.0000       0.0000       0.0000      57.8651     -76.3229       0.0000      67.8888      67.6914      66.0539      64.5641      70.5324      71.3899    1012.1484     294.0577       3.5083
      51.2064     150.9276       0.0000       0.1915       0.0000       0.0000       0.0000       0.0000       0.0000       0.0000      61.1123     -75.6855       0.0000      68.5276      68.1960      66.5712      66.1025      71.5562      72.3935    1010.5120     294.0577       3.5069
      51.2826     136.8401       0.0000       0.1915       0.0000       0.0000       0.0000       0.0000       0.0000       0.0000      65.3686     -74.7293       0.0000      70.4439      68.5744      67.4763      66.2308      73.2197      72.7698    1028.5129     294.0577       3.5046
      51.3588     147.2241       0.0000       0.1914       0.0000       0.0000       0.0000       0.0000       0.0000       0.0000      70.2375     -73.7730       0.0000      70.9549      68.9528      67.4763      66.2308      74.1155      73.8989    1012.9667     294.0577       3.5019
      51.4350     157.4533       0.0000       0.1915       0.0000       0.0000       0.0000       0.0000       0.0000       0.0000      75.1166     -72.6043       0.0000      72.7435      69.2051      67.9935      66.6154      75.0113      73.8989    1017.0578     294.0577       3.4992
      51.5112     146.5578       0.0000       0.1915       0.0000       0.0000       0.0000       0.0000       0.0000       0.0000      79.3792     -71.5419       0.0000      72.7435      69.4573      68.7693      67.0000      75.5232      73.8989    1008.0573     294.0577       3.4965
      51.5874     135.9691       0.0000       0.1915       0.0000       0.0000       0.0000       0.0000       0.0000       0.0000      82.5813     -70.3732       0.0000      72.7435      69.7096      68.8986      67.6410      75.7791      74.5262    1010.5120     294.0577       3.4936
      51.6636     154.6381       0.0000       0.1915       0.0000       0.0000       0.0000       0.0000       0.0000       0.0000      84.5851     -69.0982       0.0000      72.7435      70.2141      70.4502      68.0256      76.0351      75.0280    1008.8755     294.0577       3.4909
      51.7398     162.1412       0.0000       0.1915       0.0000       0.0000       0.0000       0.0000       0.0000       0.0000      85.5922     -67.9295       0.0000      72.9991      70.8448      70.8381      68.9231      76.4190      75.4043    1009.6937     294.0577       3.4887
      51.8160     141.8765       0.0000       0.1915       0.0000       0.0000       0.0000       0.0000       0.0000       0.0000      85.9804     -66.6546       0.0000      73.3823      71.4755      70.8381      69.1795      76.8029      76.5334    1013.7849     294.0577       3.4875
      51.8922     149.9460       0.0000       0.1857       0.0000       0.0000       0.0000       0.0000       0.0000       0.0000      86.1564     -65.3796       0.0000      74.1489      73.6198      72.3898      71.1026      77.3148      76.5334    1009.6937     280.0215       3.4879
      51.9684     158.3044       0.0000       0.1858       0.0000       0.0000       0.0000       0.0000       0.0000       0.0000      86.4006     -63.8922       0.0000      76.7040      73.7459      72.7777      72.3846      79.3623      79.1679    1009.6937     280.0215       3.4896
      52.0446     144.4652       0.0000       0.1858       0.0000       0.0000       0.0000       0.0000       0.0000       0.0000      86.7672     -62.6172       0.0000      77.4706      73.8720      73.6828      72.3846      79.8741      79.6697    1006.4208     280.0215       3.4920
      52.1208     124.7459       0.0000       0.1858       0.0000       0.0000       0.0000       0.0000       0.0000       0.0000      87.1289     -62.2985       0.0000      77.8538      74.2504      73.6828      72.3846      79.8741      80.0460    1008.0573     280.0215       3.4945
      52.1970     136.6556       0.0000       0.1858       0.0000       0.0000       0.0000       0.0000       0.0000       0.0000      87.3919     -61.4485       0.0000      77.8538      74.2504      73.6828      72.3846      79.8741      80.0460    1008.0573     280.0215       3.4969
      52.2732     139.7975       0.0000       0.1858       0.0000       0.0000       0.0000       0.0000       0.0000       0.0000      87.5494     -59.9611       0.0000      78.1094      74.2504      73.6828      72.5128      79.8741      80.0460    1011.3301     280.0215       3.4989
      52.3494     121.9874       0.0000       0.1858       0.0000       0.0000       0.0000       0.0000       0.0000       0.0000      87.6939     -58.5799       0.0000      78.4926      74.2504      74.2000      72.8974      80.2580      80.0460    1012.9667     280.0215       3.5005
      52.4256     104.2497       0.0000       0.1858       0.0000       0.0000       0.0000       0.0000       0.0000       0.0000      87.9504     -57.1987       0.0000      78.4926      74.3766      74.2000      72.8974      80.2580      80.0460    1010.5120     280.0215       3.5010
      52.5018      80.9052       0.0000       0.1858       0.0000       0.0000       0.0000       0.0000       0.0000       0.0000      88.3695     -55.8175       0.0000      78.6204      74.5027      74.2000      72.8974      80.3860      80.0460    1010.5120     280.0215       3.4999
