~Version Information
 VERS.                2.00:   CWLS log ASCII Standard -VERSION 2.00
 WRAP.                  NO:   One line per frame      
~Well Information Block
#MNEM.UNIT                   Data                        Description
#----.----   -----------------------------------------   -------------------------------
 STRT.M                                       26.9748 : Starting Depth
 STOP.M                                      187.9854 : Ending Depth
 STEP.M                                        0.0762 : Level Spacing
 NULL.                                      -999.2500 : Absent Value
 COMP.       SUNCOR ENERGY INC                        : Company
 WELL.       SUNCOR LEWIS 7-22-92-8                   : Well
 FLD .       UNDEFINED                                : Field
 LOC .       LSD 07-22-092-08W4                       : Location
 PROV.       ALBERTA                                  : Province
 CTRY.       CA                                       : Country
 SRVC.       Baker Hughes                             : Service Company
 DATE.       16-JAN-2016                              : Log Date
 UWI .       1AA072209208W400                         : Unique Well ID
 LIC .       0477502                                  : License Number
 LATI.DEG    57.0175 N                                : Latitude Coordinates
 LONG.DEG    -111.419 W                               : Longitude Coordinates
~Curve Information Block
#MNEM    .UNIT        API Codes     Curve Description
#--------.--------   LG--CV-CL--M   -------------------------------
 DEPT    .M           0 001  0  1 : Depth
 AZSTQH  .deg        99 995 99  1 : Azimuth of reference pad for STAR
 BKRGQH  .dim        99 995 99  1 : Bucker driver value
 DEVSTQH .deg        99 995 99  1 : Deviation for STAR
 DIP1QH  .raw        75 610  1  1 : Pad 1 average data of buttons 11, 12, 13, 14
 DIP2QH  .raw        75 610  1  1 : Pad 2 average data of buttons 11, 12, 13, 14
 DIP3QH  .raw        75 610  1  1 : Pad 3 average data of buttons 11, 12, 13, 14
 DIP4QH  .raw        75 610  1  1 : Pad 4 average data of buttons 11, 12, 13, 14
 DIP5QH  .raw        75 610  1  1 : Pad 5 average data of buttons 11, 12, 13, 14
 DIP6QH  .raw        75 610  1  1 : Pad 6 average data of buttons 11, 12, 13, 14
 GR      .gAPI       30 310  1  1 : Gamma ray
 PADFQH  .pct        94 995 99  1 : Pad force
 PADGQH  .dim        99 995 99  1 : Pad gain code
 RAD1QH  .mm         75 280 99  1 : Radius, tool axis to pad 1 face
 RAD2QH  .mm         75 280 99  1 : Radius, tool axis to pad 2 face
 RAD3QH  .mm         75 280 99  1 : Radius, tool axis to pad 3 face
 RAD4QH  .mm         75 280 99  1 : Radius, tool axis to pad 4 face
 RAD5QH  .mm         75 280 99  1 : Radius, tool axis to pad 5 face
 RAD6QH  .mm         75 280 99  1 : Radius, tool axis to pad 6 face
 RAZGSTQH.mG         99 995 99  1 : Raw Z-axis accelerometer shifted to STAR
 RBSTQH  .deg        99 995 99  1 : Relative bearing (relative to borehole high side) for STAR
 SPD     .m/min      99 636 99  1 : Speed
~Parameter Information Block
#MNEM.UNIT                     Value                    Description
#----.----   ----------------------------------------   -------------------------------
 HID1.       RESISTIVITY IMAGING LOG^T                : Header Identifer
 HID2.       GAMMA RAY LOG                            : Header Identifer
 FILE.       3953                                     : File Number
 CMT1.       UID                                      : Comment 1  
 CMT2.       1AA072209208W400                         : Comment 2  
 CMT3.       LICENSE                                  : Comment 3  
 CMT4.       0477502                                  : Comment 4  
 FL2 .       BH LOC. LSD  07                          : Field Location 2
 SECT.       22                                       : Section
 TOWN.       092                                      : Township
 RANG.       08W4                                     : Range
 OS1 .       ZDL-CN-GR-CAL                            : Other Services Line 1
 OS2 .       HDIL-GR-CAL, CVL                         : Other Services Line 2
 OS3 .       DAL-GR-CAL                               : Other Services Line 3
 OS4 .       COMPOSITE                                : Other Services Line 4
 PDAT.       G.L.                                     : Permanent Datum
 EPD .M      438.50                                   : Elevation Of Perm. Datum
 LMF .       K.B.                                     : Log Measured From
 APD .M      2.20                                     : Above Permanent Datum
 DMF .       KELLY BUSHING                            : Drilling Measured From
 EKB .M      440.70                                   : Elevation Of Kelly Bushing
 EGL .M      438.50                                   : Elevation Of Ground Level
 RUN .       1                                        : Run Number
 TRIP.       1                                        : Trip Number
 SON .       CA003953J                                : Service Order Number
 TDD .M      187.0                                    : Total Depth - Driller
 TDL .M      186.3                                    : Total Depth - Logger
 BLI .M      183.0                                    : Bottom Log Interval
 TLI .M      55.0                                     : Top Log Interval
 CSIZ.MM     177.8                                    : Casing Size
 CBDR.M      49.4                                     : Casing Bottom - Driller
 CBLO.M      49.4                                     : Casing Bottom - Logger
 BS  .MM     156.0                                    : Bit Size
 DFT .       WB (WATER BASE MUD)                      : Drilling Fluid Type
 DFD .G/L    1030.0                                   : Drilling Fluid Density
 DFV .S      79.0                                     : Drilling Fluid Viscosity
 DFPH.       7.0                                      : Drilling Fluid Ph
 DFL .ML     8.0                                      : Drilling Fluid Loss
 MSS .       F (FLOWLINE)                             : Mud Sample Source
 RMS .OHMM   1.2                                      : Resistivity Of Mud Sample
 MST .DEGC   25.0                                     : Mud Sample Temperature
 RMFS.OHMM   1.0                                      : Resistivity Of Mud Filtrate Sample
 MFST.DEGC   25.0                                     : Mud Filtrate Sample Temperature
 RMCS.OHMM   1.4                                      : Resistivity Of Mud Cake Sample
 MCST.DEGC   25.0                                     : Mud Cake Sample Temperature
 MFSS.       CALCULATED                               : Mud Filtrate Sample Source
 MCSS.       CALCULATED                               : Mud Cake Sample Source
 RMB .OHMM   2.0                                      : Mud Resistivity At Bht
 BHT .DEGC   7.0                                      : Bottom Hole Temperature
 TSC .       5.0 HOURS                                : Time Since Circulation
 MRT .DEGC   7.0                                      : Maximum Recorded Temperature
 LUN .       Z004250                                  : Logging Unit Number
 LUL .       LEDUC OH                                 : Logging Unit Location
 ENGI.       A.MALIK                                  : Engineer's Name
 WITN.       H.WILSON / P.ENE                         : Witness' Name
 TSTR.       /STAR/GR/                                : Title Service Mnemonic
 TSTG.       NA                                       : Title Service Mnemonic
 STUS.       FINAL                                    : Status
 LCNM.       BAKER ATLAS                              : Logging Company Name
 LCC .       150                                      : Logging Company Code
 OPMD.       OH.WIRE                                  : Operation Mode
 PANA.       A.MALIK                                  : Processing Analyst
 PCON.       BAKER ATLAS                              : Processing Contractor
 APIN.                                                : API Serial Number
 STAT.                                                : State Or Province
~Other information
LAT/LON  57.0175, -111.419                                                      
TIME STOPPED CIRCULATION  16-JAN-2016 0830AM                                    
STAR RUN WITH 0% PAD FORCE AND AUTOMATICALLY CONTROLLED GAINS                   
ANY STICK AND PULL AFFECTS LOG QUALITY                                          
RIG  ENCORE 402                                                                 
CREW  F.AJAGU, A.MALIK                                                          
#  Curve Data
~A   DEPT         AZSTQH       BKRGQH       DEVSTQH      DIP1QH       DIP2QH       DIP3QH       DIP4QH       DIP5QH       DIP6QH       GR           PADFQH       PADGQH       RAD1QH       RAD2QH       RAD3QH       RAD4QH       RAD5QH       RAD6QH       RAZGSTQH     RBSTQH       SPD       
# ...
      97.3836      29.1305       6.0000       0.1674     431.0000     409.0000     375.0000     411.0000     383.0000     296.0000      80.4337       1.2366       3.0000      79.0037      75.3857      78.5963      85.7179      88.5760      80.9242    1012.9667     223.7115       3.4541
      97.4598      31.4267       6.0000       0.2077     423.0000     380.0000     418.0000     384.0000     458.0000     297.0000      82.2306       1.2366       3.0000      79.1314      75.3857      78.9842      85.2051      88.5760      80.5478    1011.3301     216.5865       3.4229
      97.5360      36.8406       6.0000       0.2077     441.0000     434.0000     384.0000     401.0000     399.0000     398.0000      83.9617       1.2366       3.0000      78.7481      75.3857      78.9842      85.7179      88.5760      81.0496    1016.2395     216.5865       3.3809
      97.6122      39.7664       6.0000       0.2322     411.0000     414.0000     344.0000     360.0000     353.0000     334.0000      85.3715       1.2366       3.0000      78.7481      75.3857      78.9842      86.1025      88.5760      81.0496    1006.4208     226.8914       3.3361
      97.6884      41.9364       6.0000       0.2322     387.0000     397.0000     325.0000     400.0000     410.0000     378.0000      86.2909       1.2366       3.0000      78.7481      75.3857      78.5963      85.3333      87.8082      80.9242    1013.7849     226.8914       3.2965
      97.7646      43.1588       6.0000       0.2322     425.0000     383.0000     347.0000     402.0000     460.0000     323.0000      86.6332       1.2366       3.0000      78.7481      75.3857      78.5963      85.7179      87.2963      80.6733    1007.2390     226.8914       3.2679
      97.8408      44.1854       6.0000       0.2322     347.0000     401.0000     281.0000     402.0000     375.0000     336.0000      86.3865       1.2366       3.0000      78.7481      75.3857      78.3377      85.2051      87.2963      80.5478    1011.3301     226.8914       3.2534
      97.9170      46.5504       6.0000       0.2322     362.0000     330.0000     300.0000     411.0000     332.0000     267.0000      85.6602       1.2366       3.0000      78.7481      75.3857      77.6911      83.9231      86.1446      80.5478    1010.5120     226.8914       3.2516
      97.9932      49.0809       6.0000       0.2322     354.0000     343.0000     359.0000     387.0000     377.0000     317.0000      84.6447       1.2366       3.0000      78.7481      75.3857      76.3981      81.4872      85.2488      80.5478    1008.8755     226.8914       3.2575
      98.0694      49.9908       6.0000       0.2322     326.0000     357.0000     296.0000     373.0000     343.0000     314.0000      83.6019       1.2366       3.0000      78.7481      75.3857      76.1395      79.1795      84.6090      80.5478    1010.5120     226.8914       3.2648
      98.1456      50.5919       6.0000       0.2322     300.0000     278.0000     324.0000     342.0000     340.0000     275.0000      82.8418       1.2366       3.0000      78.7481      75.3857      75.8809      77.7692      84.6090      80.5478    1008.8755     226.8914       3.2681
      98.2218      50.9932       6.0000       0.2322     178.0000     270.0000     260.0000     350.0000     148.0000     265.0000      82.5825       1.2366       3.0000      78.7481      75.3857      75.8809      77.7692      84.6090      80.5478    1010.5120     226.8914       3.2655
      98.2980      51.9030       6.0000       0.2322     239.0000     292.0000     245.0000     268.0000     240.0000     212.0000      82.7897       1.2366       3.0000      78.7481      75.3857      76.0102      77.7692      84.6090      80.5478    1010.5120     226.8914       3.2589
      98.3742      52.3047       6.0000       0.2322     169.0000     264.0000     232.0000     268.0000     132.0000     230.0000      83.2576       1.2366       3.0000      78.7481      75.3857      76.2688      78.1538      84.6090      80.5478    1007.2390     226.8914       3.2532
      98.4504      51.9030       6.0000       0.2322     249.0000     199.0000     213.0000     230.0000     225.0000     214.0000      83.8155       1.1304       3.0000      78.7481      75.3857      76.1395      77.0000      83.0734      80.5478    1009.6937     226.8914       3.2528
      98.5266      51.7022       6.0000       0.2322     223.0000     247.0000     223.0000     177.0000     223.0000     223.0000      84.4326       1.2366       3.0000      78.7481      75.3857      75.8809      75.9743      82.0496      80.5478    1010.5120     226.8914       3.2595
      98.6028      52.1038       6.0000       0.2322     290.0000     165.0000     281.0000     248.0000     253.0000     203.0000      85.1617       1.2366       3.0000      78.7481      75.3857      75.6223      75.4615      82.0496      80.5478    1010.5120     226.8914       3.2724
      98.6790      52.1038       6.0000       0.2322     333.0000     276.0000     268.0000     318.0000     282.0000     265.0000      86.0159       1.2366       3.0000      78.7481      75.3857      75.8809      75.4615      82.0496      80.0460    1010.5120     226.8914       3.2892
      98.7552      51.5959       6.0000       0.2322     416.0000     265.0000     393.0000     269.0000     456.0000     191.0000      86.9003       1.2366       3.0000      78.7481      75.3857      76.0102      75.4615      82.0496      80.1715    1008.8755     226.8914       3.3071
      98.8314      51.1940       6.0000       0.2322     508.0000     415.0000     452.0000     423.0000     479.0000     366.0000      87.5832       1.2366       3.0000      78.8759      75.3857      76.0102      75.4615      82.0496      80.2969    1012.1484     226.8914       3.3240
      98.9076      50.7925       6.0000       0.2322     489.0000     419.0000     416.0000     425.0000     407.0000     391.0000      87.8346       1.2366       3.0000      78.8759      75.3857      75.8809      75.0769      82.0496      80.4224    1008.0573     226.8914       3.3375
      98.9838      50.7925       6.0000       0.2322     368.0000     470.0000     405.0000     480.0000     396.0000     350.0000      87.5014       1.2366       3.0000      78.8759      75.3857      75.8809      75.0769      81.9216      80.4224    1008.0573     226.8914       3.3452
      99.0600      50.3914       6.0000       0.2322     331.0000     338.0000     284.0000     359.0000     378.0000     343.0000      86.5894       1.2366       3.0000      78.8759      75.3857      75.8809      75.0769      82.0496      80.2969    1008.0573     226.8914       3.3439
      99.1362      50.2829       6.0000       0.2322     334.0000     289.0000     312.0000     383.0000     266.0000     304.0000      85.2465       1.2366       3.0000      78.8759      75.3857      75.8809      75.0769      82.0496      80.4224    1010.5120     226.8914       3.3320
      99.2124      49.4810       7.0000       0.2322     590.0000     492.0000     591.0000     644.0000     574.0000     560.0000      83.6531       1.2366       3.0000      78.8759      75.3857      75.8809      75.0769      81.2818      80.4224    1006.4208     226.8914       3.3111
      99.2886      48.7702       7.0000       0.2322     567.0000     586.0000     574.0000     545.0000     656.0000     613.0000      81.9190       1.2366       3.0000      78.8759      75.3857      75.8809      75.0769      81.2818      80.4224    1013.7849     226.8914       3.2858
      99.3648      49.2809       7.0000       0.2322     528.0000     522.0000     566.0000     505.0000     595.0000     382.0000      80.1077       1.2366       3.0000      78.8759      75.3857      75.7516      75.0769      81.0259      80.4224    1008.8755     226.8914       3.2623
      99.4410      50.1911       7.0000       0.2322     481.0000     491.0000     436.0000     680.0000     655.0000     466.0000      78.2119       1.2366       3.0000      78.8759      75.3857      75.7516      75.0769      80.8979      80.2969    1008.8755     226.8914       3.2459
