~VERSION INFORMATION 
VERS.          2.0   :CWLS LOG ASCII STANDARD - VERSION 2.0
WRAP.          NO    :ONE LINE PER DEPTH STEP
PROD.  Schlumberger   :LAS Producer
PROG.  DLIS to ASCII 19C2-270                          :LAS Program name and version
CREA.        2014/02/23 09:08                          :LAS Creation date {YYYY/MM/DD hh:mm}
DLIS_CREA.  2014-Feb-23 08:51                          :DLIS Creation date and time {YYYY-MMM-DD hh:mm}
SOURCE.     1AA063409108W400_FMI_SONIC_MAIN.dlis       :DLIS File Name
FILE-ID.     ConPr_R2L3Up_S008_FBST_DSLT_HGNS          :File Identification Number
#--------------------------------------------------
~WELL INFORMATION 
#MNEM.UNIT      DATA             DESCRIPTION
#---- ------ --------------   -----------------------------
STRT.M      54.71160        :START DEPTH
STOP.M      257.70840       :STOP DEPTH
STEP.M       0.15240        :STEP
NULL .          -999.25      :NULL VALUE
COMP.        SUNCOR ENERGY INC.                       :COMPANY
WELL.        SUNCOR LEWIS 6-34-91-8                   :WELL
FLD  .        LEWIS                                    :FIELD
LOC.        6-34-91-8W4                              :LOCATION
PROV .        ALBERTA                                  :PROVINCE
UWI.        1AA063409108W400                         :UNIQUE WELL ID
LIC  .        0464072                                  :LICENSE NUMBER
CTRY .        CA                                       :COUNTRY (WWW code)
DATE.        23-Feb-2014                              :LOG DATE {DD-MMM-YYYY}
SRVC .        Schlumberger                             :SERVICE COMPANY
LATI .DEG     56.934500 degrees                        :LATITUDE
LONG .DEG     -111.20540 degrees                       :LONGITUDE
GDAT .                                                 :GeoDetic Datum
SECT .        06-34                                    :Section
RANG .        08W4                                     :Range
TOWN .        091                                      :Township
#-----------------------------------------------------------------------------
~CURVE INFORMATION 
#MNEM.UNIT   API CODE                                  DESCRIPTION
#---- -----  --------                                  -----------------------
 DEPT.M         00 001 00 00             :Depth Index - Measured Depth
   BS.MM        61 280 07 00             :BIT SIZE {F14.5}
   C1.MM        42 280 06 00             :CALIPER 1 {F14.5}
   C2.MM        42 280 05 00             :CALIPER 2 {F14.5}
DEPTH.M         00 001 00 00             :DEPTH INDEX {F14.5}
DEVIM.DEG       00 630 00 00             :MEMORIZED DEVIATION {F14.5}
   DT.US/M      60 520 32 00             :DELTA-T (ALSO CALLED SLOWNESS OR INTERVAL TRANSIT TIME) {F14.5}
   EI.MA        00 000 00 00             :EMEX CURRENT {F14.5}
   EV.V         00 000 00 00             :EMEX VOLTAGE {F14.5}
 FBCR.OHMS      00 000 00 00             :CORRELATION RESISTANCE {F14.5}
   GR.GAPI      42 310 01 00             :GAMMA RAY {F14.5}
 HAZI.DEG       00 620 00 00             :HOLE AZIMUTH RELATIVE TO TRUE NORTH {F14.5}
HAZIM.DEG       00 620 00 00             :HOLE AZIMUTH RELATIVE TO TRUE NORTH {F14.5}
 P1AZ.DEG       00 630 00 00             :PAD 1 AZIMUTH IN HORIZONTAL PLANE (0 = TRUE NORTH) {F14.5}
P1NO_FBST.DEG   00 000 00 00             :PAD 1 AZIMUTH IN PLANE ORTHOGONAL TO TOOL AXIS (0 = TRUE NORTH), MEMORIZED TO FBST {F14.5}
   RB.DEG       00 631 00 00             :RELATIVE BEARING {F14.5}
 SDEV.DEG       00 000 00 00             :SONDE DEVIATION {F14.5}
 TENS.N         61 280 10 00             :CABLE TENSION {F14.5}
  TT1.US        60 520 32 01             :TRANSIT TIME 1 {F14.5}
  TT2.US        60 520 32 02             :TRANSIT TIME 2 {F14.5}
  TT3.US        60 520 32 03             :TRANSIT TIME 3 {F14.5}
  TT4.US        60 520 32 04             :TRANSIT TIME 4 {F14.5}
~PARAMETER INFORMATION 
#MNEM.UNIT    VALUE                      DESCRIPTION
#---- -----   --------------------       ------------------------
 CSGD.M       72.80000                   :Casing Bottom of Driller
 CSGL.M       73.20000                   :Logger Casing Shoe Depth
 CSGS.MM      177.80000                  :Current Casing Size
 CSGW.KG/M    25.30000                   :Casing Weight
 MUDD.K/M3    1090.00000                 :Drilling Fluid Density
  DFL.C3      6.00000                    :Drilling Fluid Loss
   PH.        10.00000                   :Drilling Fluid pH
  MUD.        Polymer                    :Drilling Fluid Type
 MUDV.S       108.00000                  :Drilling Fluid Viscosity
   GL.M       445.00000                  :Elevation of Ground Level
 EREF.M       449.00000                  :Elevation of Kelly Bushing
  ENG.        NICK POLLEY                :Engineer s Name
 DREF.        KB                         :Logging Measured From (Name of Logging Elevation Reference)
 BASE.        WINTER PROJECT             :LOGGING UNIT LOCATION
 FACT.        CP4P-00020                 :Service Order Number
  LIC.        0464072                    :API Well Number
 PROV.        ALBERTA                    :County or Parish
 UNIT.        3125                       :Logging Unit Number
 RMCT.DEGC    8.73000                    :Mudcake Sample Temperature
 RMFT.DEGC    8.73000                    :Mud Filtrate Sample Temperature
 TMAX.DEGC    12.28000                   :Maximum Recorded Temperature
 MUDS.        Flowline                   :Mud Sample Source
  RMT.DEGC    8.73000                    :Mud Sample Temperature
RANGE.        08W4                       :Range
  RMC.OHMM    1.18000                    :Resistivity of Mud Cake Sample
  RMF.OHMM    0.59200                    :Resistivity of Mud Filtrate Sample
   RM.OHMM    0.78900                    :Resistivity of Mud Sample
SECTION.      06-34                      :Section
 TIMC.        01 55 00                   :Time Circulation Stopped
 TIML.        07 55 00                   :Time Logger At Bottom
TOWNSHIP.     091                        :Township
  WIT.        JONATHAN FELL              :Witness s Name
  APD.M       4.00000                    :Elevation of Depth Reference (LMF) Above Permanent Datum
 APIN.        0464072                    :API Well Number
  BHT.DEGC    12.28000                   :Bottom Hole Temperature
  BLI.M       256.00000                  :Bottom Log Interval
   BS.MM      156.00000                  :Bit Size
   CN.        SUNCOR ENERGY INC.         :Company Name
 COUN.        ALBERTA                    :County or Parish
 LDAT.        23-Feb-2014                :Tools Above Rotary Table Date
  DCS.        23-Feb-2014                :Date Circulation Stopped
  DFL.C3      6.00000                    :Drilling Fluid Loss
 DLAB.        23-Feb-2014                :Date Logger At Bottom
  DMF.        KB                         :Drilling Measured From (Name of Drilling Elevation Reference)
  EDF.M       448.70001                  :Elevation of Drill Floor
  EGL.M       445.00000                  :Elevation of Ground Level
  EKB.M       449.00000                  :Elevation of Kelly Bushing
   FD.K/M3    1000.00000                 :Fluid Density
   FL.        6-34-91-8W4               :FIELD LOCATION
  FL1.        1AA063409108W400           :Field Location, Line 1
  FL2.                                   :Field Location, Line 2
   FN.        LEWIS                      :Field Name
 HID1.                                   :Header Identifier 1
 HID2.                                   :Header Identifier 2
 HIDE.        LEWIS                      :Header Identifier
 LATI.        56.934500 degrees          :Latitude
  LMF.        KB                         :Logging Measured From (Name of Logging Elevation Reference)
 LONG.        -111.20540 degrees         :Longitude
 MATR.        SAND                       :Rock Matrix for Neutron Porosity Corrections
 MCSS.        Calculated                 :Mudcake Sample Source
 MDEC.DEG     14.38033                   :Magnetic Field Declination
 MDEN.K/M3    2650.00000                 :Matrix Density for Density Porosity
 MRT1.DEGC    12.28000                   :Maximum Recorded Temperature 1
 MRT2.DEGC    -999.25000                 :Maximum Recorded Temperature 2
  NMT.        NOBARITE                   :HRDD Mud Type for Nuclear Devices
  OS1.                                   :Other Services Line 1
  OS2.                                   :Other Services Line 2
  OS3.                                   :Other Services Line 3
  OS4.                                   :Other Services Line 4
  OS5.                                   :Other Services Line 5
 PDAT.        GL                         :Permanent Datum
   R1.        THANK YOU FOR CHOOSING SCHLUMBERGER  :Remarks Line 1
   R2.        ALL TOOLS RAN AS PER TOOL SKETCH AND ALL PRESENTATIONS AS PER CLIENT REQUEST  :Remarks Line 2
   R3.        INDUCTION LOG – DESCENT #1 :Remarks Line 3
   R4.        NEUTRON / DENSITY LOG – DESCENT #1  :Remarks Line 4
  RMB.OHMM    0.70618                    :Resistivity of Mud at Bottom Hole Temperature
 RMFB.OHMM    0.52986                    :Resistivity of Mud Filtrate At Bottom Hole Temperature
  RUN.        ONE/2                      :Run Number
  SON.        CP4P-00020                 :SERVICE ORDER NUMBER
  TDD.M       256.00000                  :Driller Total Depth
  TDL.M       256.00000                  :Logger Total Depth
  TLI.M       75.00000                   :Top Log Interval
 UWID.        1AA063409108W400           :Unique Well Identifier
   WN.        SUNCOR LEWIS 6-34-91-8     :Well Name
  EPD.C3      445.000000                 :Elevation of Permanent Datum above Mean Sea Level
#-----------------------------------------------------------------------------
#
#      DEPT          BS            C1            C2            DEPTH         DEVIM         DT            EI            EV            FBCR          GR            HAZI          HAZIM         P1AZ        P1NO_FBST       RB            SDEV          TENS          TT1           TT2           TT3           TT4
#
#-----------------------------------------------------------------------------

~A       DEPT           BS           C1           C2        DEPTH        DEVIM           DT           EI           EV         FBCR           GR         HAZI        HAZIM         P1AZ    P1NO_FBST           RB         SDEV         TENS          TT1          TT2          TT3          TT4
# ...
    201.32040     156.00000     154.34271     155.37610     201.32230       0.47012     427.88544    3026.55322       8.92825  197103.09375     110.41632     209.67160     208.13234     165.99104     164.70708     316.32129       0.45621    5031.25635     815.43237     540.96680     811.76929     539.07922
    201.47280     156.00000     154.34271     155.37610     201.46962       0.47316     434.64160    3023.14478       8.96724  138397.07813     116.75394     209.47414     207.80417     165.36693     163.85410     315.89383       0.45607    5049.32471     809.79041     547.05969     805.40692     546.99805
    201.62520     156.00000     154.34271     155.37610     201.62201       0.47418     435.65445    3023.14478       8.88926  133604.76563     117.00544     209.19043     207.50655     165.00748     162.75931     315.81650       0.45497    5235.55713     807.93561     547.96045     805.24078     542.97498
    201.77760     156.00000     154.34271     155.37610     201.77823       0.47460     448.46252    3055.52344       8.79179  126727.42188     120.90131     208.94052     207.17305     164.33226     161.67924     315.39154       0.45277    5123.23926     809.34784     543.80200     806.23584     543.71716
    201.93000     156.00000     154.64989     155.37610     201.93359       0.47470     442.31143    3089.60620       8.71382  122542.36719     120.77576     208.74989     206.89655     163.29788     160.82779     314.54773       0.45073    5491.18164     806.07916     550.76788     798.62610     548.28851
    202.08240     156.00000     154.78616     155.37610     202.08498       0.47477     439.64908    3089.60620       8.65534  133962.57813     120.77578     208.57220     206.61626     162.18570     160.24355     313.61313       0.44868    5337.86621     799.22620     547.12946     798.69641     544.22797
    202.23480     156.00000     154.95706     155.37610     202.23567       0.47484     430.37079    3093.01489       8.61635  119449.89844     111.47581     208.42906     206.35014     161.23357     159.98445     312.80588       0.44728    5076.01416     805.84906     541.82495     802.67426     538.17926
    202.38720     156.00000     154.95706     155.37610     202.38858       0.47635     428.21213    3125.39355       8.55787  123269.39844     105.26359     208.38078     206.02264     160.43512     159.47383     312.05426       0.44652    4935.45020     803.30707     535.75787     800.79059     532.29413
    202.53960     156.00000     154.95706     155.37610     202.54132       0.47769     428.45309    3123.68945       8.55787  123434.21875      94.20376     208.36603     205.86244     160.17688     158.79951     311.81287       0.44587    4905.20215     803.19983     533.11707     800.28992     532.79211
    202.69200     156.00000     154.34271     155.37610     202.69186       0.48014     424.15649    3123.68945       8.53837  154943.59375      77.86570     208.35699     205.57011     159.72176     158.05948     311.36548       0.44695    4944.93994     797.77435     525.95831     794.79187     529.12579
    202.84440     156.00000     154.34271     155.37610     202.84274       0.48347     424.04739    3157.77222       8.47989  151501.26563      58.31404     208.48750     205.41272     159.16026     157.86771     310.67355       0.44751    4949.09131     795.38721     531.80231     794.19446     531.76074
    202.99680     156.00000     154.17105     155.37610     202.99362       0.48804     426.57477    3130.50659       8.46040  142799.40625      47.88303     208.50056     205.19545     158.40221     157.47736     309.90186       0.44795    4819.20313     796.91040     531.14203     795.78973     530.03674
    203.14920     156.00000     154.34271     155.37610     203.14601       0.49229     426.75073    3157.77222       8.34343  119557.18750      46.37498     208.64622     205.05069     157.89220     157.31354     309.24646       0.44853    4912.91260     795.86554     528.59534     794.71576     528.16968
    203.30160     156.00000     154.34271     155.37610     203.30112       0.49692     439.21613    3157.77222       8.20697  138958.71875      44.11266     208.81606     205.07047     157.79477     156.80994     308.98029       0.44963    5030.10449     794.80359     530.05481     794.24170     530.81891
    203.45400     156.00000     154.34271     155.37610     203.45657       0.50171     441.86688    3188.44751       8.07052   95060.89844      38.19001     208.93803     204.78517     157.28493     157.22066     308.34769       0.45055    4886.22314     791.83820     534.69434     791.19714     534.69385
    203.60640     156.00000     154.34271     155.37610     203.60762       0.50605     440.43774    3191.85547       8.01203  107043.60156      29.26690     209.01906     204.71288     157.06354     157.98898     308.04556       0.45127    5167.64746     796.17590     536.13525     796.57172     534.47522
    203.75880     156.00000     154.34271     155.37610     203.75867       0.51059     441.41815    3196.96802       7.99254   85498.94531      21.47503     209.10043     204.61301     156.99890     157.38835     307.89954       0.45274    5113.67578     802.81897     534.82007     804.31683     534.02313
    203.91120     156.00000     154.34271     155.37610     203.91089       0.51462     433.97354    3224.23462       7.93406   94702.07031      21.36506     209.14018     204.46622     157.66441     156.52921     308.52530       0.45368    4978.44971     814.19788     538.04034     814.40771     537.27942
    204.06360     156.00000     154.34271     155.37610     204.06549       0.51883     430.76947    3222.53027       7.87558  104414.57813      32.46055     209.10464     204.35123     157.81799     155.86111     308.71411       0.45519    5014.33203     818.88593     536.00903     819.34924     537.75000
    204.21600     156.00000     154.34271     155.37610     204.21790       0.52282     431.88580    3214.00977       7.77811  122232.92188      56.46500     209.05611     204.22076     156.86070     154.45808     307.80560       0.45698    5141.55127     828.10791     538.49219     827.95844     538.97754
    204.36840     156.00000     154.64989     156.01955     204.36978       0.52704     445.43494    3222.53027       7.71962  110786.44531      90.14619     208.97267     204.05237     156.19296     150.65125     307.22192       0.45992    5048.73145     840.43457     546.53796     834.05035     545.23297
    204.52080     156.00000     153.99940     156.01955     204.52219       0.53097     460.40192    3222.53027       7.68064   98040.14844     113.10905     208.80635     203.92935     155.51239     147.89011     306.70621       0.46263    5083.42773     843.38062     555.10382     836.31903     556.77405
    204.67320     156.00000     154.34271     156.66299     204.67323       0.53461     475.21817    3260.02148       7.60266   83180.85156     124.79690     208.63174     203.77844     152.64557     145.45615     304.01520       0.46536    5431.27881     843.37469     568.79272     842.33441     569.52252
    204.82560     156.00000     154.17105     156.34126     204.82495       0.53791     489.61929    3258.31763       7.60266  105550.90625     117.63342     208.39351     203.66699     149.03223     144.94716     300.63937       0.46774    5040.13184     853.92810     579.45599     856.93195     581.16730
    204.97800     156.00000     154.17105     156.66299     204.97566       0.54004     487.39963    3256.61353       7.54418   82756.27344     113.61151     208.13234     203.59505     146.61935     144.83067     298.48843       0.47012    5050.80762     867.92828     585.80048     869.69824     585.23291
    205.13040     156.00000     154.34271     156.66299     205.12840       0.54178     486.64044    3260.02148       7.50519  110530.35938     108.96107     207.80417     203.45717     144.96251     144.89337     297.15848       0.47316    5061.77979     877.57648     590.02179     878.98151     589.30231
