~Version Information
 VERS.                2.00:   CWLS log ASCII Standard -VERSION 2.00
 WRAP.                  NO:   One line per frame      
~Well Information Block
#MNEM.UNIT                   Data                        Description
#----.----   -----------------------------------------   -------------------------------
 STRT.M                                       27.0000 : Starting Depth
 STOP.M                                      188.0000 : Ending Depth
 STEP.M                                        0.1000 : Level Spacing
 NULL.                                      -999.2500 : Absent Value
 COMP.       SUNCOR ENERGY INC                        : Company
 WELL.       SUNCOR LEWIS 7-22-92-8                   : Well
 FLD .       UNDEFINED                                : Field
 LOC .       LSD 07-22-092-08W4                       : Location
 PROV.       ALBERTA                                  : Province
 CTRY.       CA                                       : Country
 SRVC.       Baker Hughes                             : Service Company
 DATE.       16-JAN-2016                              : Log Date
 UWI .       1AA072209208W400                         : Unique Well ID
 LIC .       0477502                                  : License Number
~Curve Information Block
#MNEM    .UNIT        API Codes     Curve Description
#--------.--------   LG--CV-CL--M   -------------------------------
 DEPT    .M           0   1  0  1 : Depth
 AZSTQH  .deg        99 995 99  1 : Azimuth of reference pad for STAR
 BKRGQH  .dim        99 995 99  1 : Bucker driver value
 DEVSTQH .deg        99 995 99  1 : Deviation for STAR
 DIP1QH  .raw        75 610  1  1 : Pad 1 average data of buttons 11, 12, 13, 14
 DIP2QH  .raw        75 610  1  1 : Pad 2 average data of buttons 11, 12, 13, 14
 DIP3QH  .raw        75 610  1  1 : Pad 3 average data of buttons 11, 12, 13, 14
 DIP4QH  .raw        75 610  1  1 : Pad 4 average data of buttons 11, 12, 13, 14
 DIP5QH  .raw        75 610  1  1 : Pad 5 average data of buttons 11, 12, 13, 14
 DIP6QH  .raw        75 610  1  1 : Pad 6 average data of buttons 11, 12, 13, 14
 GR      .gAPI       30 310  1  1 : Gamma ray
 PADFQH  .pct        94 995 99  1 : Pad force
 PADGQH  .dim        99 995 99  1 : Pad gain code
 RAD1QH  .mm         75 280 99  1 : Radius, tool axis to pad 1 face
 RAD2QH  .mm         75 280 99  1 : Radius, tool axis to pad 2 face
 RAD3QH  .mm         75 280 99  1 : Radius, tool axis to pad 3 face
 RAD4QH  .mm         75 280 99  1 : Radius, tool axis to pad 4 face
 RAD5QH  .mm         75 280 99  1 : Radius, tool axis to pad 5 face
 RAD6QH  .mm         75 280 99  1 : Radius, tool axis to pad 6 face
 RAZGSTQH.mG         99 995 99  1 : Raw Z-axis accelerometer shifted to STAR
 RBSTQH  .deg        99 995 99  1 : Relative bearing (relative to borehole high side) for STAR
 SPD     .m/min      99 636 99  1 : Speed
~Parameter Information Block
#MNEM.UNIT                     Value                    Description
#----.----   ----------------------------------------   -------------------------------
 HID1.       RESISTIVITY IMAGING LOG^T                : Header Identifer
 HID2.       GAMMA RAY LOG                            : Header Identifer
 FILE.       3953                                     : File Number
 CMT1.       UID                                      : Comment 1  
 CMT2.       1AA072209208W400                         : Comment 2  
 CMT3.       LICENSE                                  : Comment 3  
 CMT4.       0477502                                  : Comment 4  
 FL2 .       BH LOC. LSD  07                          : Field Location 2
 SECT.       22                                       : Section
 TOWN.       092                                      : Township
 RANG.       08W4                                     : Range
 OS1 .       ZDL-CN-GR-CAL                            : Other Services Line 1
 OS2 .       HDIL-GR-CAL, CVL                         : Other Services Line 2
 OS3 .       DAL-GR-CAL                               : Other Services Line 3
 OS4 .       COMPOSITE                                : Other Services Line 4
 PDAT.       G.L.                                     : Permanent Datum
 EPD .M      438.50                                   : Elevation Of Perm. Datum
 LMF .       K.B.                                     : Log Measured From
 APD .M      2.20                                     : Above Permanent Datum
 DMF .       KELLY BUSHING                            : Drilling Measured From
 EKB .M      440.70                                   : Elevation Of Kelly Bushing
 EGL .M      438.50                                   : Elevation Of Ground Level
 RUN .       1                                        : Run Number
 TRIP.       1                                        : Trip Number
 SON .       CA003953J                                : Service Order Number
 TDD .M      187.0                                    : Total Depth - Driller
 TDL .M      186.3                                    : Total Depth - Logger
 BLI .M      183.0                                    : Bottom Log Interval
 TLI .M      55.0                                     : Top Log Interval
 CSIZ.MM     177.8                                    : Casing Size
 CBDR.M      49.4                                     : Casing Bottom - Driller
 CBLO.M      49.4                                     : Casing Bottom - Logger
 BS  .MM     156.0                                    : Bit Size
 DFT .       WB (WATER BASE MUD)                      : Drilling Fluid Type
 DFD .G/L    1030.0                                   : Drilling Fluid Density
 DFV .S      79.0                                     : Drilling Fluid Viscosity
 DFPH.       7.0                                      : Drilling Fluid Ph
 DFL .ML     8.0                                      : Drilling Fluid Loss
 MSS .       F (FLOWLINE)                             : Mud Sample Source
 RMS .OHMM   1.2                                      : Resistivity Of Mud Sample
 MST .DEGC   25.0                                     : Mud Sample Temperature
 RMFS.OHMM   1.0                                      : Resistivity Of Mud Filtrate Sample
 MFST.DEGC   25.0                                     : Mud Filtrate Sample Temperature
 RMCS.OHMM   1.4                                      : Resistivity Of Mud Cake Sample
 MCST.DEGC   25.0                                     : Mud Cake Sample Temperature
 MFSS.       CALCULATED                               : Mud Filtrate Sample Source
 MCSS.       CALCULATED                               : Mud Cake Sample Source
 RMB .OHMM   2.0                                      : Mud Resistivity At Bht
 BHT .DEGC   7.0                                      : Bottom Hole Temperature
 TSC .       5.0 HOURS                                : Time Since Circulation
 MRT .DEGC   7.0                                      : Maximum Recorded Temperature
 LUN .       Z004250                                  : Logging Unit Number
 LUL .       LEDUC OH                                 : Logging Unit Location
 ENGI.       A.MALIK                                  : Engineer's Name
 WITN.       H.WILSON / P.ENE                         : Witness' Name
 TSTR.       /STAR/GR/                                : Title Service Mnemonic
 TSTG.       NA                                       : Title Service Mnemonic
 STUS.       FINAL                                    : Status
 LCNM.       BAKER ATLAS                              : Logging Company Name
 LCC .       150                                      : Logging Company Code
 OPMD.       OH.WIRE                                  : Operation Mode
 PANA.       A.MALIK                                  : Processing Analyst
 PCON.       BAKER ATLAS                              : Processing Contractor
 APIN.                                                : API Serial Number
 STAT.                                                : State Or Province
~Other information
LAT/LON  57.0175, -111.419                                                      
TIME STOPPED CIRCULATION  16-JAN-2016 0830AM                                    
STAR RUN WITH 0% PAD FORCE AND AUTOMATICALLY CONTROLLED GAINS                   
ANY STICK AND PULL AFFECTS LOG QUALITY                                          
RIG  ENCORE 402                                                                 
CREW  F.AJAGU, A.MALIK                                                          
#  Curve Data
~A  DEPT        AZSTQH      BKRGQH      DEVSTQH     DIP1QH      DIP2QH      DIP3QH      DIP4QH      DIP5QH      DIP6QH      GR          PADFQH      PADGQH      RAD1QH      RAD2QH      RAD3QH      RAD4QH      RAD5QH      RAD6QH      RAZGSTQH    RBSTQH      SPD       
# ...
    104.5000     53.4136      6.0000      0.2322    285.0000    258.0000    319.0000    310.0000    294.0000    247.0000     89.3547      1.2366      3.0000     78.7481     75.3857     76.2688     74.9487     82.0496     81.0496   1008.8755    226.8914      3.3172
    104.6000     53.2127      6.0000      0.2322    327.0000    294.0000    305.0000    107.0000    301.0000    268.0000     89.9131      1.2366      3.0000     78.7481     75.3857     76.2688     74.6923     82.3055     81.0496   1006.4208    226.8914      3.2903
    104.7000     53.4136      6.0000      0.2322    312.4173    299.2520    324.4173    376.4173    294.3622    266.5276     89.8193      1.2366      3.0000     78.7481     75.3857     76.2688     75.4615     82.4940     80.9242   1007.6707    226.8914      3.2764
    104.8000     53.7173      6.0000      0.2322    349.0000    284.0000    383.0000    315.0000    382.0000    249.0000     89.0809      1.2366      3.0000     78.7481     75.3857     76.2688     75.4615     82.5615     80.9242   1009.6937    226.8914      3.2687
    104.9000     54.0164      6.0000      0.2322    401.0000    355.0000    386.0000    400.0000    432.0000    284.0000     88.3835      1.2366      3.0000     78.7481     75.3857     76.2688     75.4615     82.5615     80.9242   1008.8755    226.8914      3.2555
    105.0000     53.8154      6.0000      0.2322    363.7480     86.4252    366.1653    455.0000    387.0866    249.9764     88.1925      1.2366      3.0000     78.7481     75.3857     76.2688     75.4615     82.0496     80.9242   1006.2855    226.8914      3.2368
    105.1000     54.4184      6.0000      0.2322    362.0000    339.0000    475.0000    411.0000    381.0000    312.0000     88.6932      1.2366      3.0000     78.7481     75.3857     76.2688     75.8461     82.4335     81.0496   1008.8755    226.8914      3.2224
    105.2000     54.5198      6.0000      0.2322    344.0000    336.0000    345.0000    399.0000    346.0000    304.0000     89.4690      1.2366      3.0000     78.7481     75.3857     76.2688     75.8461     82.4335     80.6733   1009.6937    226.8914      3.2166
    105.3000     54.7205      6.0000      0.2322    320.0000    287.0000    319.0000    379.0000    325.0000    281.0000     90.0899      1.2366      3.0000     78.7481     75.3857     76.2688     75.8461     82.4335     80.5478   1010.5120    226.8914      3.2151
    105.4000     55.1218      6.0000      0.2322    354.0000    308.0000    302.0000    357.0000    391.0000    236.0000     90.2230      1.2366      3.0000     78.7481     75.3857     76.2688     75.8461     82.4335     80.5478   1008.0573    226.8914      3.2102
    105.5000     56.2275      6.0000      0.2322    288.1339    277.1339    311.4016    331.7638    305.8347    277.7008     89.9564      1.2366      3.0000     78.7481     75.3857     76.2688     76.8718     82.5061     80.6733   1008.5211    226.8914      3.1987
    105.6000     58.1400      6.0000      0.2322    263.0000    320.0000    311.0000    269.0000    299.0000    249.0000     89.6793      1.2366      3.0000     78.7481     75.3857     76.2688     76.3590     82.1776     80.5478   1010.5120    226.8914      3.1836
    105.7000     59.8519      6.0000      0.2627    288.0000    266.0000    297.0000    204.0000    274.0000    251.0000     89.8577      1.2366      3.0000     78.6204     75.3857     76.2688     76.3590     82.0496     80.5478   1007.2390    235.0215      3.1719
    105.8000     60.4523      6.0000      0.2627    190.5905    289.0866    186.4331    271.7401    152.5433    244.6535     90.5881      1.2366      3.0000     78.6204     75.0072     76.0102     77.2564     82.0496     80.5478   1009.6937    235.0215      3.1695
    105.9000     61.4727      6.0000      0.2627    406.0000    138.0000    293.0000    170.0000    323.0000    151.0000     91.5956      1.2366      3.0000     78.7481     75.0072     76.2688     76.8718     82.0496     80.5478   1011.3301    235.0215      3.1748
    106.0000     62.4702      6.0000      0.2627    293.0000    386.0000    281.0000    327.0000    293.0000    318.0000     92.6325      1.2366      3.0000     78.7481     75.0072     76.2688     77.7692     82.0496     80.4224   1009.6937    235.0215      3.1834
    106.1000     63.0947      6.0000      0.2627    396.0000    442.0000    360.0000    284.0000    372.0000    224.0000     93.5312      1.2366      3.0000     78.6204     75.0072     76.2688     77.5128     82.0496     80.5478   1008.8755    235.0215      3.1910
    106.2000     63.8897      6.0000      0.2627    365.0000    381.0000    374.0000    342.0000    410.0000    317.0000     94.2890      1.2366      3.0000     78.4926     75.0072     76.2688     77.3846     82.0496     80.5478   1010.5120    235.0215      3.1964
    106.3000     64.7151      6.0000      0.2627    435.3622    342.6378    353.3622    341.3622    431.3307    306.8189     94.7894      1.2366      3.0000     78.5429     75.0072     76.2688     77.2564     82.0496     80.5478   1008.7015    235.0215      3.2012
    106.4000     65.5423      6.0000      0.2627    391.0000    624.0000    384.0000    215.0000    450.0000    373.0000     94.5969      1.2366      3.0000     78.6204     75.0072     76.1395     77.7692     82.0496     80.1715   1009.6937    235.0215      3.2081
    106.5000     65.7400      6.0000      0.2627    395.0000    394.0000    394.0000    374.0000    409.0000    412.0000     93.6139      1.2366      3.0000     78.6204     75.0072     76.2688     77.7692     82.0496     80.5478   1008.0573    235.0215      3.2170
    106.6000     65.7400      6.0000      0.2627    405.0236    414.5118    365.0394    407.5118    295.9370    357.9685     92.0046      1.2366      3.0000     78.6204     75.0072     76.2688     77.7692     82.0496     80.5478   1008.8755    235.0215      3.2274
    106.7000     66.0552      6.0000      0.2627    314.0000    316.0000    319.0000    245.0000    319.0000    331.0000     90.0979      1.2366      3.0000     78.3649     75.1334     75.8809     77.7692     82.0496     80.5478   1007.2390    235.0215      3.2388
    106.8000     66.9619      6.0000      0.2627    301.0000    326.0000    309.0000    349.0000    351.0000    270.0000     88.2064      1.2366      3.0000     78.2371     75.0072     76.1395     76.8718     82.0496     80.4224   1008.8755    235.0215      3.2504
    106.9000     67.5939      6.0000      0.2627    328.0000    344.0000    228.0000    317.0000    278.0000    290.0000     86.3754      1.2366      3.0000     78.2371     75.2595     75.8809     76.3590     82.0496     80.1715   1008.8755    235.0215      3.2612
    107.0000     67.7901      7.0000      0.2627    464.0000    619.0000    409.0000    606.0000    337.0000    497.0000     84.5823      1.2366      3.0000     78.2371     75.0072     76.0102     76.3590     82.0496     79.7951   1008.8755    235.0215      3.2709
    107.1000     68.3023      7.0000      0.2627    377.0000    354.0000    436.0000    333.0000    499.0000    349.0000     82.6512      1.2366      3.0000     78.4926     75.0072     75.8809     76.3590     82.0496     79.6697   1007.2390    235.0215      3.2802
    107.2000     69.2529      7.0000      0.2627    380.0000    405.0000    244.0000    486.0000    387.0000    339.0000     80.2559      1.2366      3.0000     78.3649     75.0072     75.8809     75.9743     82.0496     79.6697   1012.1484    235.0215      3.2893
    107.3000     68.4233      7.0000      0.2627    445.0000    455.0000    373.0000    421.0000    521.0000    324.0000     76.9777      1.2366      3.0000     78.3649     75.1334     76.1395     75.0769     82.0496     79.2933   1008.0573    235.0215      3.2968
    107.4000     68.8706      7.0000      0.2627    398.1339    426.8189    474.0079    313.3543    530.3071    335.7480     72.7739      1.2366      3.0000     78.2371     75.0658     75.8809     74.6327     82.0496     79.2933   1010.5699    235.0215      3.3010
    107.5000     70.7875      8.0000      0.2627    399.0000    542.0000    331.0000    800.0000    223.0000    540.0000     68.6403      1.2366      3.0000     78.2371     75.1334     75.8809     74.5641     82.0496     79.6697   1005.6026    235.0215      3.3032
