~Version Information
 VERS.                2.00:   CWLS log ASCII Standard -VERSION 2.00
 WRAP.                  NO:   One line per frame      
~Well Information Block
#MNEM.UNIT                   Data                        Description
#----.----   -----------------------------------------   -------------------------------
 STRT.M                                       26.9748 : Starting Depth
 STOP.M                                      187.9854 : Ending Depth
 STEP.M                                        0.0762 : Level Spacing
 NULL.                                      -999.2500 : Absent Value
 COMP.       SUNCOR ENERGY INC                        : Company
 WELL.       SUNCOR LEWIS 7-22-92-8                   : Well
 FLD .       UNDEFINED                                : Field
 LOC .       LSD 07-22-092-08W4                       : Location
 PROV.       ALBERTA                                  : Province
 CTRY.       CA                                       : Country
 SRVC.       Baker Hughes                             : Service Company
 DATE.       16-JAN-2016                              : Log Date
 UWI .       1AA072209208W400                         : Unique Well ID
 LIC .       0477502                                  : License Number
 LATI.DEG    57.0175 N                                : Latitude Coordinates
 LONG.DEG    -111.419 W                               : Longitude Coordinates
~Curve Information Block
#MNEM    .UNIT        API Codes     Curve Description
#--------.--------   LG--CV-CL--M   -------------------------------
 DEPT    .M           0 001  0  1 : Depth
 AZSTQH  .deg        99 995 99  1 : Azimuth of reference pad for STAR
 BKRGQH  .dim        99 995 99  1 : Bucker driver value
 DEVSTQH .deg        99 995 99  1 : Deviation for STAR
 DIP1QH  .raw        75 610  1  1 : Pad 1 average data of buttons 11, 12, 13, 14
 DIP2QH  .raw        75 610  1  1 : Pad 2 average data of buttons 11, 12, 13, 14
 DIP3QH  .raw        75 610  1  1 : Pad 3 average data of buttons 11, 12, 13, 14
 DIP4QH  .raw        75 610  1  1 : Pad 4 average data of buttons 11, 12, 13, 14
 DIP5QH  .raw        75 610  1  1 : Pad 5 average data of buttons 11, 12, 13, 14
 DIP6QH  .raw        75 610  1  1 : Pad 6 average data of buttons 11, 12, 13, 14
 GR      .gAPI       30 310  1  1 : Gamma ray
 PADFQH  .pct        94 995 99  1 : Pad force
 PADGQH  .dim        99 995 99  1 : Pad gain code
 RAD1QH  .mm         75 280 99  1 : Radius, tool axis to pad 1 face
 RAD2QH  .mm         75 280 99  1 : Radius, tool axis to pad 2 face
 RAD3QH  .mm         75 280 99  1 : Radius, tool axis to pad 3 face
 RAD4QH  .mm         75 280 99  1 : Radius, tool axis to pad 4 face
 RAD5QH  .mm         75 280 99  1 : Radius, tool axis to pad 5 face
 RAD6QH  .mm         75 280 99  1 : Radius, tool axis to pad 6 face
 RAZGSTQH.mG         99 995 99  1 : Raw Z-axis accelerometer shifted to STAR
 RBSTQH  .deg        99 995 99  1 : Relative bearing (relative to borehole high side) for STAR
 SPD     .m/min      99 636 99  1 : Speed
~Parameter Information Block
#MNEM.UNIT                     Value                    Description
#----.----   ----------------------------------------   -------------------------------
 HID1.       RESISTIVITY IMAGING LOG^T                : Header Identifer
 HID2.       GAMMA RAY LOG                            : Header Identifer
 FILE.       3953                                     : File Number
 CMT1.       UID                                      : Comment 1  
 CMT2.       1AA072209208W400                         : Comment 2  
 CMT3.       LICENSE                                  : Comment 3  
 CMT4.       0477502                                  : Comment 4  
 FL2 .       BH LOC. LSD  07                          : Field Location 2
 SECT.       22                                       : Section
 TOWN.       092                                      : Township
 RANG.       08W4                                     : Range
 OS1 .       ZDL-CN-GR-CAL                            : Other Services Line 1
 OS2 .       HDIL-GR-CAL, CVL                         : Other Services Line 2
 OS3 .       DAL-GR-CAL                               : Other Services Line 3
 OS4 .       COMPOSITE                                : Other Services Line 4
 PDAT.       G.L.                                     : Permanent Datum
 EPD .M      438.50                                   : Elevation Of Perm. Datum
 LMF .       K.B.                                     : Log Measured From
 APD .M      2.20                                     : Above Permanent Datum
 DMF .       KELLY BUSHING                            : Drilling Measured From
 EKB .M      440.70                                   : Elevation Of Kelly Bushing
 EGL .M      438.50                                   : Elevation Of Ground Level
 RUN .       1                                        : Run Number
 TRIP.       1                                        : Trip Number
 SON .       CA003953J                                : Service Order Number
 TDD .M      187.0                                    : Total Depth - Driller
 TDL .M      186.3                                    : Total Depth - Logger
 BLI .M      183.0                                    : Bottom Log Interval
 TLI .M      55.0                                     : Top Log Interval
 CSIZ.MM     177.8                                    : Casing Size
 CBDR.M      49.4                                     : Casing Bottom - Driller
 CBLO.M      49.4                                     : Casing Bottom - Logger
 BS  .MM     156.0                                    : Bit Size
 DFT .       WB (WATER BASE MUD)                      : Drilling Fluid Type
 DFD .G/L    1030.0                                   : Drilling Fluid Density
 DFV .S      79.0                                     : Drilling Fluid Viscosity
 DFPH.       7.0                                      : Drilling Fluid Ph
 DFL .ML     8.0                                      : Drilling Fluid Loss
 MSS .       F (FLOWLINE)                             : Mud Sample Source
 RMS .OHMM   1.2                                      : Resistivity Of Mud Sample
 MST .DEGC   25.0                                     : Mud Sample Temperature
 RMFS.OHMM   1.0                                      : Resistivity Of Mud Filtrate Sample
 MFST.DEGC   25.0                                     : Mud Filtrate Sample Temperature
 RMCS.OHMM   1.4                                      : Resistivity Of Mud Cake Sample
 MCST.DEGC   25.0                                     : Mud Cake Sample Temperature
 MFSS.       CALCULATED                               : Mud Filtrate Sample Source
 MCSS.       CALCULATED                               : Mud Cake Sample Source
 RMB .OHMM   2.0                                      : Mud Resistivity At Bht
 BHT .DEGC   7.0                                      : Bottom Hole Temperature
 TSC .       5.0 HOURS                                : Time Since Circulation
 MRT .DEGC   7.0                                      : Maximum Recorded Temperature
 LUN .       Z004250                                  : Logging Unit Number
 LUL .       LEDUC OH                                 : Logging Unit Location
 ENGI.       A.MALIK                                  : Engineer's Name
 WITN.       H.WILSON / P.ENE                         : Witness' Name
 TSTR.       /STAR/GR/                                : Title Service Mnemonic
 TSTG.       NA                                       : Title Service Mnemonic
 STUS.       FINAL                                    : Status
 LCNM.       BAKER ATLAS                              : Logging Company Name
 LCC .       150                                      : Logging Company Code
 OPMD.       OH.WIRE                                  : Operation Mode
 PANA.       A.MALIK                                  : Processing Analyst
 PCON.       BAKER ATLAS                              : Processing Contractor
 APIN.                                                : API Serial Number
 STAT.                                                : State Or Province
~Other information
LAT/LON  57.0175, -111.419                                                      
TIME STOPPED CIRCULATION  16-JAN-2016 0830AM                                    
STAR RUN WITH 0% PAD FORCE AND AUTOMATICALLY CONTROLLED GAINS                   
ANY STICK AND PULL AFFECTS LOG QUALITY                                          
RIG  ENCORE 402                                                                 
CREW  F.AJAGU, A.MALIK                                                          
#  Curve Data
~A   DEPT         AZSTQH       BKRGQH       DEVSTQH      DIP1QH       DIP2QH       DIP3QH       DIP4QH       DIP5QH       DIP6QH       GR           PADFQH       PADGQH       RAD1QH       RAD2QH       RAD3QH       RAD4QH       RAD5QH       RAD6QH       RAZGSTQH     RBSTQH       SPD       
# ...
     116.5860     134.4203      10.0000       0.1915     238.0000     259.0000     368.0000     246.0000     363.0000      27.0000      25.3559       1.1304       5.0000      78.6204      75.0072      73.6828      74.6923      82.0496      79.5442     999.8749     294.0577       3.4301
     116.6622     133.4748      10.0000       0.1915     867.0000     341.0000     639.0000     234.0000     481.0000      98.0000      26.9037       1.2366       5.0000      78.6204      74.8811      74.5879      74.1795      81.9216      80.2969    1012.1484     294.0577       3.4282
     116.7384     132.2529      10.0000       0.1915     402.0000     791.0000     281.0000     283.0000     252.0000     191.0000      28.2959       1.2366       5.0000      78.8759      75.0072      74.5879      75.0769      81.9216      80.0460    1003.1479     294.0577       3.4277
     116.8146     133.2778      10.0000       0.1915     238.0000     202.0000     255.0000     281.0000     196.0000     160.0000      29.3570       1.2366       5.0000      78.7481      75.0072      74.9758      75.2051      82.0496      80.1715    1010.5120     294.0577       3.4284
     116.8908     134.8155      10.0000       0.1914     492.0000     208.0000     382.0000     224.0000     414.0000      44.0000      29.9872       1.2366       5.0000      78.8759      75.0072      74.9758      75.4615      82.0496      80.0460    1018.6942     294.0577       3.4294
     116.9670     134.8155      10.0000       0.1915     414.0000     264.0000     287.0000     166.0000     409.0000     136.0000      30.1306       1.2366       5.0000      78.8759      75.0072      74.9758      75.0769      82.0496      80.0460    1010.5120     294.0577       3.4283
     117.0432     135.0135      10.0000       0.1468     417.0000     391.0000     396.0000     314.0000     292.0000     162.0000      29.7304       1.2366       5.0000      78.1094      75.0072      74.9758      75.0769      82.0496      80.0460    1012.1484     298.4564       3.4236
     117.1194     134.5007      10.0000       0.1469     546.0000     287.0000     830.0000     340.0000     409.0000     128.0000      28.8080       1.2366       5.0000      78.6204      75.0072      74.9758      75.4615      82.0496      79.6697    1009.6937     298.4564       3.4152
     117.1956     135.3279      10.0000       0.1468     512.0000     698.0000     425.0000     457.0000     316.0000     166.0000      27.5498       1.2366       5.0000      78.6204      75.0072      74.7172      75.8461      81.9216      79.7951    1011.3301     298.4564       3.4055
     117.2718     136.1532      10.0000       0.1469     475.0000     358.0000     297.0000     223.0000     273.0000     265.0000      26.2962       1.2366       5.0000      78.6204      75.0072      74.9758      75.4615      82.0496      79.6697    1002.3297     298.4564       3.3978
     117.3480     136.5503      10.0000       0.1468     350.0000     301.0000     283.0000     170.0000     297.0000     156.0000      25.4411       1.2366       5.0000      78.6204      75.0072      74.9758      75.4615      82.0496      79.7951    1012.9667     298.4564       3.3945
     117.4242     137.6595      10.0000       0.1468     124.0000     177.0000     110.0000     116.0000     175.0000      88.0000      25.2248       1.2366       4.0000      78.7481      75.0072      74.9758      75.8461      82.0496      79.7951    1009.6937     298.4564       3.3959
     117.5004     138.6813      10.0000       0.1468     205.0000     222.0000     210.0000     106.0000     107.0000      49.0000      25.6201       1.2366       4.0000      78.6204      75.0072      74.9758      75.8461      82.0496      79.6697    1007.2390     298.4564       3.4002
     117.5766     139.2809      10.0000       0.1468     197.0000     152.0000     218.0000     236.0000     142.0000      57.0000      26.3504       1.2366       4.0000      78.4926      75.0072      74.9758      75.8461      82.0496      79.6697    1009.6937     298.4564       3.4048
     117.6528     139.9908      10.0000       0.1468     203.0000     150.0000     501.0000     370.0000     287.0000      18.0000      27.0037       1.2366       4.0000      78.4926      75.0072      74.9758      75.8461      82.0496      79.6697    1012.1484     298.4564       3.4084
     117.7290     140.9001      10.0000       0.1038     308.0000     292.0000     527.0000     338.0000     323.0000     209.0000      27.2313       1.2366       4.0000      78.3649      75.0072      75.1051      75.7179      81.9216      79.7951    1012.9667     306.5865       3.4105
     117.8052     141.5959      10.0000       0.1038     258.0000     497.0000     621.0000     652.0000     415.0000     244.0000      26.9483       1.2366       4.0000      78.6204      75.0072      74.9758      75.8461      81.9216      79.6697    1008.8755     306.5865       3.4109
     117.8814     142.3047      10.0000       0.1038     315.0000     408.0000     485.0000     435.0000     305.0000     231.0000      26.3411       1.2366       4.0000      78.6204      75.0072      74.9758      75.8461      82.0496      79.6697    1007.2390     306.5865       3.4101
     117.9576     142.7067      10.0000       0.1038     471.0000     589.0000     571.0000    1018.0000     636.0000     208.0000      25.7162       1.2366       5.0000      78.6204      74.8811      74.9758      75.5897      81.9216      79.7951    1011.3301     306.5865       3.4078
     118.0338     143.0119      10.0000       0.1038     602.0000     438.0000     487.0000     435.0000     287.0000     277.0000      25.3183       1.2366       5.0000      78.1094      75.0072      74.9758      75.4615      82.0496      79.6697    1012.1484     306.5865       3.4045
     118.1100     142.9078      10.0000       0.1038     389.0000     422.0000     274.0000     480.0000     465.0000     284.0000      25.1922       1.2366       5.0000      78.6204      75.0072      74.8465      75.9743      81.9216      79.6697    1007.2390     306.5865       3.4003
     118.1862     141.9981      10.0000       0.1038     221.0000     341.0000     130.0000     334.0000     217.0000     305.0000      25.1570       1.2366       5.0000      78.6204      75.0072      74.9758      75.5897      81.9216      79.6697    1003.9661     306.5865       3.3966
     118.2624     141.1940      10.0000       0.1038    1023.0000     469.0000     232.0000     183.0000     217.0000     257.0000      24.9682       1.2366       5.0000      78.6204      75.0072      74.9758      75.8461      82.0496      79.6697    1009.6937     306.5865       3.3939
     118.3386     141.3949      10.0000       0.1038     345.0000     846.0000     332.0000     221.0000     266.0000      11.0000      24.4949       1.1304       5.0000      78.6204      75.0072      74.9758      75.9743      82.0496      79.6697    1012.1484     306.5865       3.3921
     118.4148     141.3949      10.0000       0.1038     142.0000     170.0000     240.0000     225.0000     110.0000     113.0000      23.7771       1.2366       5.0000      78.6204      75.0072      74.7172      75.9743      82.0496      79.6697    1009.6937     306.5865       3.3909
     118.4910     140.6846      10.0000       0.1038     731.0000     230.0000     585.0000     182.0000     388.0000       2.0000      23.0183       1.2366       6.0000      78.6204      75.0072      74.9758      75.9743      81.9216      79.6697    1023.6036     306.5865       3.3897
     118.5672     141.5959      10.0000       0.1038     259.0000     731.0000     238.0000     646.0000     183.0000     627.0000      22.4920       1.2366       6.0000      78.8759      75.0072      74.7172      75.4615      82.0496      79.6697    1006.4208     306.5865       3.3887
     118.6434     141.3949      10.0000       0.1038     198.0000     176.0000     234.0000     188.0000     188.0000       1.0000      22.3887       1.2366       6.0000      78.1094      75.0072      74.5879      75.4615      82.0496      80.0460    1009.6937     306.5865       3.3887
