~VERSION INFORMATION 
VERS.          2.0   :CWLS LOG ASCII STANDARD - VERSION 2.0
WRAP.          NO    :ONE LINE PER DEPTH STEP
PROD.  Schlumberger   :LAS Producer
PROG.  DLIS to ASCII 19C2-270                          :LAS Program name and version
CREA.        2014/02/23 09:08                          :LAS Creation date {YYYY/MM/DD hh:mm}
DLIS_CREA.  2014-Feb-23 08:51                          :DLIS Creation date and time {YYYY-MMM-DD hh:mm}
SOURCE.     1AA063409108W400_FMI_SONIC_REPEAT.dlis     :DLIS File Name
FILE-ID.     ConPr_R2L2Up_S008_FBST_DSLT_HGNS          :File Identification Number
#--------------------------------------------------
~WELL INFORMATION 
#MNEM.UNIT      DATA             DESCRIPTION
#---- ------ --------------   -----------------------------
STRT.M      88.69680        :START DEPTH
STOP.M      258.01320       :STOP DEPTH
STEP.M       0.15240        :STEP
NULL .          -999.25      :NULL VALUE
COMP.        SUNCOR ENERGY INC.                       :COMPANY
WELL.        SUNCOR LEWIS 6-34-91-8                   :WELL
FLD  .        LEWIS                                    :FIELD
LOC.        6-34-91-8W4                              :LOCATION
PROV .        ALBERTA                                  :PROVINCE
UWI.        1AA063409108W400                         :UNIQUE WELL ID
LIC  .        0464072                                  :LICENSE NUMBER
CTRY .        CA                                       :COUNTRY (WWW code)
DATE.        23-Feb-2014                              :LOG DATE {DD-MMM-YYYY}
SRVC .        Schlumberger                             :SERVICE COMPANY
LATI .DEG     56.934500 degrees                        :LATITUDE
LONG .DEG     -111.20540 degrees                       :LONGITUDE
GDAT .                                                 :GeoDetic Datum
SECT .        06-34                                    :Section
RANG .        08W4                                     :Range
TOWN .        091                                      :Township
#-----------------------------------------------------------------------------
~CURVE INFORMATION 
#MNEM.UNIT   API CODE                                  DESCRIPTION
#---- -----  --------                                  -----------------------
 DEPT.M         00 001 00 00             :Depth Index - Measured Depth
   BS.MM        61 280 07 00             :BIT SIZE {F14.5}
   C1.MM        42 280 06 00             :CALIPER 1 {F14.5}
   C2.MM        42 280 05 00             :CALIPER 2 {F14.5}
DEPTH.M         00 001 00 00             :DEPTH INDEX {F14.5}
DEVIM.DEG       00 630 00 00             :MEMORIZED DEVIATION {F14.5}
   DT.US/M      60 520 32 00             :DELTA-T (ALSO CALLED SLOWNESS OR INTERVAL TRANSIT TIME) {F14.5}
   EI.MA        00 000 00 00             :EMEX CURRENT {F14.5}
   EV.V         00 000 00 00             :EMEX VOLTAGE {F14.5}
 FBCR.OHMS      00 000 00 00             :CORRELATION RESISTANCE {F14.5}
   GR.GAPI      42 310 01 00             :GAMMA RAY {F14.5}
 HAZI.DEG       00 620 00 00             :HOLE AZIMUTH RELATIVE TO TRUE NORTH {F14.5}
HAZIM.DEG       00 620 00 00             :HOLE AZIMUTH RELATIVE TO TRUE NORTH {F14.5}
 P1AZ.DEG       00 630 00 00             :PAD 1 AZIMUTH IN HORIZONTAL PLANE (0 = TRUE NORTH) {F14.5}
P1NO_FBST.DEG   00 000 00 00             :PAD 1 AZIMUTH IN PLANE ORTHOGONAL TO TOOL AXIS (0 = TRUE NORTH), MEMORIZED TO FBST {F14.5}
   RB.DEG       00 631 00 00             :RELATIVE BEARING {F14.5}
 SDEV.DEG       00 000 00 00             :SONDE DEVIATION {F14.5}
 TENS.N         61 280 10 00             :CABLE TENSION {F14.5}
  TT1.US        60 520 32 01             :TRANSIT TIME 1 {F14.5}
  TT2.US        60 520 32 02             :TRANSIT TIME 2 {F14.5}
  TT3.US        60 520 32 03             :TRANSIT TIME 3 {F14.5}
  TT4.US        60 520 32 04             :TRANSIT TIME 4 {F14.5}
~PARAMETER INFORMATION 
#MNEM.UNIT    VALUE                      DESCRIPTION
#---- -----   --------------------       ------------------------
 CSGD.M       72.80000                   :Casing Bottom of Driller
 CSGL.M       73.20000                   :Logger Casing Shoe Depth
 CSGS.MM      177.80000                  :Current Casing Size
 CSGW.KG/M    25.30000                   :Casing Weight
 MUDD.K/M3    1090.00000                 :Drilling Fluid Density
  DFL.C3      6.00000                    :Drilling Fluid Loss
   PH.        10.00000                   :Drilling Fluid pH
  MUD.        Polymer                    :Drilling Fluid Type
 MUDV.S       108.00000                  :Drilling Fluid Viscosity
   GL.M       445.00000                  :Elevation of Ground Level
 EREF.M       449.00000                  :Elevation of Kelly Bushing
  ENG.        NICK POLLEY                :Engineer s Name
 DREF.        KB                         :Logging Measured From (Name of Logging Elevation Reference)
 BASE.        WINTER PROJECT             :LOGGING UNIT LOCATION
 FACT.        CP4P-00020                 :Service Order Number
  LIC.        0464072                    :API Well Number
 PROV.        ALBERTA                    :County or Parish
 UNIT.        3125                       :Logging Unit Number
 RMCT.DEGC    8.73000                    :Mudcake Sample Temperature
 RMFT.DEGC    8.73000                    :Mud Filtrate Sample Temperature
 TMAX.DEGC    12.28000                   :Maximum Recorded Temperature
 MUDS.        Flowline                   :Mud Sample Source
  RMT.DEGC    8.73000                    :Mud Sample Temperature
RANGE.        08W4                       :Range
  RMC.OHMM    1.18000                    :Resistivity of Mud Cake Sample
  RMF.OHMM    0.59200                    :Resistivity of Mud Filtrate Sample
   RM.OHMM    0.78900                    :Resistivity of Mud Sample
SECTION.      06-34                      :Section
 TIMC.        01 55 00                   :Time Circulation Stopped
 TIML.        07 55 00                   :Time Logger At Bottom
TOWNSHIP.     091                        :Township
  WIT.        JONATHAN FELL              :Witness s Name
  APD.M       4.00000                    :Elevation of Depth Reference (LMF) Above Permanent Datum
 APIN.        0464072                    :API Well Number
  BHT.DEGC    12.28000                   :Bottom Hole Temperature
  BLI.M       256.00000                  :Bottom Log Interval
   BS.MM      156.00000                  :Bit Size
   CN.        SUNCOR ENERGY INC.         :Company Name
 COUN.        ALBERTA                    :County or Parish
 LDAT.        23-Feb-2014                :Tools Above Rotary Table Date
  DCS.        23-Feb-2014                :Date Circulation Stopped
  DFL.C3      6.00000                    :Drilling Fluid Loss
 DLAB.        23-Feb-2014                :Date Logger At Bottom
  DMF.        KB                         :Drilling Measured From (Name of Drilling Elevation Reference)
  EDF.M       448.70001                  :Elevation of Drill Floor
  EGL.M       445.00000                  :Elevation of Ground Level
  EKB.M       449.00000                  :Elevation of Kelly Bushing
   FD.K/M3    1000.00000                 :Fluid Density
   FL.        6-34-91-8W4               :FIELD LOCATION
  FL1.        1AA063409108W400           :Field Location, Line 1
  FL2.                                   :Field Location, Line 2
   FN.        LEWIS                      :Field Name
 HID1.                                   :Header Identifier 1
 HID2.                                   :Header Identifier 2
 HIDE.        LEWIS                      :Header Identifier
 LATI.        56.934500 degrees          :Latitude
  LMF.        KB                         :Logging Measured From (Name of Logging Elevation Reference)
 LONG.        -111.20540 degrees         :Longitude
 MATR.        SAND                       :Rock Matrix for Neutron Porosity Corrections
 MCSS.        Calculated                 :Mudcake Sample Source
 MDEC.DEG     14.38033                   :Magnetic Field Declination
 MDEN.K/M3    2650.00000                 :Matrix Density for Density Porosity
 MRT1.DEGC    12.28000                   :Maximum Recorded Temperature 1
 MRT2.DEGC    -999.25000                 :Maximum Recorded Temperature 2
  NMT.        NOBARITE                   :HRDD Mud Type for Nuclear Devices
  OS1.                                   :Other Services Line 1
  OS2.                                   :Other Services Line 2
  OS3.                                   :Other Services Line 3
  OS4.                                   :Other Services Line 4
  OS5.                                   :Other Services Line 5
 PDAT.        GL                         :Permanent Datum
   R1.        THANK YOU FOR CHOOSING SCHLUMBERGER  :Remarks Line 1
   R2.        ALL TOOLS RAN AS PER TOOL SKETCH AND ALL PRESENTATIONS AS PER CLIENT REQUEST  :Remarks Line 2
   R3.        INDUCTION LOG – DESCENT #1 :Remarks Line 3
   R4.        NEUTRON / DENSITY LOG – DESCENT #1  :Remarks Line 4
  RMB.OHMM    0.70618                    :Resistivity of Mud at Bottom Hole Temperature
 RMFB.OHMM    0.52986                    :Resistivity of Mud Filtrate At Bottom Hole Temperature
  RUN.        ONE/2                      :Run Number
  SON.        CP4P-00020                 :SERVICE ORDER NUMBER
  TDD.M       256.00000                  :Driller Total Depth
  TDL.M       256.00000                  :Logger Total Depth
  TLI.M       75.00000                   :Top Log Interval
 UWID.        1AA063409108W400           :Unique Well Identifier
   WN.        SUNCOR LEWIS 6-34-91-8     :Well Name
  EPD.C3      445.000000                 :Elevation of Permanent Datum above Mean Sea Level
#-----------------------------------------------------------------------------
#
#      DEPT          BS            C1            C2            DEPTH         DEVIM         DT            EI            EV            FBCR          GR            HAZI          HAZIM         P1AZ        P1NO_FBST       RB            SDEV          TENS          TT1           TT2           TT3           TT4
#
#-----------------------------------------------------------------------------

~A       DEPT           BS           C1           C2        DEPTH        DEVIM           DT           EI           EV         FBCR           GR         HAZI        HAZIM         P1AZ    P1NO_FBST           RB         SDEV         TENS          TT1          TT2          TT3          TT4
# ...
    112.47120     159.00000     146.97052     143.15063     112.47462       0.44097     362.97784    3225.93823       7.64165   73788.64063      88.97949     217.77625     227.92844     352.95831     342.96164     135.18137       0.42235    4800.81738     698.37128     444.72980     699.87982     463.14807
    112.62360     159.00000     146.97052     143.79408     112.62550       0.44387     418.80276    3394.64966       7.29076   82136.57031      90.86452     218.67870     229.22409     348.54086     338.71655     129.86130       0.41883    4657.88135     714.38501     484.45102     730.06512     498.40857
    112.77600     159.00000     144.51311     140.57684     112.77586       0.44603     468.12955    3362.27026       7.23227   75955.25781      96.89742     219.54787     230.49341     345.06491     333.37704     125.51567       0.41574    4493.89014     744.40820     525.24341     762.53259     541.39349
    112.92840     159.00000     144.51311     140.57684     112.92793       0.44677     473.83115    3290.69629       6.99835   76645.95313      94.63523     220.31996     231.62529     340.76672     325.16800     120.44820       0.41245    4436.35986     782.61896     573.09375     801.13690     581.80322
    113.08080     159.00000     142.97726     139.93341     113.07999       0.44760     485.26968    3392.94556       6.88138   80427.67969      98.65688     220.99677     232.64619     336.32382     312.50955     115.32827       0.40941    4496.85547     822.61261     577.40961     832.93018     582.97589
    113.23320     159.00000     142.05574     138.00307     113.23509       0.44786     487.06174    3288.99219       6.88138   86579.43750      94.00649     221.52916     233.47372     329.68964     305.88129     108.16249       0.40548    4580.55615     862.76172     580.50385     863.98932     584.33374
    113.38560     159.00000     140.82706     137.68137     113.39004       0.44715     489.16284    3430.43628       6.78391   81699.57813      98.90787     221.96324     234.10042     320.61993     299.28125      98.65728       0.40173    4750.70068     870.74518     581.74670     868.87012     580.88666
    113.53800     159.00000     140.51985     137.68137     113.54125       0.44658     492.10135    3294.10425       6.93986   79423.57813      98.53114     222.27406     234.58163     312.51022     291.66922      90.23814       0.39757    4595.30957     875.09204     585.05756     872.10516     582.94739
    113.69040     159.00000     140.82706     138.00307     113.69229       0.44583     480.59763    3428.73267       6.76442   75786.29688     101.92455     222.60535     234.93481     305.88214     288.15884      83.27932       0.39281    4799.92773     875.81512     588.03125     873.34052     585.94080
    113.84280     159.00000     140.51985     138.00307     113.84317       0.44571     485.88901    3462.81567       6.92037   74254.12500      99.92925     222.84520     235.15855     299.28223     285.73672      76.43784       0.38875    4992.09082     857.76849     584.10339     846.42938     580.79144
    113.99520     159.00000     141.44139     138.00307     113.99269       0.44429     485.21661    3389.53687       6.82290   75977.61719      98.67250     222.96729     235.37131     291.67032     287.28653      68.70061       0.38486    5310.88037     836.79779     582.87701     830.63171     578.38849
    114.14760     159.00000     142.67007     139.93341     114.14791       0.44402     485.02359    3387.83252       6.99835   83944.50000      95.53043     223.08434     235.52815     288.15997     288.03738      65.07481       0.38170    5494.66602     833.77905     558.78705     826.92261     545.01599
    114.30000     159.00000     146.35617     143.15063     114.30308       0.44285     456.72821    3253.20483       7.13480   82255.67969      87.97419     223.10701     235.76122     285.73785     288.22769      62.63017       0.37930    5312.95605     831.84027     528.43835     832.20044     526.22540
    114.45240     159.00000     148.81358     149.26337     114.45277       0.44280     411.40305    3324.77954       7.05683   93800.03125      86.42642     223.05101     235.97005     287.28766     288.55246      64.23779       0.37887    5224.58447     828.06165     529.41589     830.65649     531.10663
    114.60480     159.00000     150.96381     152.80231     114.60619       0.44347     410.69427    3224.23462       7.21278  284133.56250      82.02790     222.90259     236.25922     288.03851     287.11224      65.13505       0.37983    5084.31738     823.64575     529.86859     833.15967     533.30469
    114.75720     159.00000     151.88531     152.80231     114.75893       0.44487     409.27591    3323.07495       7.07632   72667.82813      88.18620     222.82272     236.54411     288.22879     283.89960      65.40614       0.38232    5034.79395     825.94659     530.47473     834.26349     533.01874
    114.90960     159.00000     151.88531     152.80231     114.90896       0.44751     471.15332    3418.50757       7.19329   79526.77344      88.35118     222.70789     236.90923     288.55359     282.49576      65.84363       0.38665    4881.77490     829.57990     526.86530     836.29950     531.04230
    115.06200     159.00000     155.57140     155.37610     115.06136       0.45010     489.14114    3346.93311       7.11531   78968.77344      94.25772     222.71330     237.37398     287.11343     280.32224      64.40046       0.39283    4980.82227     833.58978     539.06934     836.96295     558.53101
    115.21440     159.00000     154.95706     155.37610     115.21375       0.45364     488.82187    3350.34155       6.97885   74230.90625      97.14818     222.81854     237.93869     283.90088     279.80765      61.08335       0.39967    5406.07227     835.46857     574.83344     839.14258     585.27539
    115.36680     159.00000     156.18576     157.62816     115.36616       0.45662     487.95239    3358.86230       6.90088   80557.25000     101.29552     223.04897     238.53691     282.49713     279.42014      59.44868       0.40690    5614.54541     850.98828     584.31073     879.19531     585.84729
    115.51920     159.00000     156.80011     159.88022     115.52110       0.45920     495.26315    3358.86230       6.90088   79338.71094      99.06929     223.56108     239.29192     280.32367     278.27536      56.76228       0.41479    5783.52246     888.72852     585.29431     889.41168     590.41772
    115.67160     159.00000     159.54208     159.88022     115.67451       0.46078     498.62360    3399.76196       6.88138   74280.14844     100.82863     224.21042     240.04001     279.80917     276.95038      55.59908       0.42192    5248.01172     896.79102     591.12964     889.52325     586.33368
    115.82400     159.00000     161.10054     165.02777     115.82555       0.46167     505.97049    3362.27026       6.86189   77309.78906     102.40742     225.06355     240.82182     279.42169     275.98340      54.35645       0.42847    4999.80127     895.52301     591.04034     889.19128     589.32477
    115.97640     159.00000     161.10054     165.02777     115.97575       0.46169     501.80014    3358.86230       6.82290   80234.53906     107.39842     226.05244     241.58325     278.27698     274.53989      52.22258       0.43434    4784.50732     893.63904     592.99762     892.62177     592.31543
    116.12880     159.00000     163.55794     165.02777     116.12595       0.46154     503.95239    3360.56665       6.76442   73664.54688     106.26711     227.23405     242.18900     276.95206     273.17978      49.72011       0.43871    4681.90186     892.85767     596.48688     894.26752     595.14026
    116.28120     159.00000     164.17229     160.52365     116.27785       0.46134     498.23621    3358.86230       6.64745   75960.31250     109.48194     228.44032     242.61656     275.98511     269.15491      47.54074       0.44243    4459.19385     895.30298     594.37024     898.86218     594.87482
