~Version Information
 VERS.                2.00:   CWLS log ASCII Standard -VERSION 2.00
 WRAP.                  NO:   One line per frame      
~Well Information Block
#MNEM.UNIT                   Data                        Description
#----.----   -----------------------------------------   -------------------------------
 STRT.M                                       26.9748 : Starting Depth
 STOP.M                                      187.9854 : Ending Depth
 STEP.M                                        0.0762 : Level Spacing
 NULL.                                      -999.2500 : Absent Value
 COMP.       SUNCOR ENERGY INC                        : Company
 WELL.       SUNCOR LEWIS 7-22-92-8                   : Well
 FLD .       UNDEFINED                                : Field
 LOC .       LSD 07-22-092-08W4                       : Location
 PROV.       ALBERTA                                  : Province
 CTRY.       CA                                       : Country
 SRVC.       Baker Hughes                             : Service Company
 DATE.       16-JAN-2016                              : Log Date
 UWI .       1AA072209208W400                         : Unique Well ID
 LIC .       0477502                                  : License Number
 LATI.DEG    57.0175 N                                : Latitude Coordinates
 LONG.DEG    -111.419 W                               : Longitude Coordinates
~Curve Information Block
#MNEM    .UNIT        API Codes     Curve Description
#--------.--------   LG--CV-CL--M   -------------------------------
 DEPT    .M           0 001  0  1 : Depth
 AZSTQH  .deg        99 995 99  1 : Azimuth of reference pad for STAR
 BKRGQH  .dim        99 995 99  1 : Bucker driver value
 DEVSTQH .deg        99 995 99  1 : Deviation for STAR
 DIP1QH  .raw        75 610  1  1 : Pad 1 average data of buttons 11, 12, 13, 14
 DIP2QH  .raw        75 610  1  1 : Pad 2 average data of buttons 11, 12, 13, 14
 DIP3QH  .raw        75 610  1  1 : Pad 3 average data of buttons 11, 12, 13, 14
 DIP4QH  .raw        75 610  1  1 : Pad 4 average data of buttons 11, 12, 13, 14
 DIP5QH  .raw        75 610  1  1 : Pad 5 average data of buttons 11, 12, 13, 14
 DIP6QH  .raw        75 610  1  1 : Pad 6 average data of buttons 11, 12, 13, 14
 GR      .gAPI       30 310  1  1 : Gamma ray
 PADFQH  .pct        94 995 99  1 : Pad force
 PADGQH  .dim        99 995 99  1 : Pad gain code
 RAD1QH  .mm         75 280 99  1 : Radius, tool axis to pad 1 face
 RAD2QH  .mm         75 280 99  1 : Radius, tool axis to pad 2 face
 RAD3QH  .mm         75 280 99  1 : Radius, tool axis to pad 3 face
 RAD4QH  .mm         75 280 99  1 : Radius, tool axis to pad 4 face
 RAD5QH  .mm         75 280 99  1 : Radius, tool axis to pad 5 face
 RAD6QH  .mm         75 280 99  1 : Radius, tool axis to pad 6 face
 RAZGSTQH.mG         99 995 99  1 : Raw Z-axis accelerometer shifted to STAR
 RBSTQH  .deg        99 995 99  1 : Relative bearing (relative to borehole high side) for STAR
 SPD     .m/min      99 636 99  1 : Speed
~Parameter Information Block
#MNEM.UNIT                     Value                    Description
#----.----   ----------------------------------------   -------------------------------
 HID1.       RESISTIVITY IMAGING LOG^T                : Header Identifer
 HID2.       GAMMA RAY LOG                            : Header Identifer
 FILE.       3953                                     : File Number
 CMT1.       UID                                      : Comment 1  
 CMT2.       1AA072209208W400                         : Comment 2  
 CMT3.       LICENSE                                  : Comment 3  
 CMT4.       0477502                                  : Comment 4  
 FL2 .       BH LOC. LSD  07                          : Field Location 2
 SECT.       22                                       : Section
 TOWN.       092                                      : Township
 RANG.       08W4                                     : Range
 OS1 .       ZDL-CN-GR-CAL                            : Other Services Line 1
 OS2 .       HDIL-GR-CAL, CVL                         : Other Services Line 2
 OS3 .       DAL-GR-CAL                               : Other Services Line 3
 OS4 .       COMPOSITE                                : Other Services Line 4
 PDAT.       G.L.                                     : Permanent Datum
 EPD .M      438.50                                   : Elevation Of Perm. Datum
 LMF .       K.B.                                     : Log Measured From
 APD .M      2.20                                     : Above Permanent Datum
 DMF .       KELLY BUSHING                            : Drilling Measured From
 EKB .M      440.70                                   : Elevation Of Kelly Bushing
 EGL .M      438.50                                   : Elevation Of Ground Level
 RUN .       1                                        : Run Number
 TRIP.       1                                        : Trip Number
 SON .       CA003953J                                : Service Order Number
 TDD .M      187.0                                    : Total Depth - Driller
 TDL .M      186.3                                    : Total Depth - Logger
 BLI .M      183.0                                    : Bottom Log Interval
 TLI .M      55.0                                     : Top Log Interval
 CSIZ.MM     177.8                                    : Casing Size
 CBDR.M      49.4                                     : Casing Bottom - Driller
 CBLO.M      49.4                                     : Casing Bottom - Logger
 BS  .MM     156.0                                    : Bit Size
 DFT .       WB (WATER BASE MUD)                      : Drilling Fluid Type
 DFD .G/L    1030.0                                   : Drilling Fluid Density
 DFV .S      79.0                                     : Drilling Fluid Viscosity
 DFPH.       7.0                                      : Drilling Fluid Ph
 DFL .ML     8.0                                      : Drilling Fluid Loss
 MSS .       F (FLOWLINE)                             : Mud Sample Source
 RMS .OHMM   1.2                                      : Resistivity Of Mud Sample
 MST .DEGC   25.0                                     : Mud Sample Temperature
 RMFS.OHMM   1.0                                      : Resistivity Of Mud Filtrate Sample
 MFST.DEGC   25.0                                     : Mud Filtrate Sample Temperature
 RMCS.OHMM   1.4                                      : Resistivity Of Mud Cake Sample
 MCST.DEGC   25.0                                     : Mud Cake Sample Temperature
 MFSS.       CALCULATED                               : Mud Filtrate Sample Source
 MCSS.       CALCULATED                               : Mud Cake Sample Source
 RMB .OHMM   2.0                                      : Mud Resistivity At Bht
 BHT .DEGC   7.0                                      : Bottom Hole Temperature
 TSC .       5.0 HOURS                                : Time Since Circulation
 MRT .DEGC   7.0                                      : Maximum Recorded Temperature
 LUN .       Z004250                                  : Logging Unit Number
 LUL .       LEDUC OH                                 : Logging Unit Location
 ENGI.       A.MALIK                                  : Engineer's Name
 WITN.       H.WILSON / P.ENE                         : Witness' Name
 TSTR.       /STAR/GR/                                : Title Service Mnemonic
 TSTG.       NA                                       : Title Service Mnemonic
 STUS.       FINAL                                    : Status
 LCNM.       BAKER ATLAS                              : Logging Company Name
 LCC .       150                                      : Logging Company Code
 OPMD.       OH.WIRE                                  : Operation Mode
 PANA.       A.MALIK                                  : Processing Analyst
 PCON.       BAKER ATLAS                              : Processing Contractor
 APIN.                                                : API Serial Number
 STAT.                                                : State Or Province
~Other information
LAT/LON  57.0175, -111.419                                                      
TIME STOPPED CIRCULATION  16-JAN-2016 0830AM                                    
STAR RUN WITH 0% PAD FORCE AND AUTOMATICALLY CONTROLLED GAINS                   
ANY STICK AND PULL AFFECTS LOG QUALITY                                          
RIG  ENCORE 402                                                                 
CREW  F.AJAGU, A.MALIK                                                          
#  Curve Data
~A   DEPT         AZSTQH       BKRGQH       DEVSTQH      DIP1QH       DIP2QH       DIP3QH       DIP4QH       DIP5QH       DIP6QH       GR           PADFQH       PADGQH       RAD1QH       RAD2QH       RAD3QH       RAD4QH       RAD5QH       RAD6QH       RAZGSTQH     RBSTQH       SPD       
# ...
     135.7884     197.5692      10.0000       0.3380     179.0000     161.0000     104.0000     204.0000      93.0000      78.0000      32.6458       1.1304       3.0000      76.8318      74.8811      75.8809      77.2564      82.1776      79.4188    1004.7843     115.9669       3.3501
     135.8646     196.9882      10.0000       0.3380     201.0000     237.0000     120.0000     179.0000     188.0000      76.0000      32.5935       1.2366       3.0000      76.4485      74.6288      76.0102      77.2564      82.0496      79.1679    1008.8755     115.9669       3.3526
     135.9408     196.0007      10.0000       0.3283     589.0000     107.0000     115.0000     131.0000     225.0000     135.0000      31.8889       1.2366       3.0000      77.4706      74.5027      75.8809      77.2564      83.4573      79.0424    1015.4213     108.1516       3.3577
     136.0170     195.1388      10.0000       0.3284     606.0000     222.0000     380.0000     294.0000     639.0000     158.0000      30.6566       1.2366       3.0000      77.2151      74.8811      76.2688      78.0256      83.4573      80.1715    1008.0573     108.1516       3.3650
     136.0932     195.4215      10.0000       0.3283     246.0000     655.0000     626.0000     587.0000     235.0000    1023.0000      29.0849       1.2366       4.0000      77.5983      75.0072      76.2688      77.6410      83.4573      80.1715    1006.4208     108.1516       3.3721
     136.1694     195.7179      10.0000       0.3284     369.0000     825.0000     269.0000     587.0000     185.0000     120.0000      27.4220       1.2366       4.0000      77.7261      75.2595      76.7860      79.6923      83.4573      80.7987    1012.1484     108.1516       3.3777
     136.2456     195.7179      10.0000       0.3283     424.0000     419.0000     317.0000     621.0000     314.0000     286.0000      25.9035       1.1304       5.0000      77.0873      74.1243      75.2344      79.5641      82.9454      80.5478    1009.6937     108.1516       3.3815
     136.3218     194.9974      10.0000       0.3283     668.0000     451.0000     498.0000     805.0000     455.0000     209.0000      24.7077       1.2366       6.0000      78.1094      73.9982      75.1051      77.2564      83.8412      79.2933    1017.0578     108.1516       3.3840
     136.3980     194.0058      10.0000       0.3284     652.0000     333.0000     522.0000     498.0000     412.0000     232.0000      23.9215       1.1304       6.0000      78.1094      74.1243      74.9758      77.7692      84.2251      80.1715    1012.1484     108.1516       3.3867
     136.4742     193.5801      10.0000       0.3284     505.0000     360.0000     484.0000     537.0000     370.0000     116.0000      23.5126       1.2366       6.0000      78.6204      73.9982      74.9758      77.7692      83.4573      80.9242    1008.0573     108.1516       3.3899
     136.5504     193.4381      10.0000       0.3283     577.0000     387.0000     424.0000     555.0000     469.0000     435.0000      23.3651       1.2366       6.0000      78.6204      73.9982      75.3637      77.7692      83.8412      81.0496    1010.5120     108.1516       3.3930
     136.6266     194.0058      10.0000       0.3284     363.0000     537.0000     252.0000     307.0000     412.0000     135.0000      23.3124       1.2366       6.0000      78.7481      73.9982      75.3637      77.7692      83.9691      81.4260    1007.2390     108.1516       3.3952
     136.7028     193.8639      10.0000       0.3284     411.0000     305.0000     433.0000     577.0000     415.0000     186.0000      23.2259       1.2366       6.0000      78.6204      73.9982      74.9758      77.7692      84.6090      81.5514    1014.6031     108.1516       3.3972
     136.7790     194.2894      10.0000       0.3283     396.0000     333.0000     408.0000     545.0000     598.0000     242.0000      23.0391       1.2366       6.0000      79.1314      73.9982      74.9758      77.7692      83.9691      80.9242    1008.0573     108.1516       3.4019
     136.8552     195.4348      10.0000       0.3284     393.0000     270.0000     390.0000     388.0000     646.0000     354.0000      22.7686       1.1304       6.0000      78.6204      74.1243      75.2344      77.6410      83.4573      81.9278    1007.2390     108.1516       3.4108
     136.9314     198.0108      10.0000       0.3381     403.0000     600.0000     551.0000     397.0000     436.0000     307.0000      22.4168       1.1304       6.0000      78.6204      73.6198      74.8465      77.2564      83.4573      79.7951    1008.8755     115.9669       3.4215
     137.0076     199.2970      10.0000       0.3380     354.0000     552.0000     402.0000     459.0000     462.0000      96.0000      21.9874       1.1304       6.0000      78.1094      73.6198      74.9758      76.3590      83.0734      79.2933    1005.6026     115.9669       3.4291
     137.0838     200.7459      10.0000       0.3381     461.0000     327.0000     398.0000     300.0000     639.0000     184.0000      21.5112       1.1304       6.0000      78.1094      73.7459      74.7172      76.3590      82.5615      79.6697    1008.0573     115.9669       3.4307
     137.1600     201.7492      10.0000       0.3537     325.0000     264.0000     509.0000     535.0000     421.0000      71.0000      21.0589       1.2366       6.0000      78.1094      73.6198      74.7172      75.9743      82.5615      79.0424     999.8749     123.2201       3.4259
     137.2362     200.3009      10.0000       0.3381     378.0000     317.0000     241.0000     522.0000     243.0000     135.0000      20.6761       1.2366       6.0000      78.1094      73.7459      74.9758      76.8718      82.9454      79.0424     999.0568     115.9669       3.4171
     137.3124     199.8812      10.0000       0.3380     199.0000     213.0000     207.0000     566.0000     234.0000      40.0000      20.3865       1.1304       6.0000      77.9816      73.8720      75.3637      76.8718      82.9454      79.1679    1013.7849     115.9669       3.4096
     137.3886     200.0212      10.0000       0.3381     334.0000     225.0000     188.0000     275.0000     156.0000      16.0000      20.1577       1.2366       6.0000      77.7261      73.7459      75.4930      76.3590      82.5615      79.7951    1006.4208     115.9669       3.4075
     137.4648     199.0163      10.0000       0.3380     269.0000     130.0000     177.0000     353.0000     220.0000       3.0000      20.0142       1.2366       6.0000      78.1094      73.3675      75.4930      76.3590      82.4335      79.6697    1014.6031     115.9669       3.4121
     137.5410     197.8699      10.0000       0.3380     233.0000     171.0000     168.0000     210.0000     316.0000      17.0000      20.0720       1.1304       6.0000      77.8538      73.7459      75.6223      77.2564      83.2013      79.1679    1015.4213     115.9669       3.4214
     137.6172     197.2875      10.0000       0.3381     148.0000     174.0000     171.0000     185.0000     206.0000      16.0000      20.4992       1.2366       6.0000      77.2151      74.2504      75.4930      77.7692      83.7132      79.6697    1017.0578     115.9669       3.4312
     137.6934     197.5692      10.0000       0.3381     288.0000     256.0000     152.0000     196.0000     274.0000       6.0000      21.4139       1.1304       6.0000      76.9595      74.2504      75.6223      77.6410      83.4573      80.5478    1005.6026     115.9669       3.4384
     137.7696     198.0108      10.0000       0.3380     155.0000     130.0000     166.0000     244.0000     210.0000       3.0000      22.8084       1.2366       6.0000      77.5983      74.2504      75.4930      77.3846      83.4573      81.0496    1006.4208     115.9669       3.4436
     137.8458     199.4371      10.0000       0.3381     239.0000     171.0000     209.0000     156.0000     174.0000       4.0000      24.5144       1.1304       6.0000      77.8538      74.2504      75.8809      77.7692      83.4573      80.9242    1008.0573     115.9669       3.4474
