~VERSION INFORMATION 
VERS.          2.0   :CWLS LOG ASCII STANDARD - VERSION 2.0
WRAP.          NO    :ONE LINE PER DEPTH STEP
PROD.  Schlumberger   :LAS Producer
PROG.  DLIS to ASCII 19C2-270                          :LAS Program name and version
CREA.        2014/02/23 09:08                          :LAS Creation date {YYYY/MM/DD hh:mm}
DLIS_CREA.  2014-Feb-23 08:51                          :DLIS Creation date and time {YYYY-MMM-DD hh:mm}
SOURCE.     1AA063409108W400_FMI_SONIC_MAIN.dlis       :DLIS File Name
FILE-ID.     ConPr_R2L3Up_S008_FBST_DSLT_HGNS          :File Identification Number
#--------------------------------------------------
~WELL INFORMATION 
#MNEM.UNIT      DATA             DESCRIPTION
#---- ------ --------------   -----------------------------
STRT.M      54.71160        :START DEPTH
STOP.M      257.70840       :STOP DEPTH
STEP.M       0.15240        :STEP
NULL .          -999.25      :NULL VALUE
COMP.        SUNCOR ENERGY INC.                       :COMPANY
WELL.        SUNCOR LEWIS 6-34-91-8                   :WELL
FLD  .        LEWIS                                    :FIELD
LOC.        6-34-91-8W4                              :LOCATION
PROV .        ALBERTA                                  :PROVINCE
UWI.        1AA063409108W400                         :UNIQUE WELL ID
LIC  .        0464072                                  :LICENSE NUMBER
CTRY .        CA                                       :COUNTRY (WWW code)
DATE.        23-Feb-2014                              :LOG DATE {DD-MMM-YYYY}
SRVC .        Schlumberger                             :SERVICE COMPANY
LATI .DEG     56.934500 degrees                        :LATITUDE
LONG .DEG     -111.20540 degrees                       :LONGITUDE
GDAT .                                                 :GeoDetic Datum
SECT .        06-34                                    :Section
RANG .        08W4                                     :Range
TOWN .        091                                      :Township
#-----------------------------------------------------------------------------
~CURVE INFORMATION 
#MNEM.UNIT   API CODE                                  DESCRIPTION
#---- -----  --------                                  -----------------------
 DEPT.M         00 001 00 00             :Depth Index - Measured Depth
   BS.MM        61 280 07 00             :BIT SIZE {F14.5}
   C1.MM        42 280 06 00             :CALIPER 1 {F14.5}
   C2.MM        42 280 05 00             :CALIPER 2 {F14.5}
DEPTH.M         00 001 00 00             :DEPTH INDEX {F14.5}
DEVIM.DEG       00 630 00 00             :MEMORIZED DEVIATION {F14.5}
   DT.US/M      60 520 32 00             :DELTA-T (ALSO CALLED SLOWNESS OR INTERVAL TRANSIT TIME) {F14.5}
   EI.MA        00 000 00 00             :EMEX CURRENT {F14.5}
   EV.V         00 000 00 00             :EMEX VOLTAGE {F14.5}
 FBCR.OHMS      00 000 00 00             :CORRELATION RESISTANCE {F14.5}
   GR.GAPI      42 310 01 00             :GAMMA RAY {F14.5}
 HAZI.DEG       00 620 00 00             :HOLE AZIMUTH RELATIVE TO TRUE NORTH {F14.5}
HAZIM.DEG       00 620 00 00             :HOLE AZIMUTH RELATIVE TO TRUE NORTH {F14.5}
 P1AZ.DEG       00 630 00 00             :PAD 1 AZIMUTH IN HORIZONTAL PLANE (0 = TRUE NORTH) {F14.5}
P1NO_FBST.DEG   00 000 00 00             :PAD 1 AZIMUTH IN PLANE ORTHOGONAL TO TOOL AXIS (0 = TRUE NORTH), MEMORIZED TO FBST {F14.5}
   RB.DEG       00 631 00 00             :RELATIVE BEARING {F14.5}
 SDEV.DEG       00 000 00 00             :SONDE DEVIATION {F14.5}
 TENS.N         61 280 10 00             :CABLE TENSION {F14.5}
  TT1.US        60 520 32 01             :TRANSIT TIME 1 {F14.5}
  TT2.US        60 520 32 02             :TRANSIT TIME 2 {F14.5}
  TT3.US        60 520 32 03             :TRANSIT TIME 3 {F14.5}
  TT4.US        60 520 32 04             :TRANSIT TIME 4 {F14.5}
~PARAMETER INFORMATION 
#MNEM.UNIT    VALUE                      DESCRIPTION
#---- -----   --------------------       ------------------------
 CSGD.M       72.80000                   :Casing Bottom of Driller
 CSGL.M       73.20000                   :Logger Casing Shoe Depth
 CSGS.MM      177.80000                  :Current Casing Size
 CSGW.KG/M    25.30000                   :Casing Weight
 MUDD.K/M3    1090.00000                 :Drilling Fluid Density
  DFL.C3      6.00000                    :Drilling Fluid Loss
   PH.        10.00000                   :Drilling Fluid pH
  MUD.        Polymer                    :Drilling Fluid Type
 MUDV.S       108.00000                  :Drilling Fluid Viscosity
   GL.M       445.00000                  :Elevation of Ground Level
 EREF.M       449.00000                  :Elevation of Kelly Bushing
  ENG.        NICK POLLEY                :Engineer s Name
 DREF.        KB                         :Logging Measured From (Name of Logging Elevation Reference)
 BASE.        WINTER PROJECT             :LOGGING UNIT LOCATION
 FACT.        CP4P-00020                 :Service Order Number
  LIC.        0464072                    :API Well Number
 PROV.        ALBERTA                    :County or Parish
 UNIT.        3125                       :Logging Unit Number
 RMCT.DEGC    8.73000                    :Mudcake Sample Temperature
 RMFT.DEGC    8.73000                    :Mud Filtrate Sample Temperature
 TMAX.DEGC    12.28000                   :Maximum Recorded Temperature
 MUDS.        Flowline                   :Mud Sample Source
  RMT.DEGC    8.73000                    :Mud Sample Temperature
RANGE.        08W4                       :Range
  RMC.OHMM    1.18000                    :Resistivity of Mud Cake Sample
  RMF.OHMM    0.59200                    :Resistivity of Mud Filtrate Sample
   RM.OHMM    0.78900                    :Resistivity of Mud Sample
SECTION.      06-34                      :Section
 TIMC.        01 55 00                   :Time Circulation Stopped
 TIML.        07 55 00                   :Time Logger At Bottom
TOWNSHIP.     091                        :Township
  WIT.        JONATHAN FELL              :Witness s Name
  APD.M       4.00000                    :Elevation of Depth Reference (LMF) Above Permanent Datum
 APIN.        0464072                    :API Well Number
  BHT.DEGC    12.28000                   :Bottom Hole Temperature
  BLI.M       256.00000                  :Bottom Log Interval
   BS.MM      156.00000                  :Bit Size
   CN.        SUNCOR ENERGY INC.         :Company Name
 COUN.        ALBERTA                    :County or Parish
 LDAT.        23-Feb-2014                :Tools Above Rotary Table Date
  DCS.        23-Feb-2014                :Date Circulation Stopped
  DFL.C3      6.00000                    :Drilling Fluid Loss
 DLAB.        23-Feb-2014                :Date Logger At Bottom
  DMF.        KB                         :Drilling Measured From (Name of Drilling Elevation Reference)
  EDF.M       448.70001                  :Elevation of Drill Floor
  EGL.M       445.00000                  :Elevation of Ground Level
  EKB.M       449.00000                  :Elevation of Kelly Bushing
   FD.K/M3    1000.00000                 :Fluid Density
   FL.        6-34-91-8W4               :FIELD LOCATION
  FL1.        1AA063409108W400           :Field Location, Line 1
  FL2.                                   :Field Location, Line 2
   FN.        LEWIS                      :Field Name
 HID1.                                   :Header Identifier 1
 HID2.                                   :Header Identifier 2
 HIDE.        LEWIS                      :Header Identifier
 LATI.        56.934500 degrees          :Latitude
  LMF.        KB                         :Logging Measured From (Name of Logging Elevation Reference)
 LONG.        -111.20540 degrees         :Longitude
 MATR.        SAND                       :Rock Matrix for Neutron Porosity Corrections
 MCSS.        Calculated                 :Mudcake Sample Source
 MDEC.DEG     14.38033                   :Magnetic Field Declination
 MDEN.K/M3    2650.00000                 :Matrix Density for Density Porosity
 MRT1.DEGC    12.28000                   :Maximum Recorded Temperature 1
 MRT2.DEGC    -999.25000                 :Maximum Recorded Temperature 2
  NMT.        NOBARITE                   :HRDD Mud Type for Nuclear Devices
  OS1.                                   :Other Services Line 1
  OS2.                                   :Other Services Line 2
  OS3.                                   :Other Services Line 3
  OS4.                                   :Other Services Line 4
  OS5.                                   :Other Services Line 5
 PDAT.        GL                         :Permanent Datum
   R1.        THANK YOU FOR CHOOSING SCHLUMBERGER  :Remarks Line 1
   R2.        ALL TOOLS RAN AS PER TOOL SKETCH AND ALL PRESENTATIONS AS PER CLIENT REQUEST  :Remarks Line 2
   R3.        INDUCTION LOG – DESCENT #1 :Remarks Line 3
   R4.        NEUTRON / DENSITY LOG – DESCENT #1  :Remarks Line 4
  RMB.OHMM    0.70618                    :Resistivity of Mud at Bottom Hole Temperature
 RMFB.OHMM    0.52986                    :Resistivity of Mud Filtrate At Bottom Hole Temperature
  RUN.        ONE/2                      :Run Number
  SON.        CP4P-00020                 :SERVICE ORDER NUMBER
  TDD.M       256.00000                  :Driller Total Depth
  TDL.M       256.00000                  :Logger Total Depth
  TLI.M       75.00000                   :Top Log Interval
 UWID.        1AA063409108W400           :Unique Well Identifier
   WN.        SUNCOR LEWIS 6-34-91-8     :Well Name
  EPD.C3      445.000000                 :Elevation of Permanent Datum above Mean Sea Level
#-----------------------------------------------------------------------------
#
#      DEPT          BS            C1            C2            DEPTH         DEVIM         DT            EI            EV            FBCR          GR            HAZI          HAZIM         P1AZ        P1NO_FBST       RB            SDEV          TENS          TT1           TT2           TT3           TT4
#
#-----------------------------------------------------------------------------

~A       DEPT           BS           C1           C2        DEPTH        DEVIM           DT           EI           EV         FBCR           GR         HAZI        HAZIM         P1AZ    P1NO_FBST           RB         SDEV         TENS          TT1          TT2          TT3          TT4
# ...
     82.44840     159.00000     154.17105     154.08919      82.44649       0.56658     486.02026    3386.12891       6.74492  109581.00781      98.78227     222.68680     226.03659      61.86712      56.18764     199.17880       0.58443    4603.59180     896.79803     588.10455     894.32953     584.73853
     82.60080     159.00000     154.34271     154.73264      82.59829       0.57153     485.53726    3357.15820       6.92037  109151.10156      97.20264     222.85954     225.98494      60.53231      55.31414     197.67200       0.57622    4781.54199     895.26099     586.78101     890.43262     584.03455
     82.75320     159.00000     153.99940     156.01955      82.75357       0.57310     487.10590    3360.56665       6.97885  108813.86719      92.30149     222.93031     225.92326      58.58998      55.25790     195.65948       0.56839    4754.85254     892.51892     584.85101     889.54541     583.90814
     82.90560     159.00000     155.57140     157.30644      82.90851       0.57359     488.78552    3331.59595       7.07632  112709.80469      90.60491     222.95688     225.88617      56.18962      55.51876     193.22951       0.56109    4887.40918     891.93536     585.37817     886.79004     585.61768
     83.05800     159.00000     154.61525     156.66299      83.05917       0.57260     491.15515    3328.18750       6.95936  101603.75000      90.92805     222.95894     225.96100      55.31605      56.17533     192.35889       0.55482    4916.55566     888.64313     589.87885     883.64777     590.13269
     83.21040     159.00000     156.46281     157.94987      83.20959       0.56961     495.37360    3362.27026       6.88138  100848.79688      96.08038     222.92070     225.85863      55.25977      57.76696     192.33920       0.54876    4959.76709     888.89124     592.44897     886.41534     590.14978
     83.36280     159.00000     159.09186     157.94987      83.36655       0.56696     497.10907    3394.64966       6.84239   80324.05469      93.38725     222.90961     225.79477      55.50176      58.26940     192.59288       0.54358    4890.07813     889.80493     583.09412     887.54840     588.20392
     83.51520     159.00000     160.46588     157.94987      83.51836       0.56574     496.17746    3403.17041       6.76442   64773.34766      89.74229     222.90114     225.76874      57.06285      57.54946     194.16119       0.53854    4771.67090     889.69531     585.95868     888.21411     590.24115
     83.66760     159.00000     156.63145     157.94987      83.66916       0.56344     498.48987    3396.35352       6.68644   92713.03125      90.26326     222.98785     225.68886      58.15401      55.78039     195.16364       0.53397    4191.70752     885.10901     587.32269     890.64307     590.27802
     83.82000     159.00000     156.80011     156.66299      83.82063       0.56385     492.37689    3392.94556       6.51100   83298.92969      88.49465     223.17931     225.72346      57.96311      53.18342     194.78316       0.52898    4430.11133     893.07196     589.79071     900.69128     591.13733
     83.97240     159.00000     156.46281     155.37610      83.97243       0.56210     488.16086    3420.21191       6.33555   94095.62500      94.24026     223.47232     225.54808      56.94687      49.99028     193.47194       0.52391    4525.02783     904.58514     590.42249     911.96307     590.38879
     84.12480     159.00000     156.80011     154.73264      84.12839       0.56125     490.56177    3459.40698       6.17960   46766.07031     100.00314     223.72771     225.46188      54.38916      47.55626     190.66151       0.51798    4554.38574     916.57898     595.88812     923.14606     599.25470
     84.27720     159.00000     156.46281     155.37610      84.27946       0.55879     500.65970    3459.40698       5.96516   76022.90625     103.52202     224.18239     225.35977      51.74521      46.46595     187.56259       0.51260    4818.69482     926.95740     604.39911     929.00098     609.52393
     84.42960     159.00000     160.77380     157.94987      84.43014       0.55600     519.17792    3500.30664       5.78972   48055.12109     104.94034     224.58731     225.25031      48.55412      46.11951     183.96521       0.50734    5129.09619     933.78986     612.77063     935.73108     618.55151
     84.58200     159.00000     163.23721     160.52365      84.58424       0.55193     538.59979    3534.38965       5.65326   39737.64844     106.04451     224.97934     225.21327      46.92360      44.71004     181.94604       0.50248    5700.24805     942.12018     622.12268     943.40674     629.62769
     84.73440     159.00000     163.55794     160.52365      84.73460       0.54719     553.33246    3536.09399       5.53630   43633.32813     111.95167     225.41209     225.11349      46.32543      43.61067     180.91327       0.50014    5273.51514     950.19574     635.93817     951.15979     641.09943
     84.88680     159.00000     163.23721     160.52365      84.88548       0.54137     553.78387    3571.88135       5.41933   47041.30078     114.97671     225.75015     225.05113      45.51447      43.09151     179.76169       0.49976    4963.62256     959.47375     649.05597     962.17944     648.83582
     85.03920     159.00000     163.23721     160.84537      85.03635       0.53472     552.84961    3604.26001       5.34136   43968.54297     113.36969     226.03061     224.98006      43.98079      40.77574     177.95004       0.50301    4914.39551     971.36469     649.76569     974.39587     647.25012
     85.19160     159.00000     163.55794     164.38432      85.18926       0.52767     553.07770    3600.85156       5.30237   44902.89063     112.36404     226.20148     224.87613      43.43121      37.37461     177.22823       0.50833    5238.22607     982.28894     647.98730     981.82184     645.61273
     85.34400     159.00000     163.39757     163.41914      85.34335       0.51983     552.02795    3565.06470       5.30237   45290.03516     113.61195     226.31200     224.79204      42.21419      35.82579     175.90181       0.51710    4881.18213     982.08044     645.06604     980.26685     644.99066
     85.49640     159.00000     162.92931     162.13225      85.49643       0.51255     549.85608    3629.82227       5.26338   44866.26172     116.02711     226.27756     224.70863      38.96832      33.45929     172.69171       0.52790    4363.70557     977.53333     645.76276     974.36475     643.17059
     85.64880     159.00000     160.77380     160.52365      85.65188       0.50485     546.37292    3636.63867       5.28287   47424.99609     118.28934     226.26784     224.54274      36.48336      30.92771     170.21735       0.53843    4492.40723     974.92566     645.00043     972.11035     643.16986
     85.80120     159.00000     160.93718     160.52365      85.80400       0.49760     542.40363    3597.44336       5.36085   43624.20313     115.52441     226.19305     224.30647      34.80924      27.96480     168.61632       0.54954    4586.11670     971.11407     641.28290     967.15430     638.07019
     85.95360     159.00000     162.31342     160.52365      85.95567       0.49052     534.15649    3595.73901       5.38034   44312.89453     110.40738     226.08694     223.90724      32.18482      25.75993     166.09879       0.55922    4521.46924     966.00891     638.09552     960.51935     635.40479
     86.10600     159.00000     160.93718     160.20193      86.10826       0.48357     531.13721    3565.06470       5.49731   52061.76563     105.50611     226.03659     223.37527      29.39923      24.15090     163.36261       0.56658    4451.71680     956.44769     632.88318     951.42346     630.50531
     86.25840     159.00000     155.53905     155.69781      86.25667       0.47771     524.59491    3530.98169       5.61427   56244.17188     102.98336     226.12157     222.72250      27.96537      19.50654     161.84404       0.56773    4464.74365     947.79150     629.27502     941.73206     625.28369
