~Version Information
 VERS.                2.00:   CWLS log ASCII Standard -VERSION 2.00
 WRAP.                  NO:   One line per frame      
~Well Information Block
#MNEM.UNIT                   Data                        Description
#----.----   -----------------------------------------   -------------------------------
 STRT.M                                       26.9748 : Starting Depth
 STOP.M                                      187.9854 : Ending Depth
 STEP.M                                        0.0762 : Level Spacing
 NULL.                                      -999.2500 : Absent Value
 COMP.       SUNCOR ENERGY INC                        : Company
 WELL.       SUNCOR LEWIS 7-22-92-8                   : Well
 FLD .       UNDEFINED                                : Field
 LOC .       LSD 07-22-092-08W4                       : Location
 PROV.       ALBERTA                                  : Province
 CTRY.       CA                                       : Country
 SRVC.       Baker Hughes                             : Service Company
 DATE.       16-JAN-2016                              : Log Date
 UWI .       1AA072209208W400                         : Unique Well ID
 LIC .       0477502                                  : License Number
 LATI.DEG    57.0175 N                                : Latitude Coordinates
 LONG.DEG    -111.419 W                               : Longitude Coordinates
~Curve Information Block
#MNEM    .UNIT        API Codes     Curve Description
#--------.--------   LG--CV-CL--M   -------------------------------
 DEPT    .M           0 001  0  1 : Depth
 AZSTQH  .deg        99 995 99  1 : Azimuth of reference pad for STAR
 BKRGQH  .dim        99 995 99  1 : Bucker driver value
 DEVSTQH .deg        99 995 99  1 : Deviation for STAR
 DIP1QH  .raw        75 610  1  1 : Pad 1 average data of buttons 11, 12, 13, 14
 DIP2QH  .raw        75 610  1  1 : Pad 2 average data of buttons 11, 12, 13, 14
 DIP3QH  .raw        75 610  1  1 : Pad 3 average data of buttons 11, 12, 13, 14
 DIP4QH  .raw        75 610  1  1 : Pad 4 average data of buttons 11, 12, 13, 14
 DIP5QH  .raw        75 610  1  1 : Pad 5 average data of buttons 11, 12, 13, 14
 DIP6QH  .raw        75 610  1  1 : Pad 6 average data of buttons 11, 12, 13, 14
 GR      .gAPI       30 310  1  1 : Gamma ray
 PADFQH  .pct        94 995 99  1 : Pad force
 PADGQH  .dim        99 995 99  1 : Pad gain code
 RAD1QH  .mm         75 280 99  1 : Radius, tool axis to pad 1 face
 RAD2QH  .mm         75 280 99  1 : Radius, tool axis to pad 2 face
 RAD3QH  .mm         75 280 99  1 : Radius, tool axis to pad 3 face
 RAD4QH  .mm         75 280 99  1 : Radius, tool axis to pad 4 face
 RAD5QH  .mm         75 280 99  1 : Radius, tool axis to pad 5 face
 RAD6QH  .mm         75 280 99  1 : Radius, tool axis to pad 6 face
 RAZGSTQH.mG         99 995 99  1 : Raw Z-axis accelerometer shifted to STAR
 RBSTQH  .deg        99 995 99  1 : Relative bearing (relative to borehole high side) for STAR
 SPD     .m/min      99 636 99  1 : Speed
~Parameter Information Block
#MNEM.UNIT                     Value                    Description
#----.----   ----------------------------------------   -------------------------------
 HID1.       RESISTIVITY IMAGING LOG^T                : Header Identifer
 HID2.       GAMMA RAY LOG                            : Header Identifer
 FILE.       3953                                     : File Number
 CMT1.       UID                                      : Comment 1  
 CMT2.       1AA072209208W400                         : Comment 2  
 CMT3.       LICENSE                                  : Comment 3  
 CMT4.       0477502                                  : Comment 4  
 FL2 .       BH LOC. LSD  07                          : Field Location 2
 SECT.       22                                       : Section
 TOWN.       092                                      : Township
 RANG.       08W4                                     : Range
 OS1 .       ZDL-CN-GR-CAL                            : Other Services Line 1
 OS2 .       HDIL-GR-CAL, CVL                         : Other Services Line 2
 OS3 .       DAL-GR-CAL                               : Other Services Line 3
 OS4 .       COMPOSITE                                : Other Services Line 4
 PDAT.       G.L.                                     : Permanent Datum
 EPD .M      438.50                                   : Elevation Of Perm. Datum
 LMF .       K.B.                                     : Log Measured From
 APD .M      2.20                                     : Above Permanent Datum
 DMF .       KELLY BUSHING                            : Drilling Measured From
 EKB .M      440.70                                   : Elevation Of Kelly Bushing
 EGL .M      438.50                                   : Elevation Of Ground Level
 RUN .       1                                        : Run Number
 TRIP.       1                                        : Trip Number
 SON .       CA003953J                                : Service Order Number
 TDD .M      187.0                                    : Total Depth - Driller
 TDL .M      186.3                                    : Total Depth - Logger
 BLI .M      183.0                                    : Bottom Log Interval
 TLI .M      55.0                                     : Top Log Interval
 CSIZ.MM     177.8                                    : Casing Size
 CBDR.M      49.4                                     : Casing Bottom - Driller
 CBLO.M      49.4                                     : Casing Bottom - Logger
 BS  .MM     156.0                                    : Bit Size
 DFT .       WB (WATER BASE MUD)                      : Drilling Fluid Type
 DFD .G/L    1030.0                                   : Drilling Fluid Density
 DFV .S      79.0                                     : Drilling Fluid Viscosity
 DFPH.       7.0                                      : Drilling Fluid Ph
 DFL .ML     8.0                                      : Drilling Fluid Loss
 MSS .       F (FLOWLINE)                             : Mud Sample Source
 RMS .OHMM   1.2                                      : Resistivity Of Mud Sample
 MST .DEGC   25.0                                     : Mud Sample Temperature
 RMFS.OHMM   1.0                                      : Resistivity Of Mud Filtrate Sample
 MFST.DEGC   25.0                                     : Mud Filtrate Sample Temperature
 RMCS.OHMM   1.4                                      : Resistivity Of Mud Cake Sample
 MCST.DEGC   25.0                                     : Mud Cake Sample Temperature
 MFSS.       CALCULATED                               : Mud Filtrate Sample Source
 MCSS.       CALCULATED                               : Mud Cake Sample Source
 RMB .OHMM   2.0                                      : Mud Resistivity At Bht
 BHT .DEGC   7.0                                      : Bottom Hole Temperature
 TSC .       5.0 HOURS                                : Time Since Circulation
 MRT .DEGC   7.0                                      : Maximum Recorded Temperature
 LUN .       Z004250                                  : Logging Unit Number
 LUL .       LEDUC OH                                 : Logging Unit Location
 ENGI.       A.MALIK                                  : Engineer's Name
 WITN.       H.WILSON / P.ENE                         : Witness' Name
 TSTR.       /STAR/GR/                                : Title Service Mnemonic
 TSTG.       NA                                       : Title Service Mnemonic
 STUS.       FINAL                                    : Status
 LCNM.       BAKER ATLAS                              : Logging Company Name
 LCC .       150                                      : Logging Company Code
 OPMD.       OH.WIRE                                  : Operation Mode
 PANA.       A.MALIK                                  : Processing Analyst
 PCON.       BAKER ATLAS                              : Processing Contractor
 APIN.                                                : API Serial Number
 STAT.                                                : State Or Province
~Other information
LAT/LON  57.0175, -111.419                                                      
TIME STOPPED CIRCULATION  16-JAN-2016 0830AM                                    
STAR RUN WITH 0% PAD FORCE AND AUTOMATICALLY CONTROLLED GAINS                   
ANY STICK AND PULL AFFECTS LOG QUALITY                                          
RIG  ENCORE 402                                                                 
CREW  F.AJAGU, A.MALIK                                                          
#  Curve Data
~A   DEPT         AZSTQH       BKRGQH       DEVSTQH      DIP1QH       DIP2QH       DIP3QH       DIP4QH       DIP5QH       DIP6QH       GR           PADFQH       PADGQH       RAD1QH       RAD2QH       RAD3QH       RAD4QH       RAD5QH       RAD6QH       RAZGSTQH     RBSTQH       SPD       
# ...
     108.0516      73.0113       8.0000       0.2627     492.0000     396.0000     511.0000     420.0000     352.0000     333.0000      74.7875       1.1304       3.0000      78.1094      75.0072      75.3637      75.0769      81.2818      79.1679    1007.2390     235.0215       3.3136
     108.1278      73.0113       8.0000       0.2627     322.0000     510.0000     431.0000     427.0000     353.0000     377.0000      71.7548       1.2366       3.0000      78.1094      75.0072      74.5879      75.4615      80.2580      79.1679    1007.2390     235.0215       3.3140
     108.2040      74.0275       8.0000       0.2627     387.0000     284.0000     299.0000     336.0000     289.0000     205.0000      66.8479       1.2366       3.0000      78.4926      75.0072      74.9758      75.4615      80.3860      79.1679    1016.2395     235.0215       3.3163
     108.2802      75.7420       8.0000       0.2627     317.0000     452.0000     227.0000     552.0000     387.0000     341.0000      61.0981       1.2366       3.0000      78.2371      75.0072      75.3637      75.4615      81.9216      79.1679    1015.4213     235.0215       3.3198
     108.3564      76.7668       8.0000       0.2627     306.0000     383.0000     299.0000     272.0000     243.0000     241.0000      55.6078       1.2366       3.0000      78.2371      75.1334      74.9758      75.4615      82.0496      79.1679    1002.3297     235.0215       3.3242
     108.4326      76.8229       8.0000       0.2627     126.0000     315.0000     103.0000     306.0000     129.0000     283.0000      51.2140       1.2366       3.0000      78.1094      75.0072      75.3637      75.5897      81.9216      79.2933    1012.1484     235.0215       3.3297
     108.5088      77.0844       8.0000       0.2627     217.0000     114.0000     113.0000     126.0000     169.0000      98.0000      48.2856       1.2366       3.0000      78.6204      75.0072      74.9758      75.0769      82.0496      79.1679    1007.2390     235.0215       3.3368
     108.5850      78.4840       8.0000       0.2322     324.0000      95.0000     303.0000     114.0000     353.0000     146.0000      46.7976       1.2366       3.0000      78.1094      75.1334      74.9758      75.0769      82.0496      79.0424    1020.3307     243.1516       3.3448
     108.6612      79.2492       8.0000       0.2322     254.0000     284.0000     272.0000     390.0000     198.0000     238.0000      46.4612       1.2366       3.0000      78.1094      75.1334      75.3637      75.4615      82.0496      79.1679    1016.2395     243.1516       3.3526
     108.7374      79.2492       8.0000       0.2322     302.0000     155.0000     259.0000     295.0000     300.0000     270.0000      46.7792       1.2366       3.0000      78.1094      75.1334      75.3637      75.4615      81.9216      79.6697    1011.3301     243.1516       3.3593
     108.8136      79.2492       8.0000       0.2322     304.0000     256.0000     292.0000     284.0000     285.0000     236.0000      47.2972       1.2366       3.0000      78.1094      75.1334      75.3637      75.9743      82.0496      79.6697    1011.3301     243.1516       3.3646
     108.8898      79.9654       8.0000       0.2322     339.0000     288.0000     275.0000     301.0000     379.0000     212.0000      47.6821       1.2366       3.0000      78.1094      75.0072      75.3637      75.9743      82.0496      79.6697    1003.9661     243.1516       3.3685
     108.9660      80.5972       8.0000       0.2322     268.0000     214.0000     259.0000     288.0000     270.0000     294.0000      47.7901       1.2366       3.0000      78.1094      75.0072      75.3637      75.9743      81.9216      79.6697    1008.0573     243.1516       3.3711
     109.0422      80.7314       8.0000       0.2322     198.0000     264.0000     221.0000     258.0000     250.0000     219.0000      47.6688       1.2366       3.0000      77.9816      75.1334      75.3637      75.4615      82.0496      79.4188    1014.6031     243.1516       3.3723
     109.1184      80.7314       8.0000       0.2322     320.0000     260.0000     276.0000     281.0000     287.0000     196.0000      47.5139       1.2366       3.0000      78.1094      75.0072      75.3637      75.9743      82.0496      79.6697    1012.9667     243.1516       3.3724
     109.1946      80.5972       8.0000       0.2322     251.0000     291.0000     302.0000     280.0000     280.0000     343.0000      47.5771       1.2366       3.0000      78.1094      75.0072      75.3637      75.4615      82.0496      79.2933    1017.0578     243.1516       3.3723
     109.2708      80.2815       7.0000       0.2322     144.0000     184.0000     153.0000     136.0000     108.0000      84.0000      48.0691       1.2366       3.0000      78.1094      75.0072      75.3637      75.4615      82.0496      79.2933    1015.4213     243.1516       3.3731
     109.3470      80.2815       7.0000       0.2322     158.0000     154.0000     175.0000     141.0000     147.0000     148.0000      49.1276       1.2366       3.0000      78.1094      75.1334      75.3637      75.8461      82.0496      79.6697    1009.6937     243.1516       3.3762
     109.4232      80.7314       7.0000       0.2322     165.0000     214.0000     145.0000     290.0000     119.0000     138.0000      50.8417       1.2366       3.0000      77.9816      75.0072      75.3637      75.9743      81.9216      79.4188    1012.1484     243.1516       3.3819
     109.4994      81.1815       7.0000       0.2322     169.0000     187.0000     189.0000     159.0000     175.0000     108.0000      53.2665       1.2366       3.0000      77.9816      75.0072      75.3637      75.9743      82.0496      79.6697    1009.6937     243.1516       3.3893
     109.5756      81.3618       7.0000       0.2322     158.0000     157.0000     155.0000     157.0000     168.0000     106.0000      56.4145       1.2366       3.0000      78.1094      75.0072      75.3637      75.9743      82.0496      79.6697    1008.0573     243.1516       3.3961
     109.6518      82.2606       7.0000       0.2322     195.0000     159.0000     241.0000     145.0000     173.0000     100.0000      60.0834       1.2366       3.0000      77.9816      75.0072      75.3637      75.5897      82.0496      79.2933    1010.5120     243.1516       3.4005
     109.7280      83.2950       6.0000       0.2708     138.0000      99.0000     165.0000      93.0000     188.0000      48.0000      63.7620       1.2366       3.0000      77.9816      75.1334      75.3637      75.4615      82.0496      79.2933    1003.9661     249.0577       3.4014
     109.8042      84.1932       6.0000       0.2322     338.0000     139.0000     298.0000     178.0000     189.0000      67.0000      66.6716       1.2366       3.0000      78.1094      75.1334      75.3637      75.4615      82.0496      79.2933    1014.6031     243.1516       3.3992
     109.8804      83.7442       6.0000       0.2322     122.0000     363.0000     184.0000     412.0000     198.0000     361.0000      67.9931       1.2366       3.0000      78.1094      75.0072      75.3637      75.7179      81.5377      79.2933    1010.5120     243.1516       3.3950
     109.9566      83.6079       8.0000       0.2322     371.0000     859.0000     565.0000     855.0000     524.0000     574.0000      67.2440       1.2366       3.0000      78.1094      75.0072      75.3637      75.9743      81.9216      79.6697    1003.1479     243.1516       3.3897
     110.0328      83.7442       8.0000       0.2322     406.0000     370.0000     448.0000     417.0000     347.0000     401.0000      64.4723       1.2366       3.0000      77.9816      75.0072      75.1051      75.8461      82.0496      79.2933    1014.6031     243.1516       3.3840
     110.1090      84.7788       8.0000       0.2322     409.0000     401.0000     280.0000     471.0000     332.0000     429.0000      60.2696       1.2366       3.0000      78.1094      75.0072      75.3637      75.8461      81.9216      79.2933    1008.8755     243.1516       3.3784
