~VERSION INFORMATION 
VERS.          2.0   :CWLS LOG ASCII STANDARD - VERSION 2.0
WRAP.          NO    :ONE LINE PER DEPTH STEP
PROD.  Schlumberger   :LAS Producer
PROG.  DLIS to ASCII 19C2-270                          :LAS Program name and version
CREA.        2014/02/23 09:08                          :LAS Creation date {YYYY/MM/DD hh:mm}
DLIS_CREA.  2014-Feb-23 08:51                          :DLIS Creation date and time {YYYY-MMM-DD hh:mm}
SOURCE.     1AA063409108W400_FMI_SONIC_MAIN.dlis       :DLIS File Name
FILE-ID.     ConPr_R2L3Up_S008_FBST_DSLT_HGNS          :File Identification Number
#--------------------------------------------------
~WELL INFORMATION 
#MNEM.UNIT      DATA             DESCRIPTION
#---- ------ --------------   -----------------------------
STRT.M      54.71160        :START DEPTH
STOP.M      257.70840       :STOP DEPTH
STEP.M       0.15240        :STEP
NULL .          -999.25      :NULL VALUE
COMP.        SUNCOR ENERGY INC.                       :COMPANY
WELL.        SUNCOR LEWIS 6-34-91-8                   :WELL
FLD  .        LEWIS                                    :FIELD
LOC.        6-34-91-8W4                              :LOCATION
PROV .        ALBERTA                                  :PROVINCE
UWI.        1AA063409108W400                         :UNIQUE WELL ID
LIC  .        0464072                                  :LICENSE NUMBER
CTRY .        CA                                       :COUNTRY (WWW code)
DATE.        23-Feb-2014                              :LOG DATE {DD-MMM-YYYY}
SRVC .        Schlumberger                             :SERVICE COMPANY
LATI .DEG     56.934500 degrees                        :LATITUDE
LONG .DEG     -111.20540 degrees                       :LONGITUDE
GDAT .                                                 :GeoDetic Datum
SECT .        06-34                                    :Section
RANG .        08W4                                     :Range
TOWN .        091                                      :Township
#-----------------------------------------------------------------------------
~CURVE INFORMATION 
#MNEM.UNIT   API CODE                                  DESCRIPTION
#---- -----  --------                                  -----------------------
 DEPT.M         00 001 00 00             :Depth Index - Measured Depth
   BS.MM        61 280 07 00             :BIT SIZE {F14.5}
   C1.MM        42 280 06 00             :CALIPER 1 {F14.5}
   C2.MM        42 280 05 00             :CALIPER 2 {F14.5}
DEPTH.M         00 001 00 00             :DEPTH INDEX {F14.5}
DEVIM.DEG       00 630 00 00             :MEMORIZED DEVIATION {F14.5}
   DT.US/M      60 520 32 00             :DELTA-T (ALSO CALLED SLOWNESS OR INTERVAL TRANSIT TIME) {F14.5}
   EI.MA        00 000 00 00             :EMEX CURRENT {F14.5}
   EV.V         00 000 00 00             :EMEX VOLTAGE {F14.5}
 FBCR.OHMS      00 000 00 00             :CORRELATION RESISTANCE {F14.5}
   GR.GAPI      42 310 01 00             :GAMMA RAY {F14.5}
 HAZI.DEG       00 620 00 00             :HOLE AZIMUTH RELATIVE TO TRUE NORTH {F14.5}
HAZIM.DEG       00 620 00 00             :HOLE AZIMUTH RELATIVE TO TRUE NORTH {F14.5}
 P1AZ.DEG       00 630 00 00             :PAD 1 AZIMUTH IN HORIZONTAL PLANE (0 = TRUE NORTH) {F14.5}
P1NO_FBST.DEG   00 000 00 00             :PAD 1 AZIMUTH IN PLANE ORTHOGONAL TO TOOL AXIS (0 = TRUE NORTH), MEMORIZED TO FBST {F14.5}
   RB.DEG       00 631 00 00             :RELATIVE BEARING {F14.5}
 SDEV.DEG       00 000 00 00             :SONDE DEVIATION {F14.5}
 TENS.N         61 280 10 00             :CABLE TENSION {F14.5}
  TT1.US        60 520 32 01             :TRANSIT TIME 1 {F14.5}
  TT2.US        60 520 32 02             :TRANSIT TIME 2 {F14.5}
  TT3.US        60 520 32 03             :TRANSIT TIME 3 {F14.5}
  TT4.US        60 520 32 04             :TRANSIT TIME 4 {F14.5}
~PARAMETER INFORMATION 
#MNEM.UNIT    VALUE                      DESCRIPTION
#---- -----   --------------------       ------------------------
 CSGD.M       72.80000                   :Casing Bottom of Driller
 CSGL.M       73.20000                   :Logger Casing Shoe Depth
 CSGS.MM      177.80000                  :Current Casing Size
 CSGW.KG/M    25.30000                   :Casing Weight
 MUDD.K/M3    1090.00000                 :Drilling Fluid Density
  DFL.C3      6.00000                    :Drilling Fluid Loss
   PH.        10.00000                   :Drilling Fluid pH
  MUD.        Polymer                    :Drilling Fluid Type
 MUDV.S       108.00000                  :Drilling Fluid Viscosity
   GL.M       445.00000                  :Elevation of Ground Level
 EREF.M       449.00000                  :Elevation of Kelly Bushing
  ENG.        NICK POLLEY                :Engineer s Name
 DREF.        KB                         :Logging Measured From (Name of Logging Elevation Reference)
 BASE.        WINTER PROJECT             :LOGGING UNIT LOCATION
 FACT.        CP4P-00020                 :Service Order Number
  LIC.        0464072                    :API Well Number
 PROV.        ALBERTA                    :County or Parish
 UNIT.        3125                       :Logging Unit Number
 RMCT.DEGC    8.73000                    :Mudcake Sample Temperature
 RMFT.DEGC    8.73000                    :Mud Filtrate Sample Temperature
 TMAX.DEGC    12.28000                   :Maximum Recorded Temperature
 MUDS.        Flowline                   :Mud Sample Source
  RMT.DEGC    8.73000                    :Mud Sample Temperature
RANGE.        08W4                       :Range
  RMC.OHMM    1.18000                    :Resistivity of Mud Cake Sample
  RMF.OHMM    0.59200                    :Resistivity of Mud Filtrate Sample
   RM.OHMM    0.78900                    :Resistivity of Mud Sample
SECTION.      06-34                      :Section
 TIMC.        01 55 00                   :Time Circulation Stopped
 TIML.        07 55 00                   :Time Logger At Bottom
TOWNSHIP.     091                        :Township
  WIT.        JONATHAN FELL              :Witness s Name
  APD.M       4.00000                    :Elevation of Depth Reference (LMF) Above Permanent Datum
 APIN.        0464072                    :API Well Number
  BHT.DEGC    12.28000                   :Bottom Hole Temperature
  BLI.M       256.00000                  :Bottom Log Interval
   BS.MM      156.00000                  :Bit Size
   CN.        SUNCOR ENERGY INC.         :Company Name
 COUN.        ALBERTA                    :County or Parish
 LDAT.        23-Feb-2014                :Tools Above Rotary Table Date
  DCS.        23-Feb-2014                :Date Circulation Stopped
  DFL.C3      6.00000                    :Drilling Fluid Loss
 DLAB.        23-Feb-2014                :Date Logger At Bottom
  DMF.        KB                         :Drilling Measured From (Name of Drilling Elevation Reference)
  EDF.M       448.70001                  :Elevation of Drill Floor
  EGL.M       445.00000                  :Elevation of Ground Level
  EKB.M       449.00000                  :Elevation of Kelly Bushing
   FD.K/M3    1000.00000                 :Fluid Density
   FL.        6-34-91-8W4               :FIELD LOCATION
  FL1.        1AA063409108W400           :Field Location, Line 1
  FL2.                                   :Field Location, Line 2
   FN.        LEWIS                      :Field Name
 HID1.                                   :Header Identifier 1
 HID2.                                   :Header Identifier 2
 HIDE.        LEWIS                      :Header Identifier
 LATI.        56.934500 degrees          :Latitude
  LMF.        KB                         :Logging Measured From (Name of Logging Elevation Reference)
 LONG.        -111.20540 degrees         :Longitude
 MATR.        SAND                       :Rock Matrix for Neutron Porosity Corrections
 MCSS.        Calculated                 :Mudcake Sample Source
 MDEC.DEG     14.38033                   :Magnetic Field Declination
 MDEN.K/M3    2650.00000                 :Matrix Density for Density Porosity
 MRT1.DEGC    12.28000                   :Maximum Recorded Temperature 1
 MRT2.DEGC    -999.25000                 :Maximum Recorded Temperature 2
  NMT.        NOBARITE                   :HRDD Mud Type for Nuclear Devices
  OS1.                                   :Other Services Line 1
  OS2.                                   :Other Services Line 2
  OS3.                                   :Other Services Line 3
  OS4.                                   :Other Services Line 4
  OS5.                                   :Other Services Line 5
 PDAT.        GL                         :Permanent Datum
   R1.        THANK YOU FOR CHOOSING SCHLUMBERGER  :Remarks Line 1
   R2.        ALL TOOLS RAN AS PER TOOL SKETCH AND ALL PRESENTATIONS AS PER CLIENT REQUEST  :Remarks Line 2
   R3.        INDUCTION LOG – DESCENT #1 :Remarks Line 3
   R4.        NEUTRON / DENSITY LOG – DESCENT #1  :Remarks Line 4
  RMB.OHMM    0.70618                    :Resistivity of Mud at Bottom Hole Temperature
 RMFB.OHMM    0.52986                    :Resistivity of Mud Filtrate At Bottom Hole Temperature
  RUN.        ONE/2                      :Run Number
  SON.        CP4P-00020                 :SERVICE ORDER NUMBER
  TDD.M       256.00000                  :Driller Total Depth
  TDL.M       256.00000                  :Logger Total Depth
  TLI.M       75.00000                   :Top Log Interval
 UWID.        1AA063409108W400           :Unique Well Identifier
   WN.        SUNCOR LEWIS 6-34-91-8     :Well Name
  EPD.C3      445.000000                 :Elevation of Permanent Datum above Mean Sea Level
#-----------------------------------------------------------------------------
#
#      DEPT          BS            C1            C2            DEPTH         DEVIM         DT            EI            EV            FBCR          GR            HAZI          HAZIM         P1AZ        P1NO_FBST       RB            SDEV          TENS          TT1           TT2           TT3           TT4
#
#-----------------------------------------------------------------------------

~A       DEPT           BS           C1           C2        DEPTH        DEVIM           DT           EI           EV         FBCR           GR         HAZI        HAZIM         P1AZ    P1NO_FBST           RB         SDEV         TENS          TT1          TT2          TT3          TT4
# ...
    145.84680     156.00000     146.04898     148.94162     145.84616       0.50355     399.71051    2948.16211       9.47408  174097.75000      86.67262     223.17371     224.35156      32.23469      35.07686     169.06148       0.53726    4745.93506     743.38428     504.14279     741.96417     501.97382
    145.99920     156.00000     146.66335     150.22852     145.99721       0.50518     398.82117    2944.75366       9.47408  172690.06250      90.44299     223.27162     224.56004      33.88118      35.64025     170.60962       0.53428    4533.62744     745.22943     501.61108     743.22247     499.63736
    146.15160     156.00000     146.97052     148.94162     146.15282       0.50683     395.39554    2978.83643       9.47408  165863.84375      97.10379     223.37640     224.91685      34.82366      37.19720     171.44550       0.53280    4964.21533     745.66113     500.06418     743.74445     498.23199
    146.30400     156.00000     146.97052     150.22852     146.30878       0.50694     394.82938    2982.24512       9.47408  163966.34375      97.77672     223.53223     225.22957      35.14315      39.98697     171.60895       0.53237    4825.72754     743.99097     498.92380     741.74884     497.35312
    146.45640     156.00000     146.60915     150.22852     146.45757       0.50679     394.95313    2949.86621       9.49358  157077.34375      93.50356     223.75285     225.51357      36.57584      42.35118     172.82362       0.53257    4498.74072     744.12164     498.99155     742.54156     498.25568
    146.60880     156.00000     146.97052     150.22852     146.60866       0.50526     396.98636    2949.86621       9.51307  176268.67188      85.71149     224.01082     225.77870      38.14969      43.08819     174.13911       0.53377    4991.20117     743.56683     499.36557     741.83099     497.99716
    146.76120     156.00000     148.19922     150.87196     146.75964       0.50306     398.93088    2943.04980       9.55206  177671.40625      82.88367     224.34724     225.83398      41.61259      45.14919     177.26691       0.53467    4737.67383     745.00775     498.86444     743.55688     500.29150
    146.91360     156.00000     147.27768     150.22852     146.91042       0.50050     401.02399    2946.45776       9.57155  185262.70313      84.64318     224.72952     225.85635      42.49548      47.69894     177.76514       0.53542    4836.40332     745.15387     501.49066     747.35156     501.40781
    147.06600     156.00000     144.94450     146.68958     147.06400       0.49837     401.62897    2943.04980       9.61054  174711.53125      85.64845     225.15208     225.77975      44.01842      48.10508     178.86783       0.53527    4661.43945     749.18658     504.21460     751.25110     503.20996
    147.21840     156.00000     147.58487     145.72443     147.21809       0.49679     404.85641    2944.75366       9.66902  179146.14063      87.84808     225.49730     225.63515      46.56961      46.85252     181.07147       0.53494    4740.61816     754.34967     504.84674     753.42395     506.10657
    147.37080     156.00000     148.19922     146.36787     147.37405       0.49534     405.94696    2908.96704       9.68852  220630.03125      84.70666     225.59250     225.54535      47.70029      45.20034     182.10521       0.53511    4874.65771     753.97430     508.63281     751.78656     508.14539
    147.52320     156.00000     146.97052     146.36787     147.52419       0.49520     410.27823    2910.67065       9.78599  221606.12500      85.46141     225.77589     225.51241      48.10643      43.91367     182.33107       0.53313    5131.02393     753.56396     511.24506     750.94086     509.73572
    147.67560     156.00000     146.48190     145.72443     147.67241       0.49618     412.50235    2912.37500       9.86396  193387.82813      89.23169     225.87891     225.53656      46.85379      42.86390     180.97440       0.53141    4741.80420     755.05426     510.80084     753.79980     507.01459
    147.82800     156.00000     146.97052     145.72443     147.82600       0.49806     407.78265    2914.07910       9.88346  194461.35938      90.36243     225.90175     225.61353      45.20153      43.34644     179.30005       0.52887    4882.66455     758.80670     509.38873     758.11615     505.55231
    147.98040     156.00000     149.12074     145.72443     147.97975       0.50108     404.22745    2920.89551       9.92245  245827.76563      89.48215     225.77216     225.69301      43.91481      43.53044     178.14336       0.52596    5205.30908     759.82465     507.74347     756.43274     505.98401
    148.13280     156.00000     150.96381     150.22852     148.13469       0.50351     403.65088    2920.89551       9.94194  232364.25000      84.32941     225.58060     225.78374      42.86498      44.64985     177.28270       0.52268    5280.92871     759.46765     512.59326     755.77380     511.02979
    148.28520     156.00000     149.25026     150.22852     148.28583       0.50612     406.07474    2924.30420      10.03941  250282.95313      79.93073     225.36671     225.88394      43.34754      46.52930     177.97861       0.51888    5161.20801     756.56891     511.36374     754.63397     507.54269
    148.43760     156.00000     146.35617     147.01132     148.43712       0.50847     409.79852    2883.40479      10.09789  172972.25000      80.30778     225.12027     225.85890      43.53153      45.64349     178.41345       0.51478    4954.42920     756.21680     506.43011     754.74609     505.55353
    148.59000     156.00000     146.78983     147.01132     148.58881       0.51039     411.99146    2883.40479      10.15637  223640.79688      83.07257     224.86769     225.85020      44.65097      46.94226     179.78310       0.51047    4672.22119     756.14941     507.12506     754.00964     506.76566
    148.74240     156.00000     148.19922     148.29820     148.74107       0.51090     409.36469    2845.91309      10.21486  217048.40625      88.35109     224.61339     225.74510      46.17287      47.18761     181.56030       0.50638    5068.89697     754.53033     508.46777     754.83081     508.61047
    148.89480     156.00000     149.42792     148.94162     148.89737       0.51126     401.78610    2849.32153      10.25384  281527.34375      87.72256     224.41701     225.71986      46.09153      46.10749     181.67538       0.50337    5123.16504     756.70697     510.57364     757.41821     507.99072
    149.04720     156.00000     149.42792     146.36787     149.04745       0.51092     401.73538    2851.02539      10.37081  281399.31250      88.09972     224.24977     225.74335      47.57367      48.18172     183.32227       0.50151    4905.11768     759.12170     507.74777     758.54785     506.78076
    149.19960     156.00000     146.60915     145.72443     149.19794       0.51089     408.53381    2818.64673      10.50727  251258.78125      88.85357     224.17540     225.83583      46.23125      50.58006     182.05467       0.50105    4931.89160     762.20074     507.27304     760.32288     507.03326
    149.35200     156.00000     147.89204     150.22852     149.35321       0.51149     409.31027    2818.64673      10.62423  314853.28125      95.38895     224.16850     225.98224      46.91013      54.72257     182.74184       0.50207    5030.93896     758.27344     507.45148     756.45123     505.71225
    149.50440     156.00000     149.25026     150.22852     149.50449       0.51309     409.07132    2815.23877      10.72170  257954.46875     100.91845     224.35156     226.23869      49.35408      58.48098     185.00226       0.50355    5400.45898     757.67487     510.61621     755.50446     509.74747
    149.65680     156.00000     144.76158     145.72443     149.65530       0.51469     409.81754    2779.45142      10.85816  365531.84375     103.93481     224.56004     226.49948      52.51395      61.85012     187.95239       0.50518    5492.07129     757.68933     513.29163     754.53839     510.07898
