~Version Information
 VERS.                2.00:   CWLS log ASCII Standard -VERSION 2.00
 WRAP.                  NO:   One line per frame      
~Well Information Block
#MNEM.UNIT                   Data                        Description
#----.----   -----------------------------------------   -------------------------------
 STRT.M                                       27.0000 : Starting Depth
 STOP.M                                      188.0000 : Ending Depth
 STEP.M                                        0.1000 : Level Spacing
 NULL.                                      -999.2500 : Absent Value
 COMP.       SUNCOR ENERGY INC                        : Company
 WELL.       SUNCOR LEWIS 7-22-92-8                   : Well
 FLD .       UNDEFINED                                : Field
 LOC .       LSD 07-22-092-08W4                       : Location
 PROV.       ALBERTA                                  : Province
 CTRY.       CA                                       : Country
 SRVC.       Baker Hughes                             : Service Company
 DATE.       16-JAN-2016                              : Log Date
 UWI .       1AA072209208W400                         : Unique Well ID
 LIC .       0477502                                  : License Number
~Curve Information Block
#MNEM    .UNIT        API Codes     Curve Description
#--------.--------   LG--CV-CL--M   -------------------------------
 DEPT    .M           0   1  0  1 : Depth
 AZSTQH  .deg        99 995 99  1 : Azimuth of reference pad for STAR
 BKRGQH  .dim        99 995 99  1 : Bucker driver value
 DEVSTQH .deg        99 995 99  1 : Deviation for STAR
 DIP1QH  .raw        75 610  1  1 : Pad 1 average data of buttons 11, 12, 13, 14
 DIP2QH  .raw        75 610  1  1 : Pad 2 average data of buttons 11, 12, 13, 14
 DIP3QH  .raw        75 610  1  1 : Pad 3 average data of buttons 11, 12, 13, 14
 DIP4QH  .raw        75 610  1  1 : Pad 4 average data of buttons 11, 12, 13, 14
 DIP5QH  .raw        75 610  1  1 : Pad 5 average data of buttons 11, 12, 13, 14
 DIP6QH  .raw        75 610  1  1 : Pad 6 average data of buttons 11, 12, 13, 14
 GR      .gAPI       30 310  1  1 : Gamma ray
 PADFQH  .pct        94 995 99  1 : Pad force
 PADGQH  .dim        99 995 99  1 : Pad gain code
 RAD1QH  .mm         75 280 99  1 : Radius, tool axis to pad 1 face
 RAD2QH  .mm         75 280 99  1 : Radius, tool axis to pad 2 face
 RAD3QH  .mm         75 280 99  1 : Radius, tool axis to pad 3 face
 RAD4QH  .mm         75 280 99  1 : Radius, tool axis to pad 4 face
 RAD5QH  .mm         75 280 99  1 : Radius, tool axis to pad 5 face
 RAD6QH  .mm         75 280 99  1 : Radius, tool axis to pad 6 face
 RAZGSTQH.mG         99 995 99  1 : Raw Z-axis accelerometer shifted to STAR
 RBSTQH  .deg        99 995 99  1 : Relative bearing (relative to borehole high side) for STAR
 SPD     .m/min      99 636 99  1 : Speed
~Parameter Information Block
#MNEM.UNIT                     Value                    Description
#----.----   ----------------------------------------   -------------------------------
 HID1.       RESISTIVITY IMAGING LOG^T                : Header Identifer
 HID2.       GAMMA RAY LOG                            : Header Identifer
 FILE.       3953                                     : File Number
 CMT1.       UID                                      : Comment 1  
 CMT2.       1AA072209208W400                         : Comment 2  
 CMT3.       LICENSE                                  : Comment 3  
 CMT4.       0477502                                  : Comment 4  
 FL2 .       BH LOC. LSD  07                          : Field Location 2
 SECT.       22                                       : Section
 TOWN.       092                                      : Township
 RANG.       08W4                                     : Range
 OS1 .       ZDL-CN-GR-CAL                            : Other Services Line 1
 OS2 .       HDIL-GR-CAL, CVL                         : Other Services Line 2
 OS3 .       DAL-GR-CAL                               : Other Services Line 3
 OS4 .       COMPOSITE                                : Other Services Line 4
 PDAT.       G.L.                                     : Permanent Datum
 EPD .M      438.50                                   : Elevation Of Perm. Datum
 LMF .       K.B.                                     : Log Measured From
 APD .M      2.20                                     : Above Permanent Datum
 DMF .       KELLY BUSHING                            : Drilling Measured From
 EKB .M      440.70                                   : Elevation Of Kelly Bushing
 EGL .M      438.50                                   : Elevation Of Ground Level
 RUN .       1                                        : Run Number
 TRIP.       1                                        : Trip Number
 SON .       CA003953J                                : Service Order Number
 TDD .M      187.0                                    : Total Depth - Driller
 TDL .M      186.3                                    : Total Depth - Logger
 BLI .M      183.0                                    : Bottom Log Interval
 TLI .M      55.0                                     : Top Log Interval
 CSIZ.MM     177.8                                    : Casing Size
 CBDR.M      49.4                                     : Casing Bottom - Driller
 CBLO.M      49.4                                     : Casing Bottom - Logger
 BS  .MM     156.0                                    : Bit Size
 DFT .       WB (WATER BASE MUD)                      : Drilling Fluid Type
 DFD .G/L    1030.0                                   : Drilling Fluid Density
 DFV .S      79.0                                     : Drilling Fluid Viscosity
 DFPH.       7.0                                      : Drilling Fluid Ph
 DFL .ML     8.0                                      : Drilling Fluid Loss
 MSS .       F (FLOWLINE)                             : Mud Sample Source
 RMS .OHMM   1.2                                      : Resistivity Of Mud Sample
 MST .DEGC   25.0                                     : Mud Sample Temperature
 RMFS.OHMM   1.0                                      : Resistivity Of Mud Filtrate Sample
 MFST.DEGC   25.0                                     : Mud Filtrate Sample Temperature
 RMCS.OHMM   1.4                                      : Resistivity Of Mud Cake Sample
 MCST.DEGC   25.0                                     : Mud Cake Sample Temperature
 MFSS.       CALCULATED                               : Mud Filtrate Sample Source
 MCSS.       CALCULATED                               : Mud Cake Sample Source
 RMB .OHMM   2.0                                      : Mud Resistivity At Bht
 BHT .DEGC   7.0                                      : Bottom Hole Temperature
 TSC .       5.0 HOURS                                : Time Since Circulation
 MRT .DEGC   7.0                                      : Maximum Recorded Temperature
 LUN .       Z004250                                  : Logging Unit Number
 LUL .       LEDUC OH                                 : Logging Unit Location
 ENGI.       A.MALIK                                  : Engineer's Name
 WITN.       H.WILSON / P.ENE                         : Witness' Name
 TSTR.       /STAR/GR/                                : Title Service Mnemonic
 TSTG.       NA                                       : Title Service Mnemonic
 STUS.       FINAL                                    : Status
 LCNM.       BAKER ATLAS                              : Logging Company Name
 LCC .       150                                      : Logging Company Code
 OPMD.       OH.WIRE                                  : Operation Mode
 PANA.       A.MALIK                                  : Processing Analyst
 PCON.       BAKER ATLAS                              : Processing Contractor
 APIN.                                                : API Serial Number
 STAT.                                                : State Or Province
~Other information
LAT/LON  57.0175, -111.419                                                      
TIME STOPPED CIRCULATION  16-JAN-2016 0830AM                                    
STAR RUN WITH 0% PAD FORCE AND AUTOMATICALLY CONTROLLED GAINS                   
ANY STICK AND PULL AFFECTS LOG QUALITY                                          
RIG  ENCORE 402                                                                 
CREW  F.AJAGU, A.MALIK                                                          
#  Curve Data
~A  DEPT        AZSTQH      BKRGQH      DEVSTQH     DIP1QH      DIP2QH      DIP3QH      DIP4QH      DIP5QH      DIP6QH      GR          PADFQH      PADGQH      RAD1QH      RAD2QH      RAD3QH      RAD4QH      RAD5QH      RAD6QH      RAZGSTQH    RBSTQH      SPD       
# ...
     39.4000   -999.2500   -999.2500   -999.2500   -999.2500   -999.2500   -999.2500   -999.2500   -999.2500   -999.2500   -999.2500   -999.2500   -999.2500   -999.2500   -999.2500   -999.2500   -999.2500   -999.2500   -999.2500   -999.2500   -999.2500   -999.2500
     39.5000   -999.2500   -999.2500   -999.2500   -999.2500   -999.2500   -999.2500   -999.2500   -999.2500   -999.2500   -999.2500   -999.2500   -999.2500   -999.2500   -999.2500   -999.2500   -999.2500   -999.2500   -999.2500   -999.2500   -999.2500   -999.2500
     39.6000   -999.2500   -999.2500   -999.2500   -999.2500   -999.2500   -999.2500   -999.2500   -999.2500   -999.2500   -999.2500   -999.2500   -999.2500   -999.2500   -999.2500   -999.2500   -999.2500   -999.2500   -999.2500   -999.2500   -999.2500   -999.2500
     39.7000   -999.2500   -999.2500   -999.2500   -999.2500   -999.2500   -999.2500   -999.2500   -999.2500   -999.2500   -999.2500   -999.2500   -999.2500   -999.2500   -999.2500   -999.2500   -999.2500   -999.2500   -999.2500   -999.2500   -999.2500   -999.2500
     39.8000   -999.2500   -999.2500   -999.2500   -999.2500   -999.2500   -999.2500   -999.2500   -999.2500   -999.2500   -999.2500   -999.2500   -999.2500   -999.2500   -999.2500   -999.2500   -999.2500   -999.2500   -999.2500   -999.2500   -999.2500   -999.2500
     39.9000   -999.2500   -999.2500   -999.2500   -999.2500   -999.2500   -999.2500   -999.2500   -999.2500   -999.2500   -999.2500   -999.2500   -999.2500   -999.2500   -999.2500   -999.2500   -999.2500   -999.2500   -999.2500   -999.2500   -999.2500   -999.2500
     40.0000   -999.2500   -999.2500   -999.2500   -999.2500   -999.2500   -999.2500   -999.2500   -999.2500   -999.2500   -999.2500   -999.2500   -999.2500   -999.2500   -999.2500   -999.2500   -999.2500   -999.2500   -999.2500   -999.2500   -999.2500   -999.2500
     40.1000   -999.2500   -999.2500   -999.2500   -999.2500   -999.2500   -999.2500   -999.2500   -999.2500   -999.2500   -999.2500   -999.2500   -999.2500   -999.2500   -999.2500   -999.2500   -999.2500   -999.2500   -999.2500   -999.2500   -999.2500   -999.2500
     40.2000   -999.2500   -999.2500   -999.2500   -999.2500   -999.2500   -999.2500   -999.2500   -999.2500   -999.2500   -999.2500   -999.2500   -999.2500   -999.2500   -999.2500   -999.2500   -999.2500   -999.2500   -999.2500   -999.2500   -999.2500   -999.2500
     40.3000   -999.2500   -999.2500   -999.2500   -999.2500   -999.2500   -999.2500   -999.2500   -999.2500   -999.2500   -999.2500   -999.2500   -999.2500   -999.2500   -999.2500   -999.2500   -999.2500   -999.2500   -999.2500   -999.2500   -999.2500   -999.2500
     40.4000   -999.2500   -999.2500   -999.2500   -999.2500   -999.2500   -999.2500   -999.2500   -999.2500   -999.2500   -999.2500   -999.2500   -999.2500   -999.2500   -999.2500   -999.2500   -999.2500   -999.2500   -999.2500   -999.2500   -999.2500   -999.2500
     40.5000   -999.2500   -999.2500   -999.2500   -999.2500   -999.2500   -999.2500   -999.2500   -999.2500   -999.2500   -999.2500   -999.2500   -999.2500   -999.2500   -999.2500   -999.2500   -999.2500   -999.2500   -999.2500   -999.2500   -999.2500   -999.2500
     40.6000   -999.2500   -999.2500   -999.2500   -999.2500   -999.2500   -999.2500   -999.2500   -999.2500   -999.2500   -999.2500   -999.2500   -999.2500   -999.2500   -999.2500   -999.2500   -999.2500   -999.2500   -999.2500   -999.2500   -999.2500   -999.2500
     40.7000     56.7262      0.0000      0.2708      3.0000      8.0000      5.0000      4.0000      5.0000     22.0000   -999.2500    -76.4292      0.0000     67.7610     67.6914     65.6660     64.5641     70.1485     71.3899   1006.4208    249.0577   -999.2500
     40.8000     68.9563      0.0000      0.3115      4.0000      9.0000      6.0000      5.0000      6.0000     17.0000   -999.2500    -76.4292      0.0000     67.7610     67.6914     65.6660     64.5641     70.1485     71.3899   1009.6937    253.4564   -999.2500
     40.9000     80.2350      0.0000      0.3115     18.0000      9.0000      6.0000      4.0000      4.0000     13.0000   -999.2500    -76.4292      0.0000     67.7610     67.6914     65.6660     64.5641     70.1485     71.3899   1009.6937    253.4564   -999.2500
     41.0000     77.4611      0.0000      0.3115     18.0000     10.0000      6.0000      3.0000      3.0000      8.0000   -999.2500    -76.4292      0.0000     67.7610     67.6914     65.6660     64.5641     70.1485     71.3899   1009.6937    253.4564   -999.2500
     41.1000     65.2061      0.0000      0.3115     17.0000     10.0000      7.0000      3.0000      3.0000      9.0000   -999.2500    -76.4292      0.0000     67.7610     67.8176     65.6660     64.5641     70.1485     71.3899   1012.9667    253.4564   -999.2500
     41.2000     42.2960      0.0000      0.3115     26.0000      5.0000      5.0000      3.0000      3.0000      8.5276   -999.2500    -76.4292      0.0000     67.8888     67.7510     65.6660     64.5641     70.1485     71.3899   1008.8755    253.4564   -999.2500
     41.3000     15.9377      0.0000      0.3115      8.0000      6.0000      6.0000      3.0000      4.0000     10.0000   -999.2500    -76.4292      0.0000     67.7610     67.6914     65.6660     64.5641     70.1485     71.3899   1009.6937    253.4564   -999.2500
     41.4000     88.3956      0.0000      0.3115     12.0000      9.0000      6.0000      3.0000      5.0000     11.0000   -999.2500    -76.4292      0.0000     67.8888     67.8176     65.6660     64.5641     70.1485     71.3899   1010.5120    253.4564   -999.2500
     41.5000     77.7503      0.0000      0.3115      3.4173      4.5827      6.0000      3.0000      4.0000      9.5827   -999.2500    -76.4292      0.0000     67.8888     67.8176     65.6660     64.5641     70.1485     71.3899   1008.8755    253.4564   -999.2500
     41.6000     29.6522      0.0000      0.3115     12.0000      4.0000      7.0000      2.0000      4.0000      5.0000   -999.2500    -76.4292      0.0000     67.7610     67.8176     65.6660     64.5641     70.1485     71.3899   1009.6937    253.4564   -999.2500
     41.7000    358.1103      0.0000      0.3115     12.0000      4.0000      6.0000      3.0000      4.0000      4.0000   -999.2500    -76.4292      0.0000     67.8888     67.8176     65.6660     64.5641     70.1485     71.3899   1009.6937    253.4564   -999.2500
     41.8000    323.8602      0.0000      0.3115     10.0000      4.0000      6.0000      2.0000      6.0000      4.0000   -999.2500    -76.4292      0.0000     67.8888     67.6914     65.6660     64.5641     70.1485     71.3899   1009.6937    253.4564   -999.2500
     41.9000    338.3137      0.0000      0.3115      7.0000      4.0000      6.0000      2.0000      5.0000      2.0000   -999.2500    -76.4292      0.0000     67.8888     67.6914     65.6660     64.5641     70.1485     71.3899   1010.5120    253.4564   -999.2500
     42.0000     14.9671      0.0000      0.2708      6.4331      5.0000      6.0000      3.0000      5.4331     15.0000   -999.2500    -76.4292      0.0000     67.8888     67.6914     65.6660     64.5641     70.1485     71.3899   1009.3394    249.0577   -999.2500
     42.1000    341.2603      0.0000      0.2708      4.0000      6.0000      5.0000      2.0000      9.0000     17.0000   -999.2500    -76.4292      0.0000     67.7610     67.6914     65.6660     64.5641     70.1485     71.3899   1008.8755    249.0577   -999.2500
     42.2000     12.5891      0.0000      0.2708     11.0000      4.0000      5.0000      4.0000      6.0000     13.0000   -999.2500    -76.4292      0.0000     67.7610     67.6914     65.6660     64.5641     70.1485     71.3899   1008.8755    249.0577   -999.2500
     42.3000     45.2684      0.0000      0.3115     14.0000      4.0000      6.0000      6.0000      6.0000      2.9134   -999.2500    -76.4292      0.0000     67.7610     67.6914     65.6660     64.5641     70.1485     71.3899   1009.2491    253.4564   -999.2500
     42.4000     49.7508      0.0000      0.2937     11.0000     10.0000      7.0000      5.0000      4.0000      7.0000   -999.2500    -76.4292      0.0000     67.7610     67.6914     65.6660     64.5641     70.1485     71.3899   1009.6937    261.5865   -999.2500
