~Version Information
 VERS.                2.00:   CWLS log ASCII Standard -VERSION 2.00
 WRAP.                  NO:   One line per frame      
~Well Information Block
#MNEM.UNIT                   Data                        Description
#----.----   -----------------------------------------   -------------------------------
 STRT.M                                       26.9748 : Starting Depth
 STOP.M                                      187.9854 : Ending Depth
 STEP.M                                        0.0762 : Level Spacing
 NULL.                                      -999.2500 : Absent Value
 COMP.       SUNCOR ENERGY INC                        : Company
 WELL.       SUNCOR LEWIS 7-22-92-8                   : Well
 FLD .       UNDEFINED                                : Field
 LOC .       LSD 07-22-092-08W4                       : Location
 PROV.       ALBERTA                                  : Province
 CTRY.       CA                                       : Country
 SRVC.       Baker Hughes                             : Service Company
 DATE.       16-JAN-2016                              : Log Date
 UWI .       1AA072209208W400                         : Unique Well ID
 LIC .       0477502                                  : License Number
 LATI.DEG    57.0175 N                                : Latitude Coordinates
 LONG.DEG    -111.419 W                               : Longitude Coordinates
~Curve Information Block
#MNEM    .UNIT        API Codes     Curve Description
#--------.--------   LG--CV-CL--M   -------------------------------
 DEPT    .M           0 001  0  1 : Depth
 AZSTQH  .deg        99 995 99  1 : Azimuth of reference pad for STAR
 BKRGQH  .dim        99 995 99  1 : Bucker driver value
 DEVSTQH .deg        99 995 99  1 : Deviation for STAR
 DIP1QH  .raw        75 610  1  1 : Pad 1 average data of buttons 11, 12, 13, 14
 DIP2QH  .raw        75 610  1  1 : Pad 2 average data of buttons 11, 12, 13, 14
 DIP3QH  .raw        75 610  1  1 : Pad 3 average data of buttons 11, 12, 13, 14
 DIP4QH  .raw        75 610  1  1 : Pad 4 average data of buttons 11, 12, 13, 14
 DIP5QH  .raw        75 610  1  1 : Pad 5 average data of buttons 11, 12, 13, 14
 DIP6QH  .raw        75 610  1  1 : Pad 6 average data of buttons 11, 12, 13, 14
 GR      .gAPI       30 310  1  1 : Gamma ray
 PADFQH  .pct        94 995 99  1 : Pad force
 PADGQH  .dim        99 995 99  1 : Pad gain code
 RAD1QH  .mm         75 280 99  1 : Radius, tool axis to pad 1 face
 RAD2QH  .mm         75 280 99  1 : Radius, tool axis to pad 2 face
 RAD3QH  .mm         75 280 99  1 : Radius, tool axis to pad 3 face
 RAD4QH  .mm         75 280 99  1 : Radius, tool axis to pad 4 face
 RAD5QH  .mm         75 280 99  1 : Radius, tool axis to pad 5 face
 RAD6QH  .mm         75 280 99  1 : Radius, tool axis to pad 6 face
 RAZGSTQH.mG         99 995 99  1 : Raw Z-axis accelerometer shifted to STAR
 RBSTQH  .deg        99 995 99  1 : Relative bearing (relative to borehole high side) for STAR
 SPD     .m/min      99 636 99  1 : Speed
~Parameter Information Block
#MNEM.UNIT                     Value                    Description
#----.----   ----------------------------------------   -------------------------------
 HID1.       RESISTIVITY IMAGING LOG^T                : Header Identifer
 HID2.       GAMMA RAY LOG                            : Header Identifer
 FILE.       3953                                     : File Number
 CMT1.       UID                                      : Comment 1  
 CMT2.       1AA072209208W400                         : Comment 2  
 CMT3.       LICENSE                                  : Comment 3  
 CMT4.       0477502                                  : Comment 4  
 FL2 .       BH LOC. LSD  07                          : Field Location 2
 SECT.       22                                       : Section
 TOWN.       092                                      : Township
 RANG.       08W4                                     : Range
 OS1 .       ZDL-CN-GR-CAL                            : Other Services Line 1
 OS2 .       HDIL-GR-CAL, CVL                         : Other Services Line 2
 OS3 .       DAL-GR-CAL                               : Other Services Line 3
 OS4 .       COMPOSITE                                : Other Services Line 4
 PDAT.       G.L.                                     : Permanent Datum
 EPD .M      438.50                                   : Elevation Of Perm. Datum
 LMF .       K.B.                                     : Log Measured From
 APD .M      2.20                                     : Above Permanent Datum
 DMF .       KELLY BUSHING                            : Drilling Measured From
 EKB .M      440.70                                   : Elevation Of Kelly Bushing
 EGL .M      438.50                                   : Elevation Of Ground Level
 RUN .       1                                        : Run Number
 TRIP.       1                                        : Trip Number
 SON .       CA003953J                                : Service Order Number
 TDD .M      187.0                                    : Total Depth - Driller
 TDL .M      186.3                                    : Total Depth - Logger
 BLI .M      183.0                                    : Bottom Log Interval
 TLI .M      55.0                                     : Top Log Interval
 CSIZ.MM     177.8                                    : Casing Size
 CBDR.M      49.4                                     : Casing Bottom - Driller
 CBLO.M      49.4                                     : Casing Bottom - Logger
 BS  .MM     156.0                                    : Bit Size
 DFT .       WB (WATER BASE MUD)                      : Drilling Fluid Type
 DFD .G/L    1030.0                                   : Drilling Fluid Density
 DFV .S      79.0                                     : Drilling Fluid Viscosity
 DFPH.       7.0                                      : Drilling Fluid Ph
 DFL .ML     8.0                                      : Drilling Fluid Loss
 MSS .       F (FLOWLINE)                             : Mud Sample Source
 RMS .OHMM   1.2                                      : Resistivity Of Mud Sample
 MST .DEGC   25.0                                     : Mud Sample Temperature
 RMFS.OHMM   1.0                                      : Resistivity Of Mud Filtrate Sample
 MFST.DEGC   25.0                                     : Mud Filtrate Sample Temperature
 RMCS.OHMM   1.4                                      : Resistivity Of Mud Cake Sample
 MCST.DEGC   25.0                                     : Mud Cake Sample Temperature
 MFSS.       CALCULATED                               : Mud Filtrate Sample Source
 MCSS.       CALCULATED                               : Mud Cake Sample Source
 RMB .OHMM   2.0                                      : Mud Resistivity At Bht
 BHT .DEGC   7.0                                      : Bottom Hole Temperature
 TSC .       5.0 HOURS                                : Time Since Circulation
 MRT .DEGC   7.0                                      : Maximum Recorded Temperature
 LUN .       Z004250                                  : Logging Unit Number
 LUL .       LEDUC OH                                 : Logging Unit Location
 ENGI.       A.MALIK                                  : Engineer's Name
 WITN.       H.WILSON / P.ENE                         : Witness' Name
 TSTR.       /STAR/GR/                                : Title Service Mnemonic
 TSTG.       NA                                       : Title Service Mnemonic
 STUS.       FINAL                                    : Status
 LCNM.       BAKER ATLAS                              : Logging Company Name
 LCC .       150                                      : Logging Company Code
 OPMD.       OH.WIRE                                  : Operation Mode
 PANA.       A.MALIK                                  : Processing Analyst
 PCON.       BAKER ATLAS                              : Processing Contractor
 APIN.                                                : API Serial Number
 STAT.                                                : State Or Province
~Other information
LAT/LON  57.0175, -111.419                                                      
TIME STOPPED CIRCULATION  16-JAN-2016 0830AM                                    
STAR RUN WITH 0% PAD FORCE AND AUTOMATICALLY CONTROLLED GAINS                   
ANY STICK AND PULL AFFECTS LOG QUALITY                                          
RIG  ENCORE 402                                                                 
CREW  F.AJAGU, A.MALIK                                                          
#  Curve Data
~A   DEPT         AZSTQH       BKRGQH       DEVSTQH      DIP1QH       DIP2QH       DIP3QH       DIP4QH       DIP5QH       DIP6QH       GR           PADFQH       PADGQH       RAD1QH       RAD2QH       RAD3QH       RAD4QH       RAD5QH       RAD6QH       RAZGSTQH     RBSTQH       SPD       
# ...
     154.9908     209.5797      10.0000       0.4380      99.0000     138.0000      94.0000     154.0000      97.0000      67.0000      21.8686       1.1304       4.0000      78.2371      76.2686      77.1739      76.3590      80.5140      77.5370    1008.0573     132.0269       3.4855
     155.0670     209.3115      10.0000       0.4779     124.0000      74.0000     112.0000      56.0000     109.0000      27.0000      22.4457       1.2366       3.0000      79.0037      77.5299      77.6911      75.5897      80.2580      76.4079    1017.8760     129.0761       3.4897
     155.1432     208.5464       9.0000       0.4382      25.0000      57.0000      49.0000      37.0000      16.0000      15.0000      23.0169       1.2366       3.0000      77.5983      77.5299      76.7860      81.4872      84.6090      80.9242     994.9656     132.0269       3.4945
     155.2194     207.8258       9.0000       0.4380     106.0000      49.0000      53.0000      37.0000      43.0000       0.0000      23.6201       1.2366       3.0000      76.9595      74.6288      76.7860      78.5384      84.6090      81.0496     992.5109     132.0269       3.4976
     155.2956     207.3755       8.0000       0.4381     184.0000      25.0000     152.0000      21.0000     125.0000       5.0000      24.3091       1.2366       3.0000      76.9595      74.1243      75.2344      77.7692      84.6090      79.0424    1008.8755     132.0269       3.4966
     155.3718     206.9253       8.0000       0.4380     256.0000     152.0000     213.0000      91.0000     309.0000      98.0000      25.1053       1.2366       3.0000      77.3428      73.9982      74.9758      76.8718      84.6090      79.0424    1009.6937     132.0269       3.4907
     155.4480     206.6117       8.0000       0.4381      97.0000     293.0000      94.0000     191.0000     144.0000     310.0000      25.9332       1.2366       3.0000      76.4485      73.7459      74.7172      76.8718      82.9454      79.0424    1009.6937     132.0269       3.4821
     155.5242     205.8886      10.0000       0.4380     484.0000     359.0000     486.0000     532.0000     517.0000     662.0000      26.6006       1.1304       3.0000      75.9375      73.6198      74.9758      76.4872      82.5615      77.1606    1014.6031     132.0269       3.4749
     155.6004     205.1641      10.0000       0.4153     450.0000     273.0000     418.0000     519.0000     945.0000     470.0000      26.8514       1.1304       3.0000      76.3208      73.6198      75.1051      77.1282      83.0734      78.0388    1015.4213     126.5865       3.4727
     155.6766     205.1641      10.0000       0.4153     301.0000     352.0000     384.0000     676.0000     484.0000     911.0000      26.5153       1.1304       3.0000      76.3208      73.6198      75.8809      76.8718      82.8174      79.2933    1017.8760     126.5865       3.4762
     155.7528     205.1641      10.0000       0.4154     355.0000     250.0000     166.0000     877.0000     485.0000     234.0000      25.6163       1.2366       3.0000      75.5542      74.1243      75.7516      76.8718      82.9454      79.1679    1012.1484     126.5865       3.4830
     155.8290     205.1641      10.0000       0.4154     209.0000     447.0000     253.0000     973.0000     320.0000     828.0000      24.4068       1.1304       5.0000      75.0432      74.1243      75.4930      76.3590      83.4573      79.1679    1012.1484     126.5865       3.4889
     155.9052     205.6143      10.0000       0.4380     365.0000     237.0000     217.0000     335.0000     367.0000     118.0000      23.2402       1.2366       5.0000      75.0432      74.1243      75.7516      77.7692      82.9454      79.7951     999.0568     132.0269       3.4895
     155.9814     206.6117      10.0000       0.4380     584.0000     198.0000     719.0000     261.0000     181.0000     449.0000      22.4108       1.1304       5.0000      73.2546      74.1243      75.7516      76.8718      82.4335      79.6697    1017.0578     132.0269       3.4827
     156.0576     206.2019      10.0000       0.4381     179.0000     769.0000     433.0000     196.0000     396.0000     210.0000      22.0578       1.2366       5.0000      76.4485      74.1243      75.4930      77.2564      83.4573      79.6697    1008.8755     132.0269       3.4706
     156.1338     205.4389      10.0000       0.4381     282.0000     210.0000     738.0000     489.0000     600.0000     192.0000      22.1847       1.2366       5.0000      77.3428      74.1243      75.3637      77.2564      84.6090      79.5442    1009.6937     132.0269       3.4580
     156.2100     205.3016      10.0000       0.4154     207.0000     286.0000     168.0000     427.0000     150.0000     344.0000      22.7222       1.2366       5.0000      77.2151      74.1243      75.8809      78.9231      84.6090      79.6697    1009.6937     126.5865       3.4489
     156.2862     205.3016      10.0000       0.4153     127.0000     297.0000      75.0000      95.0000     109.0000      56.0000      23.5888       1.1304       4.0000      76.9595      74.1243      75.7516      79.5641      84.6090      80.0460    1016.2395     126.5865       3.4458
     156.3624     205.5760      10.0000       0.4381     304.0000      41.0000      58.0000      83.0000      54.0000      82.0000      24.6937       1.1304       3.0000      76.7040      73.8720      75.4930      78.1538      82.5615      79.6697    1021.9672     132.0269       3.4491
     156.4386     205.7516      10.0000       0.4381     278.0000     506.0000     125.0000      49.0000      82.0000     124.0000      25.9050       1.1304       3.0000      76.8318      74.2504      74.7172      78.1538      82.9454      79.1679     997.4203     132.0269       3.4571
     156.5148     204.5764      10.0000       0.4152     389.0000      93.0000     827.0000      58.0000     602.0000      81.0000      26.9925       1.2366       3.0000      76.5763      74.2504      74.9758      76.8718      82.9454      79.2933    1006.4208     126.5865       3.4663
     156.5910     204.4029      10.0000       0.4153     135.0000     673.0000     305.0000     285.0000     175.0000     627.0000      27.6711       1.2366       3.0000      76.7040      73.7459      75.6223      75.9743      82.9454      79.1679    1015.4213     126.5865       3.4736
     156.6672     204.1268      10.0000       0.4154     194.0000     567.0000     187.0000     412.0000     320.0000     545.0000      27.7162       1.1304       4.0000      76.5763      74.3766      75.4930      76.3590      82.9454      79.2933    1004.7843     126.5865       3.4776
     156.7434     203.9886      10.0000       0.4153     178.0000     213.0000     595.0000     357.0000     682.0000     215.0000      27.0708       1.1304       4.0000      76.4485      74.1243      75.3637      76.7436      83.4573      79.2933    1013.7849     126.5865       3.4789
     156.8196     203.9886      10.0000       0.4154     146.0000     557.0000     427.0000     903.0000     284.0000     640.0000      25.8625       1.1304       4.0000      76.7040      74.3766      75.6223      77.2564      82.9454      79.1679    1008.0573     126.5865       3.4793
     156.8958     203.6778      10.0000       0.4153     185.0000     202.0000     146.0000     238.0000     193.0000      99.0000      24.3467       1.1304       4.0000      76.7040      74.1243      75.8809      77.0000      82.5615      79.1679    1009.6937     126.5865       3.4801
     156.9720     202.2257      10.0000       0.4573     791.0000     160.0000     162.0000     189.0000     204.0000      70.0000      22.8437       1.1304       4.0000      76.7040      74.2504      75.8809      76.8718      82.9454      79.1679    1012.9667     123.9840       3.4823
     157.0482     200.9124      10.0000       0.4574     809.0000     234.0000     985.0000     102.0000     608.0000     202.0000      21.6155       1.1304       4.0000      76.8318      74.5027      75.3637      77.2564      82.9454      79.1679    1013.7849     123.9840       3.4861
