~VERSION INFORMATION 
VERS.          2.0   :CWLS LOG ASCII STANDARD - VERSION 2.0
WRAP.          NO    :ONE LINE PER DEPTH STEP
PROD.  Schlumberger   :LAS Producer
PROG.  DLIS to ASCII 19C2-270                          :LAS Program name and version
CREA.        2014/02/23 09:08                          :LAS Creation date {YYYY/MM/DD hh:mm}
DLIS_CREA.  2014-Feb-23 08:51                          :DLIS Creation date and time {YYYY-MMM-DD hh:mm}
SOURCE.     1AA063409108W400_FMI_SONIC_REPEAT.dlis     :DLIS File Name
FILE-ID.     ConPr_R2L2Up_S008_FBST_DSLT_HGNS          :File Identification Number
#--------------------------------------------------
~WELL INFORMATION 
#MNEM.UNIT      DATA             DESCRIPTION
#---- ------ --------------   -----------------------------
STRT.M      88.69680        :START DEPTH
STOP.M      258.01320       :STOP DEPTH
STEP.M       0.15240        :STEP
NULL .          -999.25      :NULL VALUE
COMP.        SUNCOR ENERGY INC.                       :COMPANY
WELL.        SUNCOR LEWIS 6-34-91-8                   :WELL
FLD  .        LEWIS                                    :FIELD
LOC.        6-34-91-8W4                              :LOCATION
PROV .        ALBERTA                                  :PROVINCE
UWI.        1AA063409108W400                         :UNIQUE WELL ID
LIC  .        0464072                                  :LICENSE NUMBER
CTRY .        CA                                       :COUNTRY (WWW code)
DATE.        23-Feb-2014                              :LOG DATE {DD-MMM-YYYY}
SRVC .        Schlumberger                             :SERVICE COMPANY
LATI .DEG     56.934500 degrees                        :LATITUDE
LONG .DEG     -111.20540 degrees                       :LONGITUDE
GDAT .                                                 :GeoDetic Datum
SECT .        06-34                                    :Section
RANG .        08W4                                     :Range
TOWN .        091                                      :Township
#-----------------------------------------------------------------------------
~CURVE INFORMATION 
#MNEM.UNIT   API CODE                                  DESCRIPTION
#---- -----  --------                                  -----------------------
 DEPT.M         00 001 00 00             :Depth Index - Measured Depth
   BS.MM        61 280 07 00             :BIT SIZE {F14.5}
   C1.MM        42 280 06 00             :CALIPER 1 {F14.5}
   C2.MM        42 280 05 00             :CALIPER 2 {F14.5}
DEPTH.M         00 001 00 00             :DEPTH INDEX {F14.5}
DEVIM.DEG       00 630 00 00             :MEMORIZED DEVIATION {F14.5}
   DT.US/M      60 520 32 00             :DELTA-T (ALSO CALLED SLOWNESS OR INTERVAL TRANSIT TIME) {F14.5}
   EI.MA        00 000 00 00             :EMEX CURRENT {F14.5}
   EV.V         00 000 00 00             :EMEX VOLTAGE {F14.5}
 FBCR.OHMS      00 000 00 00             :CORRELATION RESISTANCE {F14.5}
   GR.GAPI      42 310 01 00             :GAMMA RAY {F14.5}
 HAZI.DEG       00 620 00 00             :HOLE AZIMUTH RELATIVE TO TRUE NORTH {F14.5}
HAZIM.DEG       00 620 00 00             :HOLE AZIMUTH RELATIVE TO TRUE NORTH {F14.5}
 P1AZ.DEG       00 630 00 00             :PAD 1 AZIMUTH IN HORIZONTAL PLANE (0 = TRUE NORTH) {F14.5}
P1NO_FBST.DEG   00 000 00 00             :PAD 1 AZIMUTH IN PLANE ORTHOGONAL TO TOOL AXIS (0 = TRUE NORTH), MEMORIZED TO FBST {F14.5}
   RB.DEG       00 631 00 00             :RELATIVE BEARING {F14.5}
 SDEV.DEG       00 000 00 00             :SONDE DEVIATION {F14.5}
 TENS.N         61 280 10 00             :CABLE TENSION {F14.5}
  TT1.US        60 520 32 01             :TRANSIT TIME 1 {F14.5}
  TT2.US        60 520 32 02             :TRANSIT TIME 2 {F14.5}
  TT3.US        60 520 32 03             :TRANSIT TIME 3 {F14.5}
  TT4.US        60 520 32 04             :TRANSIT TIME 4 {F14.5}
~PARAMETER INFORMATION 
#MNEM.UNIT    VALUE                      DESCRIPTION
#---- -----   --------------------       ------------------------
 CSGD.M       72.80000                   :Casing Bottom of Driller
 CSGL.M       73.20000                   :Logger Casing Shoe Depth
 CSGS.MM      177.80000                  :Current Casing Size
 CSGW.KG/M    25.30000                   :Casing Weight
 MUDD.K/M3    1090.00000                 :Drilling Fluid Density
  DFL.C3      6.00000                    :Drilling Fluid Loss
   PH.        10.00000                   :Drilling Fluid pH
  MUD.        Polymer                    :Drilling Fluid Type
 MUDV.S       108.00000                  :Drilling Fluid Viscosity
   GL.M       445.00000                  :Elevation of Ground Level
 EREF.M       449.00000                  :Elevation of Kelly Bushing
  ENG.        NICK POLLEY                :Engineer s Name
 DREF.        KB                         :Logging Measured From (Name of Logging Elevation Reference)
 BASE.        WINTER PROJECT             :LOGGING UNIT LOCATION
 FACT.        CP4P-00020                 :Service Order Number
  LIC.        0464072                    :API Well Number
 PROV.        ALBERTA                    :County or Parish
 UNIT.        3125                       :Logging Unit Number
 RMCT.DEGC    8.73000                    :Mudcake Sample Temperature
 RMFT.DEGC    8.73000                    :Mud Filtrate Sample Temperature
 TMAX.DEGC    12.28000                   :Maximum Recorded Temperature
 MUDS.        Flowline                   :Mud Sample Source
  RMT.DEGC    8.73000                    :Mud Sample Temperature
RANGE.        08W4                       :Range
  RMC.OHMM    1.18000                    :Resistivity of Mud Cake Sample
  RMF.OHMM    0.59200                    :Resistivity of Mud Filtrate Sample
   RM.OHMM    0.78900                    :Resistivity of Mud Sample
SECTION.      06-34                      :Section
 TIMC.        01 55 00                   :Time Circulation Stopped
 TIML.        07 55 00                   :Time Logger At Bottom
TOWNSHIP.     091                        :Township
  WIT.        JONATHAN FELL              :Witness s Name
  APD.M       4.00000                    :Elevation of Depth Reference (LMF) Above Permanent Datum
 APIN.        0464072                    :API Well Number
  BHT.DEGC    12.28000                   :Bottom Hole Temperature
  BLI.M       256.00000                  :Bottom Log Interval
   BS.MM      156.00000                  :Bit Size
   CN.        SUNCOR ENERGY INC.         :Company Name
 COUN.        ALBERTA                    :County or Parish
 LDAT.        23-Feb-2014                :Tools Above Rotary Table Date
  DCS.        23-Feb-2014                :Date Circulation Stopped
  DFL.C3      6.00000                    :Drilling Fluid Loss
 DLAB.        23-Feb-2014                :Date Logger At Bottom
  DMF.        KB                         :Drilling Measured From (Name of Drilling Elevation Reference)
  EDF.M       448.70001                  :Elevation of Drill Floor
  EGL.M       445.00000                  :Elevation of Ground Level
  EKB.M       449.00000                  :Elevation of Kelly Bushing
   FD.K/M3    1000.00000                 :Fluid Density
   FL.        6-34-91-8W4               :FIELD LOCATION
  FL1.        1AA063409108W400           :Field Location, Line 1
  FL2.                                   :Field Location, Line 2
   FN.        LEWIS                      :Field Name
 HID1.                                   :Header Identifier 1
 HID2.                                   :Header Identifier 2
 HIDE.        LEWIS                      :Header Identifier
 LATI.        56.934500 degrees          :Latitude
  LMF.        KB                         :Logging Measured From (Name of Logging Elevation Reference)
 LONG.        -111.20540 degrees         :Longitude
 MATR.        SAND                       :Rock Matrix for Neutron Porosity Corrections
 MCSS.        Calculated                 :Mudcake Sample Source
 MDEC.DEG     14.38033                   :Magnetic Field Declination
 MDEN.K/M3    2650.00000                 :Matrix Density for Density Porosity
 MRT1.DEGC    12.28000                   :Maximum Recorded Temperature 1
 MRT2.DEGC    -999.25000                 :Maximum Recorded Temperature 2
  NMT.        NOBARITE                   :HRDD Mud Type for Nuclear Devices
  OS1.                                   :Other Services Line 1
  OS2.                                   :Other Services Line 2
  OS3.                                   :Other Services Line 3
  OS4.                                   :Other Services Line 4
  OS5.                                   :Other Services Line 5
 PDAT.        GL                         :Permanent Datum
   R1.        THANK YOU FOR CHOOSING SCHLUMBERGER  :Remarks Line 1
   R2.        ALL TOOLS RAN AS PER TOOL SKETCH AND ALL PRESENTATIONS AS PER CLIENT REQUEST  :Remarks Line 2
   R3.        INDUCTION LOG – DESCENT #1 :Remarks Line 3
   R4.        NEUTRON / DENSITY LOG – DESCENT #1  :Remarks Line 4
  RMB.OHMM    0.70618                    :Resistivity of Mud at Bottom Hole Temperature
 RMFB.OHMM    0.52986                    :Resistivity of Mud Filtrate At Bottom Hole Temperature
  RUN.        ONE/2                      :Run Number
  SON.        CP4P-00020                 :SERVICE ORDER NUMBER
  TDD.M       256.00000                  :Driller Total Depth
  TDL.M       256.00000                  :Logger Total Depth
  TLI.M       75.00000                   :Top Log Interval
 UWID.        1AA063409108W400           :Unique Well Identifier
   WN.        SUNCOR LEWIS 6-34-91-8     :Well Name
  EPD.C3      445.000000                 :Elevation of Permanent Datum above Mean Sea Level
#-----------------------------------------------------------------------------
#
#      DEPT          BS            C1            C2            DEPTH         DEVIM         DT            EI            EV            FBCR          GR            HAZI          HAZIM         P1AZ        P1NO_FBST       RB            SDEV          TENS          TT1           TT2           TT3           TT4
#
#-----------------------------------------------------------------------------

~A       DEPT           BS           C1           C2        DEPTH        DEVIM           DT           EI           EV         FBCR           GR         HAZI        HAZIM         P1AZ    P1NO_FBST           RB         SDEV         TENS          TT1          TT2          TT3          TT4
# ...
    255.11760     156.00000     120.12740     119.98662     255.11526       0.97599     316.56396    2297.17651      15.01038  554579.37500      17.31999     211.31288     211.85129     134.68800     120.82487     283.37646       0.87646    7734.46875     618.38232     422.68115     627.88849     437.61285
    255.27000     156.00000     110.88956     110.33493     255.26923       0.97599     316.56396    2327.85156      14.93240  425382.90625      17.31999     211.40170     211.85129     129.55003     117.78991     278.14960       0.89176    7004.07617     618.38232     422.68115     627.88849     437.61285
    255.42240     156.00000     100.42003      99.39638     255.42221       0.97599     316.56396    2292.06445      15.08836  276165.68750      17.31999     211.46495     211.85129     123.92232     116.73045     272.45715       0.90664    6547.52051     618.38232     422.68115     627.88849     437.61285
    255.57480     156.00000     100.42003      99.39638     255.57542       0.97599     316.56396    2295.47290      15.10785  241581.21875      17.31999     211.56264     211.85129     119.22400     116.27391     267.66122       0.92676    5446.52979     618.38232     422.68115     627.88849     437.61285
    255.72720     156.00000     100.42003      99.71809     255.72571       0.97599     316.56396    2300.58496      15.06886  222119.04688      17.31999     211.59569     211.85129     117.36649     112.94274     265.77026       0.93198    5889.44531     618.38232     422.68115     627.88849     437.61285
    255.87960     156.00000     100.42003      99.39638     255.88069       0.97599     316.56396    2303.99365      15.10785  218999.34375      17.31999     211.63766     211.85129     116.42917     109.40124     264.79138       0.94248    5437.13135     618.38232     422.68115     627.88849     437.61285
    256.03200     156.00000     100.42003      99.39638     256.03418       0.97599     316.56396    2300.58496      15.10785  218310.35938      17.31999     211.63383     211.85129     115.89838     108.02621     264.26431       0.94515    2996.37158     618.38232     422.68115     627.88849     437.61285
    256.18440     156.00000     100.42003      99.39638     256.18390       0.97599     316.56396    2295.47290      15.08836  218511.81250      17.31999     211.64082     211.85129     111.33122     108.10327     259.68875       0.94866    1060.24670     618.38232     422.68115     627.88849     437.61285
    256.33680     156.00000     100.42003      99.39638     256.33755       0.97599     316.56396    2295.47290      15.08836  218878.39063      17.31999     211.66508     211.85129     108.31751     108.10760     256.65063       0.95443     352.39801     618.38232     422.68115     627.88849     437.61285
    256.48920     156.00000     100.42003      99.39638     256.49072       0.97599     316.56396    2297.17651      15.12735  218719.78125      17.31999     211.64809     211.85129     108.02287     108.19330     256.37317       0.95518     286.80438     618.38232     422.68115     627.88849     437.61285
    256.64160     156.00000     100.42003      99.39638     256.65976       0.97599     316.56396    2302.28955      15.08836  218499.93750      17.31999     211.55257     211.85129     108.19132     108.17516     256.63690       0.96912     213.93166     618.38232     422.68115     627.88849     437.61285
    256.79400     156.00000     100.42003      99.20371     256.79523       0.97599     316.56396    2302.28955      15.08836  218455.20313      17.31999     211.71178     211.85129     108.23533     108.05308     256.52130       0.97324     149.83917     618.38232     422.68115     627.88849     437.61285
    256.94640     156.00000     100.42003      99.39638     256.94702       0.97599     316.56396    2300.58496      15.16633  219050.60938      17.31999     211.64653     211.85129     108.12539     108.14312     256.47766       0.96798      67.40767     618.38232     422.68115     627.88849     437.61285
    257.09880     156.00000     100.42003      99.39638     257.09857       0.97599     316.56396    2297.17651      15.16633  219165.40625      17.31999     211.66130     211.85129     108.12341     108.09118     256.46008       0.97149      24.30047     618.38232     422.68115     627.88849     437.61285
    257.25120     156.00000     100.42003      99.39638     257.25589       0.97599     316.56396    2297.17651      15.14684  219145.81250      17.31999     211.37672     211.85129     108.12270     108.09824     256.74368       0.96488     -39.48772     618.38232     422.68115     627.88849     437.61285
    257.40360     156.00000     100.42003      99.39638     257.40344       0.97599     316.56396    2293.76855      15.06886  219041.96875      17.31999     211.45909     211.85129     108.20319     108.14124     256.74261       0.96601     -74.33043     618.38232     422.68115     627.88849     437.61285
    257.55600     156.00000     100.42003      99.39638     257.55524       0.97599     316.56396    2259.68555      15.04937    -999.25000      17.31999     211.37843     211.85129     108.15561     108.18306     256.77527       0.96388     -94.70200     618.38232     422.68115     627.88849     437.61285
    257.70840     156.00000     100.42003      99.39638     257.70081       0.97599     316.56396    2259.68555      15.04937    -999.25000      17.31999     211.79948     211.85129     108.19983     108.18306     256.39856       0.97479     -83.52772     618.38232     422.68115     627.88849     437.61285
    257.86080     156.00000     100.42003      99.39638     257.86188       0.97599     316.56396    2259.68555      15.04937    -999.25000      17.31999     211.93181     211.85129     108.16768     108.18306     256.23419       0.97827     116.05814     618.38232     422.68115     627.88849     437.61285
    258.01320     156.00000     100.42003      99.39638     257.95477       0.97599     316.56396    2259.68555      15.04937    -999.25000      17.31999     211.76204     211.85129     108.11906     108.18306     256.35486       0.97353      57.82688     618.38232     422.68115     627.88849  -70301.70905
