~VERSION INFORMATION 
VERS.          2.0   :CWLS LOG ASCII STANDARD - VERSION 2.0
WRAP.          NO    :ONE LINE PER DEPTH STEP
PROD.  Schlumberger   :LAS Producer
PROG.  DLIS to ASCII 19C2-270                          :LAS Program name and version
CREA.        2014/02/23 09:08                          :LAS Creation date {YYYY/MM/DD hh:mm}
DLIS_CREA.  2014-Feb-23 08:51                          :DLIS Creation date and time {YYYY-MMM-DD hh:mm}
SOURCE.     1AA063409108W400_FMI_SONIC_MAIN.dlis       :DLIS File Name
FILE-ID.     ConPr_R2L3Up_S008_FBST_DSLT_HGNS          :File Identification Number
#--------------------------------------------------
~WELL INFORMATION 
#MNEM.UNIT      DATA             DESCRIPTION
#---- ------ --------------   -----------------------------
STRT.M      54.71160        :START DEPTH
STOP.M      257.70840       :STOP DEPTH
STEP.M       0.15240        :STEP
NULL .          -999.25      :NULL VALUE
COMP.        SUNCOR ENERGY INC.                       :COMPANY
WELL.        SUNCOR LEWIS 6-34-91-8                   :WELL
FLD  .        LEWIS                                    :FIELD
LOC.        6-34-91-8W4                              :LOCATION
PROV .        ALBERTA                                  :PROVINCE
UWI.        1AA063409108W400                         :UNIQUE WELL ID
LIC  .        0464072                                  :LICENSE NUMBER
CTRY .        CA                                       :COUNTRY (WWW code)
DATE.        23-Feb-2014                              :LOG DATE {DD-MMM-YYYY}
SRVC .        Schlumberger                             :SERVICE COMPANY
LATI .DEG     56.934500 degrees                        :LATITUDE
LONG .DEG     -111.20540 degrees                       :LONGITUDE
GDAT .                                                 :GeoDetic Datum
SECT .        06-34                                    :Section
RANG .        08W4                                     :Range
TOWN .        091                                      :Township
#-----------------------------------------------------------------------------
~CURVE INFORMATION 
#MNEM.UNIT   API CODE                                  DESCRIPTION
#---- -----  --------                                  -----------------------
 DEPT.M         00 001 00 00             :Depth Index - Measured Depth
   BS.MM        61 280 07 00             :BIT SIZE {F14.5}
   C1.MM        42 280 06 00             :CALIPER 1 {F14.5}
   C2.MM        42 280 05 00             :CALIPER 2 {F14.5}
DEPTH.M         00 001 00 00             :DEPTH INDEX {F14.5}
DEVIM.DEG       00 630 00 00             :MEMORIZED DEVIATION {F14.5}
   DT.US/M      60 520 32 00             :DELTA-T (ALSO CALLED SLOWNESS OR INTERVAL TRANSIT TIME) {F14.5}
   EI.MA        00 000 00 00             :EMEX CURRENT {F14.5}
   EV.V         00 000 00 00             :EMEX VOLTAGE {F14.5}
 FBCR.OHMS      00 000 00 00             :CORRELATION RESISTANCE {F14.5}
   GR.GAPI      42 310 01 00             :GAMMA RAY {F14.5}
 HAZI.DEG       00 620 00 00             :HOLE AZIMUTH RELATIVE TO TRUE NORTH {F14.5}
HAZIM.DEG       00 620 00 00             :HOLE AZIMUTH RELATIVE TO TRUE NORTH {F14.5}
 P1AZ.DEG       00 630 00 00             :PAD 1 AZIMUTH IN HORIZONTAL PLANE (0 = TRUE NORTH) {F14.5}
P1NO_FBST.DEG   00 000 00 00             :PAD 1 AZIMUTH IN PLANE ORTHOGONAL TO TOOL AXIS (0 = TRUE NORTH), MEMORIZED TO FBST {F14.5}
   RB.DEG       00 631 00 00             :RELATIVE BEARING {F14.5}
 SDEV.DEG       00 000 00 00             :SONDE DEVIATION {F14.5}
 TENS.N         61 280 10 00             :CABLE TENSION {F14.5}
  TT1.US        60 520 32 01             :TRANSIT TIME 1 {F14.5}
  TT2.US        60 520 32 02             :TRANSIT TIME 2 {F14.5}
  TT3.US        60 520 32 03             :TRANSIT TIME 3 {F14.5}
  TT4.US        60 520 32 04             :TRANSIT TIME 4 {F14.5}
~PARAMETER INFORMATION 
#MNEM.UNIT    VALUE                      DESCRIPTION
#---- -----   --------------------       ------------------------
 CSGD.M       72.80000                   :Casing Bottom of Driller
 CSGL.M       73.20000                   :Logger Casing Shoe Depth
 CSGS.MM      177.80000                  :Current Casing Size
 CSGW.KG/M    25.30000                   :Casing Weight
 MUDD.K/M3    1090.00000                 :Drilling Fluid Density
  DFL.C3      6.00000                    :Drilling Fluid Loss
   PH.        10.00000                   :Drilling Fluid pH
  MUD.        Polymer                    :Drilling Fluid Type
 MUDV.S       108.00000                  :Drilling Fluid Viscosity
   GL.M       445.00000                  :Elevation of Ground Level
 EREF.M       449.00000                  :Elevation of Kelly Bushing
  ENG.        NICK POLLEY                :Engineer s Name
 DREF.        KB                         :Logging Measured From (Name of Logging Elevation Reference)
 BASE.        WINTER PROJECT             :LOGGING UNIT LOCATION
 FACT.        CP4P-00020                 :Service Order Number
  LIC.        0464072                    :API Well Number
 PROV.        ALBERTA                    :County or Parish
 UNIT.        3125                       :Logging Unit Number
 RMCT.DEGC    8.73000                    :Mudcake Sample Temperature
 RMFT.DEGC    8.73000                    :Mud Filtrate Sample Temperature
 TMAX.DEGC    12.28000                   :Maximum Recorded Temperature
 MUDS.        Flowline                   :Mud Sample Source
  RMT.DEGC    8.73000                    :Mud Sample Temperature
RANGE.        08W4                       :Range
  RMC.OHMM    1.18000                    :Resistivity of Mud Cake Sample
  RMF.OHMM    0.59200                    :Resistivity of Mud Filtrate Sample
   RM.OHMM    0.78900                    :Resistivity of Mud Sample
SECTION.      06-34                      :Section
 TIMC.        01 55 00                   :Time Circulation Stopped
 TIML.        07 55 00                   :Time Logger At Bottom
TOWNSHIP.     091                        :Township
  WIT.        JONATHAN FELL              :Witness s Name
  APD.M       4.00000                    :Elevation of Depth Reference (LMF) Above Permanent Datum
 APIN.        0464072                    :API Well Number
  BHT.DEGC    12.28000                   :Bottom Hole Temperature
  BLI.M       256.00000                  :Bottom Log Interval
   BS.MM      156.00000                  :Bit Size
   CN.        SUNCOR ENERGY INC.         :Company Name
 COUN.        ALBERTA                    :County or Parish
 LDAT.        23-Feb-2014                :Tools Above Rotary Table Date
  DCS.        23-Feb-2014                :Date Circulation Stopped
  DFL.C3      6.00000                    :Drilling Fluid Loss
 DLAB.        23-Feb-2014                :Date Logger At Bottom
  DMF.        KB                         :Drilling Measured From (Name of Drilling Elevation Reference)
  EDF.M       448.70001                  :Elevation of Drill Floor
  EGL.M       445.00000                  :Elevation of Ground Level
  EKB.M       449.00000                  :Elevation of Kelly Bushing
   FD.K/M3    1000.00000                 :Fluid Density
   FL.        6-34-91-8W4               :FIELD LOCATION
  FL1.        1AA063409108W400           :Field Location, Line 1
  FL2.                                   :Field Location, Line 2
   FN.        LEWIS                      :Field Name
 HID1.                                   :Header Identifier 1
 HID2.                                   :Header Identifier 2
 HIDE.        LEWIS                      :Header Identifier
 LATI.        56.934500 degrees          :Latitude
  LMF.        KB                         :Logging Measured From (Name of Logging Elevation Reference)
 LONG.        -111.20540 degrees         :Longitude
 MATR.        SAND                       :Rock Matrix for Neutron Porosity Corrections
 MCSS.        Calculated                 :Mudcake Sample Source
 MDEC.DEG     14.38033                   :Magnetic Field Declination
 MDEN.K/M3    2650.00000                 :Matrix Density for Density Porosity
 MRT1.DEGC    12.28000                   :Maximum Recorded Temperature 1
 MRT2.DEGC    -999.25000                 :Maximum Recorded Temperature 2
  NMT.        NOBARITE                   :HRDD Mud Type for Nuclear Devices
  OS1.                                   :Other Services Line 1
  OS2.                                   :Other Services Line 2
  OS3.                                   :Other Services Line 3
  OS4.                                   :Other Services Line 4
  OS5.                                   :Other Services Line 5
 PDAT.        GL                         :Permanent Datum
   R1.        THANK YOU FOR CHOOSING SCHLUMBERGER  :Remarks Line 1
   R2.        ALL TOOLS RAN AS PER TOOL SKETCH AND ALL PRESENTATIONS AS PER CLIENT REQUEST  :Remarks Line 2
   R3.        INDUCTION LOG – DESCENT #1 :Remarks Line 3
   R4.        NEUTRON / DENSITY LOG – DESCENT #1  :Remarks Line 4
  RMB.OHMM    0.70618                    :Resistivity of Mud at Bottom Hole Temperature
 RMFB.OHMM    0.52986                    :Resistivity of Mud Filtrate At Bottom Hole Temperature
  RUN.        ONE/2                      :Run Number
  SON.        CP4P-00020                 :SERVICE ORDER NUMBER
  TDD.M       256.00000                  :Driller Total Depth
  TDL.M       256.00000                  :Logger Total Depth
  TLI.M       75.00000                   :Top Log Interval
 UWID.        1AA063409108W400           :Unique Well Identifier
   WN.        SUNCOR LEWIS 6-34-91-8     :Well Name
  EPD.C3      445.000000                 :Elevation of Permanent Datum above Mean Sea Level
#-----------------------------------------------------------------------------
#
#      DEPT          BS            C1            C2            DEPTH         DEVIM         DT            EI            EV            FBCR          GR            HAZI          HAZIM         P1AZ        P1NO_FBST       RB            SDEV          TENS          TT1           TT2           TT3           TT4
#
#-----------------------------------------------------------------------------

~A       DEPT           BS           C1           C2        DEPTH        DEVIM           DT           EI           EV         FBCR           GR         HAZI        HAZIM         P1AZ    P1NO_FBST           RB         SDEV         TENS          TT1          TT2          TT3          TT4
# ...
    252.83160     156.00000     134.68353     135.42929     252.83318       0.97186     317.68466    2365.34253      14.09416  508554.15625      19.00616     208.72362     212.81517     199.93446     201.01540     351.21179       0.72851    6046.80127     618.28687     422.40588     627.15100     436.00677
    252.98400     156.00000     130.38310     130.92519     252.98724       0.97194     317.68466    2361.93457      14.11366  534076.62500      19.00616     209.19385     212.82986     200.55794     198.00777     351.36520       0.72709    6085.76025     618.28687     422.40588     627.15100     436.00677
    253.13640     156.00000     130.38310     130.92519     253.14020       0.97234     317.68466    2361.93457      14.26961  441544.96875      19.00616     209.63058     212.84987     201.47704     193.43813     351.84702       0.72544    6216.94580     618.28687     422.40588     627.15100     436.00677
    253.28880     156.00000     129.15440     128.35141     253.29239       0.97233     317.68466    2336.37231      14.25011  376319.50000      19.00616     210.08057     212.65556     199.56436     188.99034     349.48526       0.72286    6174.72461     618.28687     422.40588     627.15100     436.00677
    253.44120     156.00000     127.92570     127.70796     253.44107       0.97227     317.68466    2339.78027      14.63999  395182.34375      19.00616     210.54567     212.39030     196.00185     188.89806     345.45734       0.72067    6068.26416     618.28687     422.40588     627.15100     436.00677
    253.59360     156.00000     127.92570     128.02966     253.59024       0.97266     317.68466    2307.40161      14.73746  392160.84375      19.00616     210.98096     212.60728     190.81273     189.67424     339.83374       0.71885    6736.09033     618.28687     422.40588     627.15100     436.00677
    253.74600     156.00000     127.92570     127.70796     253.74425       0.97339     317.68466    2275.02295      14.87392  371053.43750      19.00616     211.34294     212.91692     188.47356     187.76950     337.13156       0.71903    8953.71387     618.28687     422.40588     627.15100     436.00677
    253.89840     156.00000     127.92570     126.09933     253.89871       0.97358     317.68466    2275.02295      14.91291  451060.50000      19.00616     211.71622     213.04451     189.77324     178.81392     338.05853       0.72061    8541.14160     618.28687     422.40588     627.15100     436.00677
    254.05080     156.00000     127.61852     126.09933     254.05238       0.97358     317.68466    2239.23560      15.01038  371096.53125      19.00616     212.05214     213.04451     189.67470     179.21414     337.62473       0.72424    7138.83984     618.28687     422.40588     627.15100     436.00677
    254.20320     156.00000     126.08266     122.56039     254.20204       0.97358     317.68466    2269.91064      14.91291  515033.50000      19.00616     212.34978     213.04451     187.76984     177.65744     335.42200       0.72995    6082.49854     618.28687     422.40588     627.15100     436.00677
    254.35560     156.00000     125.46831     122.56039     254.35606       0.97358     317.68466    2268.20630      14.97139  566558.18750      19.00616     212.64439     213.04451     178.81389     176.58524     326.17184       0.73774    6151.05664     618.28687     422.40588     627.15100     436.00677
    254.50800     156.00000     125.46831     122.56039     254.50905       0.97358     317.68466    2235.82764      14.97139  414111.56250      19.00616     212.98897     213.04451     179.21413     174.43253     326.22736       0.74779    6381.41895     618.28687     422.40588     627.15100     436.00677
    254.66040     156.00000     122.70373     121.59521     254.66039       0.97358     317.68466    2235.82764      14.97139  393582.59375      19.00616     213.61617     213.04451     177.51448     173.98946     323.90125       0.76426    7226.69238     618.28687     422.40588     627.15100     436.00677
    254.81280     156.00000     120.55350     119.34318     254.81230       0.97358     317.68466    2234.12354      14.93240  400014.81250      19.00616     213.98979     213.04451     174.92603     168.43526     320.93790       0.77703    6922.74121     618.28687     422.40588     627.15100     436.00677
    254.96520     156.00000     116.56024     115.16079     254.96440       0.97358     317.68466    2261.38989      14.85443  508263.96875      19.00616     214.34398     213.04451     175.05603     165.54288     320.71558       0.79176    7712.10449     618.28687     422.40588     627.15100     436.00677
    255.11760     156.00000     103.96609     102.61360     255.11667       0.97358     317.68466    2257.98120      14.69848  523685.18750      19.00616     214.51334     213.04451     171.08798     159.43037     316.57736       0.80922    8160.01563     618.28687     422.40588     627.15100     436.00677
    255.27000     156.00000     103.81050     102.61360     255.26991       0.97358     317.68466    2261.38989      14.77645  270741.81250      19.00616     214.74557     213.04451     168.43507     154.16779     313.69281       0.82547    7190.79736     618.28687     422.40588     627.15100     436.00677
    255.42240     156.00000     103.65892     102.61360     255.42709       0.97358     317.68466    2264.79785      14.69848  270487.53125      19.00616     214.87260     213.04451     161.82529     148.92014     306.95648       0.85074    6718.81641     618.28687     422.40588     627.15100     436.00677
    255.57480     156.00000     103.35173     102.61360     255.57718       0.97358     317.68466    2264.79785      14.71797  278137.53125      19.00616     214.95566     213.04451     157.06607     142.36467     302.11438       0.86745    7739.27002     618.28687     422.40588     627.15100     436.00677
    255.72720     156.00000     103.11759     102.61360     255.72688       0.97358     317.68466    2269.91064      14.69848  278805.31250      19.00616     214.74658     213.04451     153.10124     140.75514     298.35870       0.89281    6262.12891     618.28687     422.40588     627.15100     436.00677
    255.87960     156.00000     103.19565     102.61360     255.88094       0.97358     317.68466    2237.53149      14.71797  269904.93750      19.00616     214.30101     213.04451     146.64525     140.52696     292.34708       0.91065    3702.46777     618.28687     422.40588     627.15100     436.00677
    256.03200     156.00000     103.03954     102.61360     256.03192       0.97358     317.68466    2232.41895      14.65949  262082.76563      19.00616     214.07100     213.04451     141.31061     140.49391     287.24118       0.92842    1545.08008     618.28687     422.40588     627.15100     436.00677
    256.18440     156.00000     103.19565     102.61360     256.18652       0.97358     317.68466    2275.02295      14.67898  260671.78125      19.00616     213.79738     213.04451     140.64395     140.45845     286.84885       0.94278     370.61774     618.28687     422.40588     627.15100     436.00677
    256.33680     156.00000     103.19565     102.61360     256.33978       0.97358     317.68466    2273.31860      14.69848  268397.06250      19.00616     213.60065     213.04451     140.51871     140.48125     286.91953       0.94698     276.98734     618.28687     422.40588     627.15100     436.00677
    256.48920     156.00000     103.35173     102.61360     256.49371       0.97358     317.68466    2264.79785      14.67898  269366.28125      19.00616     212.82481     213.04451     140.49445     140.44699     287.67197       0.97199     209.95605     618.28687     422.40588     627.15100     436.00677
    256.64160     156.00000     103.23467     102.61360     256.64282       0.97358     317.68466    2266.50220      14.69848  276817.71875      19.00616     212.81618     213.04451     140.47493     140.14696     287.66162       0.97181     196.08243     618.28687     422.40588     627.15100     436.00677
