~Version Information
 VERS.                2.00:   CWLS log ASCII Standard -VERSION 2.00
 WRAP.                  NO:   One line per frame      
~Well Information Block
#MNEM.UNIT                   Data                        Description
#----.----   -----------------------------------------   -------------------------------
 STRT.M                                       27.0000 : Starting Depth
 STOP.M                                      188.0000 : Ending Depth
 STEP.M                                        0.1000 : Level Spacing
 NULL.                                      -999.2500 : Absent Value
 COMP.       SUNCOR ENERGY INC                        : Company
 WELL.       SUNCOR LEWIS 7-22-92-8                   : Well
 FLD .       UNDEFINED                                : Field
 LOC .       LSD 07-22-092-08W4                       : Location
 PROV.       ALBERTA                                  : Province
 CTRY.       CA                                       : Country
 SRVC.       Baker Hughes                             : Service Company
 DATE.       16-JAN-2016                              : Log Date
 UWI .       1AA072209208W400                         : Unique Well ID
 LIC .       0477502                                  : License Number
~Curve Information Block
#MNEM    .UNIT        API Codes     Curve Description
#--------.--------   LG--CV-CL--M   -------------------------------
 DEPT    .M           0   1  0  1 : Depth
 AZSTQH  .deg        99 995 99  1 : Azimuth of reference pad for STAR
 BKRGQH  .dim        99 995 99  1 : Bucker driver value
 DEVSTQH .deg        99 995 99  1 : Deviation for STAR
 DIP1QH  .raw        75 610  1  1 : Pad 1 average data of buttons 11, 12, 13, 14
 DIP2QH  .raw        75 610  1  1 : Pad 2 average data of buttons 11, 12, 13, 14
 DIP3QH  .raw        75 610  1  1 : Pad 3 average data of buttons 11, 12, 13, 14
 DIP4QH  .raw        75 610  1  1 : Pad 4 average data of buttons 11, 12, 13, 14
 DIP5QH  .raw        75 610  1  1 : Pad 5 average data of buttons 11, 12, 13, 14
 DIP6QH  .raw        75 610  1  1 : Pad 6 average data of buttons 11, 12, 13, 14
 GR      .gAPI       30 310  1  1 : Gamma ray
 PADFQH  .pct        94 995 99  1 : Pad force
 PADGQH  .dim        99 995 99  1 : Pad gain code
 RAD1QH  .mm         75 280 99  1 : Radius, tool axis to pad 1 face
 RAD2QH  .mm         75 280 99  1 : Radius, tool axis to pad 2 face
 RAD3QH  .mm         75 280 99  1 : Radius, tool axis to pad 3 face
 RAD4QH  .mm         75 280 99  1 : Radius, tool axis to pad 4 face
 RAD5QH  .mm         75 280 99  1 : Radius, tool axis to pad 5 face
 RAD6QH  .mm         75 280 99  1 : Radius, tool axis to pad 6 face
 RAZGSTQH.mG         99 995 99  1 : Raw Z-axis accelerometer shifted to STAR
 RBSTQH  .deg        99 995 99  1 : Relative bearing (relative to borehole high side) for STAR
 SPD     .m/min      99 636 99  1 : Speed
~Parameter Information Block
#MNEM.UNIT                     Value                    Description
#----.----   ----------------------------------------   -------------------------------
 HID1.       RESISTIVITY IMAGING LOG^T                : Header Identifer
 HID2.       GAMMA RAY LOG                            : Header Identifer
 FILE.       3953                                     : File Number
 CMT1.       UID                                      : Comment 1  
 CMT2.       1AA072209208W400                         : Comment 2  
 CMT3.       LICENSE                                  : Comment 3  
 CMT4.       0477502                                  : Comment 4  
 FL2 .       BH LOC. LSD  07                          : Field Location 2
 SECT.       22                                       : Section
 TOWN.       092                                      : Township
 RANG.       08W4                                     : Range
 OS1 .       ZDL-CN-GR-CAL                            : Other Services Line 1
 OS2 .       HDIL-GR-CAL, CVL                         : Other Services Line 2
 OS3 .       DAL-GR-CAL                               : Other Services Line 3
 OS4 .       COMPOSITE                                : Other Services Line 4
 PDAT.       G.L.                                     : Permanent Datum
 EPD .M      438.50                                   : Elevation Of Perm. Datum
 LMF .       K.B.                                     : Log Measured From
 APD .M      2.20                                     : Above Permanent Datum
 DMF .       KELLY BUSHING                            : Drilling Measured From
 EKB .M      440.70                                   : Elevation Of Kelly Bushing
 EGL .M      438.50                                   : Elevation Of Ground Level
 RUN .       1                                        : Run Number
 TRIP.       1                                        : Trip Number
 SON .       CA003953J                                : Service Order Number
 TDD .M      187.0                                    : Total Depth - Driller
 TDL .M      186.3                                    : Total Depth - Logger
 BLI .M      183.0                                    : Bottom Log Interval
 TLI .M      55.0                                     : Top Log Interval
 CSIZ.MM     177.8                                    : Casing Size
 CBDR.M      49.4                                     : Casing Bottom - Driller
 CBLO.M      49.4                                     : Casing Bottom - Logger
 BS  .MM     156.0                                    : Bit Size
 DFT .       WB (WATER BASE MUD)                      : Drilling Fluid Type
 DFD .G/L    1030.0                                   : Drilling Fluid Density
 DFV .S      79.0                                     : Drilling Fluid Viscosity
 DFPH.       7.0                                      : Drilling Fluid Ph
 DFL .ML     8.0                                      : Drilling Fluid Loss
 MSS .       F (FLOWLINE)                             : Mud Sample Source
 RMS .OHMM   1.2                                      : Resistivity Of Mud Sample
 MST .DEGC   25.0                                     : Mud Sample Temperature
 RMFS.OHMM   1.0                                      : Resistivity Of Mud Filtrate Sample
 MFST.DEGC   25.0                                     : Mud Filtrate Sample Temperature
 RMCS.OHMM   1.4                                      : Resistivity Of Mud Cake Sample
 MCST.DEGC   25.0                                     : Mud Cake Sample Temperature
 MFSS.       CALCULATED                               : Mud Filtrate Sample Source
 MCSS.       CALCULATED                               : Mud Cake Sample Source
 RMB .OHMM   2.0                                      : Mud Resistivity At Bht
 BHT .DEGC   7.0                                      : Bottom Hole Temperature
 TSC .       5.0 HOURS                                : Time Since Circulation
 MRT .DEGC   7.0                                      : Maximum Recorded Temperature
 LUN .       Z004250                                  : Logging Unit Number
 LUL .       LEDUC OH                                 : Logging Unit Location
 ENGI.       A.MALIK                                  : Engineer's Name
 WITN.       H.WILSON / P.ENE                         : Witness' Name
 TSTR.       /STAR/GR/                                : Title Service Mnemonic
 TSTG.       NA                                       : Title Service Mnemonic
 STUS.       FINAL                                    : Status
 LCNM.       BAKER ATLAS                              : Logging Company Name
 LCC .       150                                      : Logging Company Code
 OPMD.       OH.WIRE                                  : Operation Mode
 PANA.       A.MALIK                                  : Processing Analyst
 PCON.       BAKER ATLAS                              : Processing Contractor
 APIN.                                                : API Serial Number
 STAT.                                                : State Or Province
~Other information
LAT/LON  57.0175, -111.419                                                      
TIME STOPPED CIRCULATION  16-JAN-2016 0830AM                                    
STAR RUN WITH 0% PAD FORCE AND AUTOMATICALLY CONTROLLED GAINS                   
ANY STICK AND PULL AFFECTS LOG QUALITY                                          
RIG  ENCORE 402                                                                 
CREW  F.AJAGU, A.MALIK                                                          
#  Curve Data
~A  DEPT        AZSTQH      BKRGQH      DEVSTQH     DIP1QH      DIP2QH      DIP3QH      DIP4QH      DIP5QH      DIP6QH      GR          PADFQH      PADGQH      RAD1QH      RAD2QH      RAD3QH      RAD4QH      RAD5QH      RAD6QH      RAZGSTQH    RBSTQH      SPD       
# ...
    144.8000    198.0108     10.0000      0.3829     54.0000     83.0000    358.0000     48.0000    162.0000     36.0000     34.4008      1.2366      4.0000     76.8318     74.1243     75.3637     76.4872     83.4573     80.0460    998.2385    114.0577      3.5287
    144.9000    197.8699     10.0000      0.3829    442.0000    996.0000    856.0000    654.0000     90.0000     12.0000     34.1286      1.1304      5.0000     76.9595     73.7459     75.4930     75.9743     82.5615     80.0460   1010.5120    114.0577      3.5268
    145.0000    199.4604     10.0000      0.3968    751.0000    598.0000    221.0000    339.0000    416.0000     26.0000     33.6331      1.1304      6.0000     76.8318     74.1243     75.1051     76.7436     82.5615     80.1715   1004.7843    120.5775      3.5240
    145.1000    200.3263     10.0000      0.3968    406.0000    437.0000    231.0000    277.0000    283.0000     86.0000     33.0008      1.2366      6.0000     77.2151     74.1243     75.3637     77.7692     83.4573     80.1715   1009.6937    120.5775      3.5187
    145.2000    200.0212     10.0000      0.3967    447.0000    894.0000    200.0000    204.0000    173.0000     18.0000     32.4690      1.1304      6.0000     76.9595     74.1243     75.2344     78.1538     83.4573     79.6697   1012.1484    120.5775      3.5099
    145.3000    200.6062     10.0000      0.3966    274.0000    269.0000    205.0000    171.0000    695.0000     53.0000     32.1437      1.2366      6.0000     77.3428     74.1243     75.3637     78.1538     83.4573     79.6697   1013.7849    120.5775      3.4992
    145.4000    200.3263     10.0000      0.3968    185.0000    650.0000    168.0000    591.0000     84.0000     12.0000     31.9978      1.1304      6.0000     77.3428     73.6198     75.3637     78.1538     83.4573     79.2933   1010.5120    120.5775      3.4902
    145.5000    200.1611     10.0000      0.3967    250.5354    171.8898    164.0000    101.0000    153.4252     29.0394     31.9363      1.1304      6.0000     76.9595     73.6784     75.4930     77.7096     83.4573     79.3605   1012.9086    120.5775      3.4861
    145.6000    199.8812     10.0000      0.3967    187.0000    183.0000    135.0000    161.0000    169.0000      8.0000     31.9456      1.1304      6.0000     76.8318     73.6198     75.3637     77.2564     83.4573     79.1679   1012.9667    120.5775      3.4858
    145.7000    200.4663     10.0000      0.3967    210.0000    137.0000    298.0000    249.0000    152.0000     11.0000     32.0014      1.2366      6.0000     76.9595     73.6198     75.3637     77.2564     83.4573     79.0424   1006.4208    120.5775      3.4874
    145.8000    200.8855     10.0000      0.3967    186.4252    151.0236    239.1260    192.9764    175.3465      4.4252     32.0016      1.1304      6.0000     76.8861     73.7459     74.9758     77.2564     83.4573     79.1679   1007.8317    120.5775      3.4890
    145.9000    200.8855     10.0000      0.3967    260.0000    156.0000    170.0000    139.0000    159.0000      6.0000     31.9001      1.1304      6.0000     76.9595     73.6198     74.9758     77.2564     83.0734     79.0424   1012.1484    120.5775      3.4894
    146.0000    201.0522     10.0000      0.3967    189.0000    184.0000    412.0000    203.0000    145.0000     55.0000     31.7580      1.2366      6.0000     76.8318     73.7459     75.3637     77.2564     82.9454     79.1679   1018.6942    120.5775      3.4893
    146.1000    200.7459     10.0000      0.3968    221.0000    257.0000    256.0000    185.0000    304.0000      5.0000     31.6873      1.1304      6.0000     76.8318     73.7459     74.9758     77.2564     83.4573     79.1679   1000.6932    120.5775      3.4911
    146.2000    200.1862     10.0000      0.3968    257.0000    266.0000    267.0000    217.0000    243.0000     86.0000     31.6566      1.1304      6.0000     76.8318     73.7459     75.3637     77.2564     83.4573     79.1679   1010.5120    120.5775      3.4942
    146.3000    200.1862     10.0000      0.3968    325.7953    224.1260    457.9921    223.3465    332.8504     41.4488     31.5829      1.1756      6.0000     76.9595     73.6198     74.9758     76.9455     83.4573     79.0424   1001.9818    120.5775      3.4960
    146.4000    200.9124     10.0000      0.3968    388.0000    344.0000    370.0000    478.0000    216.0000    114.0000     31.3689      1.1304      6.0000     76.7040     73.7459     74.9758     76.8718     82.9454     79.1679   1007.2390    120.5775      3.4941
    146.5000    201.3314     10.0000      0.3967    226.0000    288.0000    246.0000    381.0000    445.0000     47.0000     31.0765      1.2366      6.0000     76.8318     73.6198     75.2344     76.8718     82.9454     79.1679   1011.3301    120.5775      3.4900
    146.6000    200.9124     10.0000      0.3968    210.3228    225.4252    279.7874    289.4331    437.0315     26.8583     30.9089      1.1304      6.0000     77.0279     73.6198     75.0450     76.4185     83.4573     78.0388   1008.3793    120.5775      3.4860
    146.7000    201.3314     10.0000      0.3968    163.0000    186.0000    168.0000    232.0000    253.0000    107.0000     31.0327      1.2366      6.0000     77.4706     73.6198     74.9758     76.2308     83.4573     77.1606   1011.3301    120.5775      3.4831
    146.8000    201.1919     10.0000      0.3967    177.0000    178.0000    236.0000    174.0000    184.0000     12.0000     31.4297      1.1304      6.0000     77.3428     73.7459     74.9758     77.1282     82.9454     77.5370   1012.1484    120.5775      3.4805
    146.9000    201.3314     10.0000      0.3968    186.0000    261.0000    206.0000    239.0000    211.0000     49.0000     31.9725      1.1304      6.0000     76.8318     73.7459     75.3637     77.2564     83.5852     79.1679   1009.6937    120.5775      3.4779
    147.0000    200.7724     10.0000      0.3968    182.0000    188.0000    274.0000    264.0000    246.0000     18.0000     32.6425      1.2366      6.0000     76.8318     73.6198     75.3637     77.2564     83.4573     79.1679   1016.2395    120.5775      3.4784
    147.1000    200.9124     10.0000      0.3967    143.0000    108.0000    148.0000    252.0000    308.0000      8.0000     33.6413      1.1304      6.0000     76.8318     73.7459     75.3637     77.2564     83.4573     79.1679   1004.7843    120.5775      3.4860
    147.2000    200.9124     10.0000      0.3968     80.0000     73.0000     99.0000     68.0000     93.0000      2.0000     35.2087      1.1304      5.0000     76.8318     73.7459     75.4930     77.6410     83.4573     79.2933   1010.5120    120.5775      3.4989
    147.3000    200.3263     10.0000      0.3968     39.0000     45.0000     42.0000     39.0000     51.0000      1.0000     37.4372      1.1304      4.0000     76.8318     73.7459     75.4930     77.3846     83.4573     79.1679   1011.3301    120.5775      3.5117
    147.4000    200.5357     10.0000      0.3967     26.9843     30.4882     75.9685     24.9921     33.0000      0.5039     40.0912      1.1304      3.0000     76.9595     73.6823     75.3637     77.2564     83.5208     79.1679   1006.4144    120.5775      3.5184
    147.5000    200.7724     10.0000      0.3968    877.0000     94.0000    890.0000     64.0000    599.0000      4.0000     42.6782      1.1304      3.0000     76.8318     73.6198     75.4930     77.2564     83.0734     79.1679   1005.6026    120.5775      3.5203
    147.6000    201.1919     10.0000      0.3967    466.0000    862.0000    582.0000    854.0000    415.0000    586.0000     44.7758      1.2366      3.0000     77.7261     73.7459     74.7172     76.7436     83.5852     79.0424   1006.4208    120.5775      3.5211
    147.7000    201.2765     10.0000      0.3967    111.5433    333.4803     95.8110    333.4882     74.0000    791.6536     45.7313      1.2366      3.0000     77.0873     73.7459     75.7791     78.4880     84.6090     79.1679   1004.9583    120.5775      3.5247
    147.8000    201.7782     10.0000      0.3967    488.0000     84.0000    641.0000    155.0000    665.0000    440.0000     45.1743      1.2366      3.0000     76.8318     73.6198     75.8809     78.5384     84.6090     79.6697   1012.1484    120.5775      3.5335
