~Version Information
 VERS.                2.00:   CWLS log ASCII Standard -VERSION 2.00
 WRAP.                  NO:   One line per frame      
~Well Information Block
#MNEM.UNIT                   Data                        Description
#----.----   -----------------------------------------   -------------------------------
 STRT.M                                       26.9748 : Starting Depth
 STOP.M                                      187.9854 : Ending Depth
 STEP.M                                        0.0762 : Level Spacing
 NULL.                                      -999.2500 : Absent Value
 COMP.       SUNCOR ENERGY INC                        : Company
 WELL.       SUNCOR LEWIS 7-22-92-8                   : Well
 FLD .       UNDEFINED                                : Field
 LOC .       LSD 07-22-092-08W4                       : Location
 PROV.       ALBERTA                                  : Province
 CTRY.       CA                                       : Country
 SRVC.       Baker Hughes                             : Service Company
 DATE.       16-JAN-2016                              : Log Date
 UWI .       1AA072209208W400                         : Unique Well ID
 LIC .       0477502                                  : License Number
 LATI.DEG    57.0175 N                                : Latitude Coordinates
 LONG.DEG    -111.419 W                               : Longitude Coordinates
~Curve Information Block
#MNEM    .UNIT        API Codes     Curve Description
#--------.--------   LG--CV-CL--M   -------------------------------
 DEPT    .M           0 001  0  1 : Depth
 AZSTQH  .deg        99 995 99  1 : Azimuth of reference pad for STAR
 BKRGQH  .dim        99 995 99  1 : Bucker driver value
 DEVSTQH .deg        99 995 99  1 : Deviation for STAR
 DIP1QH  .raw        75 610  1  1 : Pad 1 average data of buttons 11, 12, 13, 14
 DIP2QH  .raw        75 610  1  1 : Pad 2 average data of buttons 11, 12, 13, 14
 DIP3QH  .raw        75 610  1  1 : Pad 3 average data of buttons 11, 12, 13, 14
 DIP4QH  .raw        75 610  1  1 : Pad 4 average data of buttons 11, 12, 13, 14
 DIP5QH  .raw        75 610  1  1 : Pad 5 average data of buttons 11, 12, 13, 14
 DIP6QH  .raw        75 610  1  1 : Pad 6 average data of buttons 11, 12, 13, 14
 GR      .gAPI       30 310  1  1 : Gamma ray
 PADFQH  .pct        94 995 99  1 : Pad force
 PADGQH  .dim        99 995 99  1 : Pad gain code
 RAD1QH  .mm         75 280 99  1 : Radius, tool axis to pad 1 face
 RAD2QH  .mm         75 280 99  1 : Radius, tool axis to pad 2 face
 RAD3QH  .mm         75 280 99  1 : Radius, tool axis to pad 3 face
 RAD4QH  .mm         75 280 99  1 : Radius, tool axis to pad 4 face
 RAD5QH  .mm         75 280 99  1 : Radius, tool axis to pad 5 face
 RAD6QH  .mm         75 280 99  1 : Radius, tool axis to pad 6 face
 RAZGSTQH.mG         99 995 99  1 : Raw Z-axis accelerometer shifted to STAR
 RBSTQH  .deg        99 995 99  1 : Relative bearing (relative to borehole high side) for STAR
 SPD     .m/min      99 636 99  1 : Speed
~Parameter Information Block
#MNEM.UNIT                     Value                    Description
#----.----   ----------------------------------------   -------------------------------
 HID1.       RESISTIVITY IMAGING LOG^T                : Header Identifer
 HID2.       GAMMA RAY LOG                            : Header Identifer
 FILE.       3953                                     : File Number
 CMT1.       UID                                      : Comment 1  
 CMT2.       1AA072209208W400                         : Comment 2  
 CMT3.       LICENSE                                  : Comment 3  
 CMT4.       0477502                                  : Comment 4  
 FL2 .       BH LOC. LSD  07                          : Field Location 2
 SECT.       22                                       : Section
 TOWN.       092                                      : Township
 RANG.       08W4                                     : Range
 OS1 .       ZDL-CN-GR-CAL                            : Other Services Line 1
 OS2 .       HDIL-GR-CAL, CVL                         : Other Services Line 2
 OS3 .       DAL-GR-CAL                               : Other Services Line 3
 OS4 .       COMPOSITE                                : Other Services Line 4
 PDAT.       G.L.                                     : Permanent Datum
 EPD .M      438.50                                   : Elevation Of Perm. Datum
 LMF .       K.B.                                     : Log Measured From
 APD .M      2.20                                     : Above Permanent Datum
 DMF .       KELLY BUSHING                            : Drilling Measured From
 EKB .M      440.70                                   : Elevation Of Kelly Bushing
 EGL .M      438.50                                   : Elevation Of Ground Level
 RUN .       1                                        : Run Number
 TRIP.       1                                        : Trip Number
 SON .       CA003953J                                : Service Order Number
 TDD .M      187.0                                    : Total Depth - Driller
 TDL .M      186.3                                    : Total Depth - Logger
 BLI .M      183.0                                    : Bottom Log Interval
 TLI .M      55.0                                     : Top Log Interval
 CSIZ.MM     177.8                                    : Casing Size
 CBDR.M      49.4                                     : Casing Bottom - Driller
 CBLO.M      49.4                                     : Casing Bottom - Logger
 BS  .MM     156.0                                    : Bit Size
 DFT .       WB (WATER BASE MUD)                      : Drilling Fluid Type
 DFD .G/L    1030.0                                   : Drilling Fluid Density
 DFV .S      79.0                                     : Drilling Fluid Viscosity
 DFPH.       7.0                                      : Drilling Fluid Ph
 DFL .ML     8.0                                      : Drilling Fluid Loss
 MSS .       F (FLOWLINE)                             : Mud Sample Source
 RMS .OHMM   1.2                                      : Resistivity Of Mud Sample
 MST .DEGC   25.0                                     : Mud Sample Temperature
 RMFS.OHMM   1.0                                      : Resistivity Of Mud Filtrate Sample
 MFST.DEGC   25.0                                     : Mud Filtrate Sample Temperature
 RMCS.OHMM   1.4                                      : Resistivity Of Mud Cake Sample
 MCST.DEGC   25.0                                     : Mud Cake Sample Temperature
 MFSS.       CALCULATED                               : Mud Filtrate Sample Source
 MCSS.       CALCULATED                               : Mud Cake Sample Source
 RMB .OHMM   2.0                                      : Mud Resistivity At Bht
 BHT .DEGC   7.0                                      : Bottom Hole Temperature
 TSC .       5.0 HOURS                                : Time Since Circulation
 MRT .DEGC   7.0                                      : Maximum Recorded Temperature
 LUN .       Z004250                                  : Logging Unit Number
 LUL .       LEDUC OH                                 : Logging Unit Location
 ENGI.       A.MALIK                                  : Engineer's Name
 WITN.       H.WILSON / P.ENE                         : Witness' Name
 TSTR.       /STAR/GR/                                : Title Service Mnemonic
 TSTG.       NA                                       : Title Service Mnemonic
 STUS.       FINAL                                    : Status
 LCNM.       BAKER ATLAS                              : Logging Company Name
 LCC .       150                                      : Logging Company Code
 OPMD.       OH.WIRE                                  : Operation Mode
 PANA.       A.MALIK                                  : Processing Analyst
 PCON.       BAKER ATLAS                              : Processing Contractor
 APIN.                                                : API Serial Number
 STAT.                                                : State Or Province
~Other information
LAT/LON  57.0175, -111.419                                                      
TIME STOPPED CIRCULATION  16-JAN-2016 0830AM                                    
STAR RUN WITH 0% PAD FORCE AND AUTOMATICALLY CONTROLLED GAINS                   
ANY STICK AND PULL AFFECTS LOG QUALITY                                          
RIG  ENCORE 402                                                                 
CREW  F.AJAGU, A.MALIK                                                          
#  Curve Data
~A   DEPT         AZSTQH       BKRGQH       DEVSTQH      DIP1QH       DIP2QH       DIP3QH       DIP4QH       DIP5QH       DIP6QH       GR           PADFQH       PADGQH       RAD1QH       RAD2QH       RAD3QH       RAD4QH       RAD5QH       RAD6QH       RAZGSTQH     RBSTQH       SPD       
# ...
     144.3228     200.0212       8.0000       0.3380     265.0000     239.0000     113.0000     139.0000     111.0000     128.0000      50.4394       1.1304       3.0000      76.9595      74.1243      75.3637      77.2564      83.4573      79.6697    1017.0578     115.9669       3.5513
     144.3990     200.0212      10.0000       0.3967     291.0000     732.0000     188.0000     508.0000      60.0000     727.0000      45.8737       1.1304       3.0000      76.8318      74.1243      75.3637      77.2564      83.4573      79.7951    1007.2390     120.5775       3.5486
     144.4752     199.8812      10.0000       0.3968     214.0000    1023.0000     194.0000     469.0000     261.0000    1005.0000      41.5493       1.2366       5.0000      76.9595      74.1243      75.8809      77.7692      83.4573      79.6697    1009.6937     120.5775       3.5435
     144.5514     199.0163      10.0000       0.3830     179.0000     217.0000     119.0000     211.0000     280.0000      11.0000      38.1332       1.1304       5.0000      76.8318      74.1243      75.4930      77.2564      82.5615      79.6697    1008.8755     114.0577       3.5380
     144.6276     198.1516      10.0000       0.3829     151.0000     175.0000     235.0000     342.0000     619.0000      16.0000      35.9310       1.1304       5.0000      76.5763      74.1243      75.3637      76.4872      83.4573      79.6697    1009.6937     114.0577       3.5336
     144.7038     198.2923      10.0000       0.3829     106.0000     167.0000     943.0000     390.0000     124.0000      82.0000      34.8310       1.1304       5.0000      76.8318      74.1243      75.3637      76.3590      83.4573      79.6697    1005.6026     114.0577       3.5308
     144.7800     198.1516      10.0000       0.3830      80.0000      69.0000     338.0000      58.0000      84.0000       8.0000      34.4427       1.1304       4.0000      76.8318      74.1243      75.3637      76.4872      83.4573      79.6697    1019.5125     114.0577       3.5291
     144.8562     197.7290      10.0000       0.3830     104.0000     295.0000      98.0000     130.0000      41.0000      43.0000      34.2832       1.1304       4.0000      76.8318      73.7459      75.3637      76.3590      82.9454      80.0460    1007.2390     114.0577       3.5277
     144.9324     198.0108      10.0000       0.3830     974.0000    1002.0000     134.0000      96.0000     188.0000      18.0000      34.0142       1.2366       5.0000      76.9595      74.1243      75.4930      75.9743      82.9454      80.1715    1003.1479     114.0577       3.5260
     145.0086     199.6008      10.0000       0.3967     925.0000     566.0000     259.0000     353.0000     351.0000      29.0000      33.5846       1.1304       6.0000      76.8318      74.1243      75.2344      77.2564      82.5615      80.1715    1010.5120     120.5775       3.5237
     145.0848     200.3009      10.0000       0.3968     439.0000     514.0000     186.0000     664.0000     284.0000     166.0000      33.0913       1.1304       6.0000      77.3428      73.9982      75.3637      77.7692      83.4573      80.0460    1012.9667     120.5775       3.5199
     145.1610     200.1611      10.0000       0.3968     374.0000     292.0000     202.0000     262.0000     259.0000      86.0000      32.6375       1.2366       6.0000      76.8318      73.9982      75.4930      78.1538      82.9454      80.1715    1015.4213     120.5775       3.5140
     145.2372     200.1862      10.0000       0.3968     416.0000     234.0000     316.0000     319.0000     134.0000      37.0000      32.3084       1.2366       6.0000      78.1094      74.1243      75.3637      78.1538      83.4573      79.6697    1008.0573     120.5775       3.5061
     145.3134     200.7459      10.0000       0.3967     219.0000     292.0000     218.0000     128.0000     794.0000      51.0000      32.1085       1.1304       6.0000      77.0873      74.1243      75.3637      78.1538      83.4573      79.6697    1021.9672     120.5775       3.4977
     145.3896     200.3263      10.0000       0.3968     240.0000     893.0000     181.0000     347.0000      91.0000      15.0000      32.0061       1.2366       6.0000      77.3428      73.6198      75.3637      78.0256      83.4573      79.2933    1012.9667     120.5775       3.4908
     145.4658     200.1611      10.0000       0.3968     267.0000     444.0000     181.0000      82.0000     214.0000     134.0000      31.9455       1.1304       6.0000      76.9595      73.7459      75.4930      77.7692      82.9454      79.6697    1015.4213     120.5775       3.4867
     145.5420     199.8812      10.0000       0.3968     372.0000     309.0000     149.0000     174.0000     174.0000       7.0000      31.9249       1.1304       6.0000      76.9595      73.6198      75.4930      77.3846      83.4573      79.2933    1009.6937     120.5775       3.4853
     145.6182     199.8812      10.0000       0.3968     170.0000     208.0000     158.0000     222.0000     238.0000      51.0000      31.9521       1.1304       6.0000      76.8318      73.6198      75.3637      77.2564      83.4573      79.1679    1005.6026     120.5775       3.4859
     145.6944     200.4663      10.0000       0.3968     223.0000     132.0000     314.0000     229.0000     162.0000      15.0000      32.0001       1.2366       6.0000      76.9595      73.7459      75.3637      77.2564      83.4573      79.0424    1006.4208     120.5775       3.4873
     145.7706     200.7459      10.0000       0.3967     230.0000     228.0000     175.0000     183.0000     201.0000       5.0000      32.0179       1.1304       6.0000      76.8318      73.7459      74.9758      77.2564      83.4573      79.1679    1007.2390     120.5775       3.4887
     145.8468     200.9124      10.0000       0.3968     175.0000     181.0000     241.0000     280.0000     181.0000      23.0000      31.9757       1.2366       6.0000      76.8318      73.7459      74.9758      77.2564      83.4573      79.0424    1006.4208     120.5775       3.4894
     145.9230     200.7459      10.0000       0.3968     132.0000     215.0000     244.0000     259.0000     170.0000      13.0000      31.8674       1.2366       6.0000      76.9595      73.7459      74.9758      77.2564      82.9454      79.0424    1016.2395     120.5775       3.4894
     145.9992     201.0522      10.0000       0.3967     189.0000     184.0000     412.0000     203.0000     145.0000      55.0000      31.7580       1.2366       6.0000      76.8318      73.7459      75.3637      77.2564      82.9454      79.1679    1018.6942     120.5775       3.4893
     146.0754     200.9124      10.0000       0.3968     227.0000     176.0000     245.0000     171.0000     351.0000       5.0000      31.6942       1.2366       6.0000      76.7040      73.6198      75.1051      77.2564      82.4335      79.0424    1012.9667     120.5775       3.4903
     146.1516     200.4663      10.0000       0.3967     261.0000     251.0000     279.0000     269.0000     284.0000      23.0000      31.6729       1.2366       6.0000      76.8318      73.6198      74.9758      77.2564      83.4573      79.1679    1014.6031     120.5775       3.4926
     146.2278     200.1862      10.0000       0.3968     265.0000     257.0000     310.0000     240.0000     295.0000      49.0000      31.6473       1.1304       6.0000      76.8318      73.7459      75.3637      77.2564      83.4573      79.1679    1005.6026     120.5775       3.4952
     146.3040     200.1862      10.0000       0.3967     316.0000     224.0000     399.0000     208.0000     343.0000      28.0000      31.5793       1.1304       6.0000      76.8318      73.7459      74.9758      76.8718      83.4573      79.1679    1002.3297     120.5775       3.4961
     146.3802     200.7459      10.0000       0.3967     291.0000     518.0000     322.0000     461.0000     317.0000      37.0000      31.4287       1.2366       6.0000      76.8318      73.6198      74.9758      76.8718      82.9454      79.0424    1008.8755     120.5775       3.4948
