~VERSION INFORMATION 
VERS.          2.0   :CWLS LOG ASCII STANDARD - VERSION 2.0
WRAP.          NO    :ONE LINE PER DEPTH STEP
PROD.  Schlumberger   :LAS Producer
PROG.  DLIS to ASCII 19C2-270                          :LAS Program name and version
CREA.        2014/02/23 09:08                          :LAS Creation date {YYYY/MM/DD hh:mm}
DLIS_CREA.  2014-Feb-23 08:51                          :DLIS Creation date and time {YYYY-MMM-DD hh:mm}
SOURCE.     1AA063409108W400_FMI_SONIC_REPEAT.dlis     :DLIS File Name
FILE-ID.     ConPr_R2L2Up_S008_FBST_DSLT_HGNS          :File Identification Number
#--------------------------------------------------
~WELL INFORMATION 
#MNEM.UNIT      DATA             DESCRIPTION
#---- ------ --------------   -----------------------------
STRT.M      88.69680        :START DEPTH
STOP.M      258.01320       :STOP DEPTH
STEP.M       0.15240        :STEP
NULL .          -999.25      :NULL VALUE
COMP.        SUNCOR ENERGY INC.                       :COMPANY
WELL.        SUNCOR LEWIS 6-34-91-8                   :WELL
FLD  .        LEWIS                                    :FIELD
LOC.        6-34-91-8W4                              :LOCATION
PROV .        ALBERTA                                  :PROVINCE
UWI.        1AA063409108W400                         :UNIQUE WELL ID
LIC  .        0464072                                  :LICENSE NUMBER
CTRY .        CA                                       :COUNTRY (WWW code)
DATE.        23-Feb-2014                              :LOG DATE {DD-MMM-YYYY}
SRVC .        Schlumberger                             :SERVICE COMPANY
LATI .DEG     56.934500 degrees                        :LATITUDE
LONG .DEG     -111.20540 degrees                       :LONGITUDE
GDAT .                                                 :GeoDetic Datum
SECT .        06-34                                    :Section
RANG .        08W4                                     :Range
TOWN .        091                                      :Township
#-----------------------------------------------------------------------------
~CURVE INFORMATION 
#MNEM.UNIT   API CODE                                  DESCRIPTION
#---- -----  --------                                  -----------------------
 DEPT.M         00 001 00 00             :Depth Index - Measured Depth
   BS.MM        61 280 07 00             :BIT SIZE {F14.5}
   C1.MM        42 280 06 00             :CALIPER 1 {F14.5}
   C2.MM        42 280 05 00             :CALIPER 2 {F14.5}
DEPTH.M         00 001 00 00             :DEPTH INDEX {F14.5}
DEVIM.DEG       00 630 00 00             :MEMORIZED DEVIATION {F14.5}
   DT.US/M      60 520 32 00             :DELTA-T (ALSO CALLED SLOWNESS OR INTERVAL TRANSIT TIME) {F14.5}
   EI.MA        00 000 00 00             :EMEX CURRENT {F14.5}
   EV.V         00 000 00 00             :EMEX VOLTAGE {F14.5}
 FBCR.OHMS      00 000 00 00             :CORRELATION RESISTANCE {F14.5}
   GR.GAPI      42 310 01 00             :GAMMA RAY {F14.5}
 HAZI.DEG       00 620 00 00             :HOLE AZIMUTH RELATIVE TO TRUE NORTH {F14.5}
HAZIM.DEG       00 620 00 00             :HOLE AZIMUTH RELATIVE TO TRUE NORTH {F14.5}
 P1AZ.DEG       00 630 00 00             :PAD 1 AZIMUTH IN HORIZONTAL PLANE (0 = TRUE NORTH) {F14.5}
P1NO_FBST.DEG   00 000 00 00             :PAD 1 AZIMUTH IN PLANE ORTHOGONAL TO TOOL AXIS (0 = TRUE NORTH), MEMORIZED TO FBST {F14.5}
   RB.DEG       00 631 00 00             :RELATIVE BEARING {F14.5}
 SDEV.DEG       00 000 00 00             :SONDE DEVIATION {F14.5}
 TENS.N         61 280 10 00             :CABLE TENSION {F14.5}
  TT1.US        60 520 32 01             :TRANSIT TIME 1 {F14.5}
  TT2.US        60 520 32 02             :TRANSIT TIME 2 {F14.5}
  TT3.US        60 520 32 03             :TRANSIT TIME 3 {F14.5}
  TT4.US        60 520 32 04             :TRANSIT TIME 4 {F14.5}
~PARAMETER INFORMATION 
#MNEM.UNIT    VALUE                      DESCRIPTION
#---- -----   --------------------       ------------------------
 CSGD.M       72.80000                   :Casing Bottom of Driller
 CSGL.M       73.20000                   :Logger Casing Shoe Depth
 CSGS.MM      177.80000                  :Current Casing Size
 CSGW.KG/M    25.30000                   :Casing Weight
 MUDD.K/M3    1090.00000                 :Drilling Fluid Density
  DFL.C3      6.00000                    :Drilling Fluid Loss
   PH.        10.00000                   :Drilling Fluid pH
  MUD.        Polymer                    :Drilling Fluid Type
 MUDV.S       108.00000                  :Drilling Fluid Viscosity
   GL.M       445.00000                  :Elevation of Ground Level
 EREF.M       449.00000                  :Elevation of Kelly Bushing
  ENG.        NICK POLLEY                :Engineer s Name
 DREF.        KB                         :Logging Measured From (Name of Logging Elevation Reference)
 BASE.        WINTER PROJECT             :LOGGING UNIT LOCATION
 FACT.        CP4P-00020                 :Service Order Number
  LIC.        0464072                    :API Well Number
 PROV.        ALBERTA                    :County or Parish
 UNIT.        3125                       :Logging Unit Number
 RMCT.DEGC    8.73000                    :Mudcake Sample Temperature
 RMFT.DEGC    8.73000                    :Mud Filtrate Sample Temperature
 TMAX.DEGC    12.28000                   :Maximum Recorded Temperature
 MUDS.        Flowline                   :Mud Sample Source
  RMT.DEGC    8.73000                    :Mud Sample Temperature
RANGE.        08W4                       :Range
  RMC.OHMM    1.18000                    :Resistivity of Mud Cake Sample
  RMF.OHMM    0.59200                    :Resistivity of Mud Filtrate Sample
   RM.OHMM    0.78900                    :Resistivity of Mud Sample
SECTION.      06-34                      :Section
 TIMC.        01 55 00                   :Time Circulation Stopped
 TIML.        07 55 00                   :Time Logger At Bottom
TOWNSHIP.     091                        :Township
  WIT.        JONATHAN FELL              :Witness s Name
  APD.M       4.00000                    :Elevation of Depth Reference (LMF) Above Permanent Datum
 APIN.        0464072                    :API Well Number
  BHT.DEGC    12.28000                   :Bottom Hole Temperature
  BLI.M       256.00000                  :Bottom Log Interval
   BS.MM      156.00000                  :Bit Size
   CN.        SUNCOR ENERGY INC.         :Company Name
 COUN.        ALBERTA                    :County or Parish
 LDAT.        23-Feb-2014                :Tools Above Rotary Table Date
  DCS.        23-Feb-2014                :Date Circulation Stopped
  DFL.C3      6.00000                    :Drilling Fluid Loss
 DLAB.        23-Feb-2014                :Date Logger At Bottom
  DMF.        KB                         :Drilling Measured From (Name of Drilling Elevation Reference)
  EDF.M       448.70001                  :Elevation of Drill Floor
  EGL.M       445.00000                  :Elevation of Ground Level
  EKB.M       449.00000                  :Elevation of Kelly Bushing
   FD.K/M3    1000.00000                 :Fluid Density
   FL.        6-34-91-8W4               :FIELD LOCATION
  FL1.        1AA063409108W400           :Field Location, Line 1
  FL2.                                   :Field Location, Line 2
   FN.        LEWIS                      :Field Name
 HID1.                                   :Header Identifier 1
 HID2.                                   :Header Identifier 2
 HIDE.        LEWIS                      :Header Identifier
 LATI.        56.934500 degrees          :Latitude
  LMF.        KB                         :Logging Measured From (Name of Logging Elevation Reference)
 LONG.        -111.20540 degrees         :Longitude
 MATR.        SAND                       :Rock Matrix for Neutron Porosity Corrections
 MCSS.        Calculated                 :Mudcake Sample Source
 MDEC.DEG     14.38033                   :Magnetic Field Declination
 MDEN.K/M3    2650.00000                 :Matrix Density for Density Porosity
 MRT1.DEGC    12.28000                   :Maximum Recorded Temperature 1
 MRT2.DEGC    -999.25000                 :Maximum Recorded Temperature 2
  NMT.        NOBARITE                   :HRDD Mud Type for Nuclear Devices
  OS1.                                   :Other Services Line 1
  OS2.                                   :Other Services Line 2
  OS3.                                   :Other Services Line 3
  OS4.                                   :Other Services Line 4
  OS5.                                   :Other Services Line 5
 PDAT.        GL                         :Permanent Datum
   R1.        THANK YOU FOR CHOOSING SCHLUMBERGER  :Remarks Line 1
   R2.        ALL TOOLS RAN AS PER TOOL SKETCH AND ALL PRESENTATIONS AS PER CLIENT REQUEST  :Remarks Line 2
   R3.        INDUCTION LOG – DESCENT #1 :Remarks Line 3
   R4.        NEUTRON / DENSITY LOG – DESCENT #1  :Remarks Line 4
  RMB.OHMM    0.70618                    :Resistivity of Mud at Bottom Hole Temperature
 RMFB.OHMM    0.52986                    :Resistivity of Mud Filtrate At Bottom Hole Temperature
  RUN.        ONE/2                      :Run Number
  SON.        CP4P-00020                 :SERVICE ORDER NUMBER
  TDD.M       256.00000                  :Driller Total Depth
  TDL.M       256.00000                  :Logger Total Depth
  TLI.M       75.00000                   :Top Log Interval
 UWID.        1AA063409108W400           :Unique Well Identifier
   WN.        SUNCOR LEWIS 6-34-91-8     :Well Name
  EPD.C3      445.000000                 :Elevation of Permanent Datum above Mean Sea Level
#-----------------------------------------------------------------------------
#
#      DEPT          BS            C1            C2            DEPTH         DEVIM         DT            EI            EV            FBCR          GR            HAZI          HAZIM         P1AZ        P1NO_FBST       RB            SDEV          TENS          TT1           TT2           TT3           TT4
#
#-----------------------------------------------------------------------------

~A       DEPT           BS           C1           C2        DEPTH        DEVIM           DT           EI           EV         FBCR           GR         HAZI        HAZIM         P1AZ    P1NO_FBST           RB         SDEV         TENS          TT1          TT2          TT3          TT4
# ...
    167.94480     156.00000     146.97052     145.72443     167.94348       0.45546     415.45291    2951.57080       9.86396  154089.46875     113.75224     226.64317     221.88583     231.89665     237.40070       5.25171       0.48703    5151.04053     775.81464     520.68201     774.48193     519.50641
    168.09720     156.00000     147.58487     145.72443     168.09750       0.45521     415.20816    2951.57080       9.86396  166724.04688     118.64018     226.61490     221.53294     232.99954     239.00816       6.38393       0.48484    5267.52832     773.33557     518.69238     771.74701     517.65051
    168.24960     156.00000     147.58487     146.36787     168.24997       0.45522     415.31940    2948.16211       9.84447  173127.28125     116.93736     226.66151     221.12561     235.77771     241.74547       9.11659       0.48238    5361.29346     771.72681     516.60028     769.94708     517.38635
    168.40200     156.00000     146.97052     145.72443     168.40152       0.45420     414.03897    2949.86621       9.84447  162260.84375     111.16385     226.59464     220.80634     237.40204     245.21121      10.80784       0.47922    5380.40234     769.27954     516.98535     768.46173     517.59357
    168.55440     156.00000     144.51311     145.72443     168.55788       0.45313     413.32629    2953.27441       9.80548  176932.56250     107.45489     226.47292     220.40352     239.00957     248.79985      12.53596       0.47572    5150.48486     768.41370     515.80835     768.01447     515.70435
    168.70680     156.00000     144.51311     145.72443     168.71022       0.45172     412.60797    2956.68286       9.82498  167284.29688     106.63029     226.20940     220.14545     243.25241     253.59691      17.04592       0.47003    5102.11035     768.68616     516.50543     768.00769     515.61755
    168.85920     156.00000     144.51311     146.36787     168.85822       0.44974     412.49609    2954.97876       9.82498  155498.68750     111.81470     225.85339     219.90268     247.09183     258.19812      21.23939       0.46609    5700.84082     770.31555     516.83722     768.38031     515.36133
    169.01160     156.00000     146.35617     147.65475     169.00873       0.44866     412.54520    2953.27441       9.84447  161172.20313     112.49836     225.44397     219.62727     250.78275     261.65027      25.33748       0.46227    5532.19775     769.11627     515.07764     768.52655     513.70758
    169.16400     156.00000     146.97052     145.08096     169.16431       0.44749     412.34174    2951.57080       9.88346  161967.10938     111.55608     224.95177     219.39223     256.36151     266.57712      31.41114       0.45859    5613.93359     774.53094     516.94598     774.19928     515.93158
    169.31640     156.00000     146.97052     145.08096     169.31610       0.44659     414.11237    2948.16211       9.94194  168476.29688     106.60766     224.40930     219.17075     259.79883     271.33078      35.38919       0.45604    5450.55420     773.90088     516.37311     771.00684     515.80798
    169.46880     156.00000     145.43466     145.08096     169.46672       0.44663     416.63562    2915.78345      10.00042  181918.85938     103.71770     223.88965     218.95465     263.99255     274.32303      40.10145       0.45399    5126.57520     772.89111     523.04205     771.19183     522.12238
    169.62120     156.00000     144.51311     145.08096     169.62262       0.44752     422.00024    2915.78345      10.00042  155245.50000      95.94131     223.35245     218.74202     269.16864     279.43970      45.81524       0.45385    5313.67871     772.77936     521.60254     770.92340     519.95990
    169.77360     156.00000     144.51311     145.08096     169.77347       0.44959     423.19519    2948.16211       9.94194  452909.09375      91.05619     223.02208     218.54654     272.93060     283.21780      49.90781       0.45322    5382.34814     772.04816     521.16699     770.73340     519.75244
    169.92600     156.00000     144.51311     147.65475     169.92377       0.45202     420.67245    2948.16211       9.94194  261102.42188      92.55698     222.72261     218.49840     275.78204     287.41016      53.05849       0.45325    5909.46240     770.63733     522.34894     768.94403     521.29291
    170.07840     156.00000     144.51311     150.22852     170.07903       0.45525     415.56485    2948.16211       9.90295  176445.81250     102.10105     222.58205     218.49127     279.44141     291.06921      56.85843       0.45414    5512.73682     772.38458     522.24872     771.98462     517.97241
    170.23080     156.00000     144.51311     150.22852     170.23508       0.45869     410.05637    2915.78345       9.94194  155026.09375     112.03063     222.61060     218.52235     283.21948     293.45499      60.60723       0.45418    5449.07178     774.67969     515.56378     773.15991     513.83850
    170.38320     156.00000     144.51311     150.22852     170.38510       0.46209     408.21786    2982.24512       9.82498  156217.64063     115.32899     222.60294     218.65604     287.41177     296.08896      64.80695       0.45475    5188.99902     774.41736     516.38135     771.24994     516.57898
    170.53560     156.00000     144.51311     150.22852     170.53687       0.46538     408.84244    2985.65356       9.74700  171026.90625     118.74682     222.78181     218.72159     292.16037     297.92410      69.37811       0.45445    5381.23633     768.65033     515.46613     766.40948     515.65845
    170.68800     156.00000     144.51311     150.22852     170.68973       0.46874     410.41022    2985.65356       9.68852  169040.71875     117.86904     222.85851     218.80893     294.99796     300.20856      72.14024       0.45435    5663.77246     767.45831     515.81329     765.00647     515.97809
    170.84040     156.00000     144.51311     150.22852     170.83772       0.47191     409.16168    2953.27441       9.66902  129969.00781     119.98450     222.94565     218.85063     297.09137     300.77542      74.14336       0.45424    5534.18066     766.04346     517.68420     765.14429     515.84534
    170.99280     156.00000     144.51311     150.22852     170.99104       0.47494     410.07794    2983.94946       9.63004  165410.60938     116.21537     222.91960     218.82663     298.88950     299.78354      75.97044       0.45522    5586.13232     766.41284     515.79199     765.75677     514.03778
    171.14520     156.00000     146.97052     150.22852     171.14645       0.47789     411.23508    2953.27441       9.70801  157133.29688     117.34757     222.83211     218.82236     300.94019     298.83316      78.10598       0.45542    5662.86426     767.53711     518.31445     765.42578     517.81616
    171.29760     156.00000     149.42792     150.22852     171.29678       0.48188     413.29199    2989.06152       9.68852  137352.95313     112.29042     222.63020     218.79724     300.34540     299.71082      77.71404       0.45606    5310.87988     767.90363     520.69995     765.88452     519.35034
    171.45000     156.00000     149.42792     150.22852     171.44841       0.48611     415.22556    2989.06152       9.70801  170694.25000     107.81416     222.36656     218.76784     299.20966     301.30383      76.84440       0.45647    5260.57813     761.81818     517.31647     760.68280     517.39478
    171.60240     156.00000     149.42792     150.22852     171.60541       0.49078     416.04919    2980.54102       9.72751  156992.01563     104.28761     222.00832     218.80534     298.90149     303.05603      76.89356       0.45698    5180.78809     759.45013     518.92944     759.85321     520.41437
    171.75480     156.00000     149.42792     150.22852     171.75787       0.49534     417.91254    2941.34570       9.84447  142864.18750      95.90159     221.70238     218.87737     300.75519     305.12936      79.05186       0.45700    5216.87451     756.65875     512.85199     759.33014     512.39185
