~Version Information
 VERS.                2.00:   CWLS log ASCII Standard -VERSION 2.00
 WRAP.                  NO:   One line per frame      
~Well Information Block
#MNEM.UNIT                   Data                        Description
#----.----   -----------------------------------------   -------------------------------
 STRT.M                                       27.0000 : Starting Depth
 STOP.M                                      188.0000 : Ending Depth
 STEP.M                                        0.1000 : Level Spacing
 NULL.                                      -999.2500 : Absent Value
 COMP.       SUNCOR ENERGY INC                        : Company
 WELL.       SUNCOR LEWIS 7-22-92-8                   : Well
 FLD .       UNDEFINED                                : Field
 LOC .       LSD 07-22-092-08W4                       : Location
 PROV.       ALBERTA                                  : Province
 CTRY.       CA                                       : Country
 SRVC.       Baker Hughes                             : Service Company
 DATE.       16-JAN-2016                              : Log Date
 UWI .       1AA072209208W400                         : Unique Well ID
 LIC .       0477502                                  : License Number
~Curve Information Block
#MNEM    .UNIT        API Codes     Curve Description
#--------.--------   LG--CV-CL--M   -------------------------------
 DEPT    .M           0   1  0  1 : Depth
 AZSTQH  .deg        99 995 99  1 : Azimuth of reference pad for STAR
 BKRGQH  .dim        99 995 99  1 : Bucker driver value
 DEVSTQH .deg        99 995 99  1 : Deviation for STAR
 DIP1QH  .raw        75 610  1  1 : Pad 1 average data of buttons 11, 12, 13, 14
 DIP2QH  .raw        75 610  1  1 : Pad 2 average data of buttons 11, 12, 13, 14
 DIP3QH  .raw        75 610  1  1 : Pad 3 average data of buttons 11, 12, 13, 14
 DIP4QH  .raw        75 610  1  1 : Pad 4 average data of buttons 11, 12, 13, 14
 DIP5QH  .raw        75 610  1  1 : Pad 5 average data of buttons 11, 12, 13, 14
 DIP6QH  .raw        75 610  1  1 : Pad 6 average data of buttons 11, 12, 13, 14
 GR      .gAPI       30 310  1  1 : Gamma ray
 PADFQH  .pct        94 995 99  1 : Pad force
 PADGQH  .dim        99 995 99  1 : Pad gain code
 RAD1QH  .mm         75 280 99  1 : Radius, tool axis to pad 1 face
 RAD2QH  .mm         75 280 99  1 : Radius, tool axis to pad 2 face
 RAD3QH  .mm         75 280 99  1 : Radius, tool axis to pad 3 face
 RAD4QH  .mm         75 280 99  1 : Radius, tool axis to pad 4 face
 RAD5QH  .mm         75 280 99  1 : Radius, tool axis to pad 5 face
 RAD6QH  .mm         75 280 99  1 : Radius, tool axis to pad 6 face
 RAZGSTQH.mG         99 995 99  1 : Raw Z-axis accelerometer shifted to STAR
 RBSTQH  .deg        99 995 99  1 : Relative bearing (relative to borehole high side) for STAR
 SPD     .m/min      99 636 99  1 : Speed
~Parameter Information Block
#MNEM.UNIT                     Value                    Description
#----.----   ----------------------------------------   -------------------------------
 HID1.       RESISTIVITY IMAGING LOG^T                : Header Identifer
 HID2.       GAMMA RAY LOG                            : Header Identifer
 FILE.       3953                                     : File Number
 CMT1.       UID                                      : Comment 1  
 CMT2.       1AA072209208W400                         : Comment 2  
 CMT3.       LICENSE                                  : Comment 3  
 CMT4.       0477502                                  : Comment 4  
 FL2 .       BH LOC. LSD  07                          : Field Location 2
 SECT.       22                                       : Section
 TOWN.       092                                      : Township
 RANG.       08W4                                     : Range
 OS1 .       ZDL-CN-GR-CAL                            : Other Services Line 1
 OS2 .       HDIL-GR-CAL, CVL                         : Other Services Line 2
 OS3 .       DAL-GR-CAL                               : Other Services Line 3
 OS4 .       COMPOSITE                                : Other Services Line 4
 PDAT.       G.L.                                     : Permanent Datum
 EPD .M      438.50                                   : Elevation Of Perm. Datum
 LMF .       K.B.                                     : Log Measured From
 APD .M      2.20                                     : Above Permanent Datum
 DMF .       KELLY BUSHING                            : Drilling Measured From
 EKB .M      440.70                                   : Elevation Of Kelly Bushing
 EGL .M      438.50                                   : Elevation Of Ground Level
 RUN .       1                                        : Run Number
 TRIP.       1                                        : Trip Number
 SON .       CA003953J                                : Service Order Number
 TDD .M      187.0                                    : Total Depth - Driller
 TDL .M      186.3                                    : Total Depth - Logger
 BLI .M      183.0                                    : Bottom Log Interval
 TLI .M      55.0                                     : Top Log Interval
 CSIZ.MM     177.8                                    : Casing Size
 CBDR.M      49.4                                     : Casing Bottom - Driller
 CBLO.M      49.4                                     : Casing Bottom - Logger
 BS  .MM     156.0                                    : Bit Size
 DFT .       WB (WATER BASE MUD)                      : Drilling Fluid Type
 DFD .G/L    1030.0                                   : Drilling Fluid Density
 DFV .S      79.0                                     : Drilling Fluid Viscosity
 DFPH.       7.0                                      : Drilling Fluid Ph
 DFL .ML     8.0                                      : Drilling Fluid Loss
 MSS .       F (FLOWLINE)                             : Mud Sample Source
 RMS .OHMM   1.2                                      : Resistivity Of Mud Sample
 MST .DEGC   25.0                                     : Mud Sample Temperature
 RMFS.OHMM   1.0                                      : Resistivity Of Mud Filtrate Sample
 MFST.DEGC   25.0                                     : Mud Filtrate Sample Temperature
 RMCS.OHMM   1.4                                      : Resistivity Of Mud Cake Sample
 MCST.DEGC   25.0                                     : Mud Cake Sample Temperature
 MFSS.       CALCULATED                               : Mud Filtrate Sample Source
 MCSS.       CALCULATED                               : Mud Cake Sample Source
 RMB .OHMM   2.0                                      : Mud Resistivity At Bht
 BHT .DEGC   7.0                                      : Bottom Hole Temperature
 TSC .       5.0 HOURS                                : Time Since Circulation
 MRT .DEGC   7.0                                      : Maximum Recorded Temperature
 LUN .       Z004250                                  : Logging Unit Number
 LUL .       LEDUC OH                                 : Logging Unit Location
 ENGI.       A.MALIK                                  : Engineer's Name
 WITN.       H.WILSON / P.ENE                         : Witness' Name
 TSTR.       /STAR/GR/                                : Title Service Mnemonic
 TSTG.       NA                                       : Title Service Mnemonic
 STUS.       FINAL                                    : Status
 LCNM.       BAKER ATLAS                              : Logging Company Name
 LCC .       150                                      : Logging Company Code
 OPMD.       OH.WIRE                                  : Operation Mode
 PANA.       A.MALIK                                  : Processing Analyst
 PCON.       BAKER ATLAS                              : Processing Contractor
 APIN.                                                : API Serial Number
 STAT.                                                : State Or Province
~Other information
LAT/LON  57.0175, -111.419                                                      
TIME STOPPED CIRCULATION  16-JAN-2016 0830AM                                    
STAR RUN WITH 0% PAD FORCE AND AUTOMATICALLY CONTROLLED GAINS                   
ANY STICK AND PULL AFFECTS LOG QUALITY                                          
RIG  ENCORE 402                                                                 
CREW  F.AJAGU, A.MALIK                                                          
#  Curve Data
~A  DEPT        AZSTQH      BKRGQH      DEVSTQH     DIP1QH      DIP2QH      DIP3QH      DIP4QH      DIP5QH      DIP6QH      GR          PADFQH      PADGQH      RAD1QH      RAD2QH      RAD3QH      RAD4QH      RAD5QH      RAD6QH      RAZGSTQH    RBSTQH      SPD       
# ...
     67.3000    316.1316      7.0000      0.0000    299.0000    255.0000    264.0000    248.0000    276.0000    166.0000     79.1176      1.2366      3.0000     79.1314     75.0072     74.2000     73.2820     82.0496     80.9242   1008.8755      0.0000      3.3630
     67.4000    318.4775      7.0000      0.0000    283.1968    264.9370    294.4961    367.5354    266.1968    287.7638     80.9199      1.1304      3.0000     79.1314     75.0072     73.8121     73.2820     82.0496     81.0496   1010.5120      0.0000      3.3861
     67.5000    319.0333      7.0000      0.0000    325.0000    312.0000    429.0000    323.0000    360.0000    261.0000     82.5483      1.2366      3.0000     79.1314     75.0072     74.2000     73.2820     82.0496     81.0496   1010.5120      0.0000      3.3899
     67.6000    320.3323      7.0000      0.0000    241.0000    483.0000    291.0000    347.0000    241.0000    369.0000     84.1434      1.1304      3.0000     79.1314     75.0072     74.2000     73.2820     82.0496     81.0496   1007.2390      0.0000      3.3649
     67.7000    320.3323      7.0000      0.0000    347.6457    474.1968    463.6299    399.8661    434.0000    202.6299     85.3885      1.2366      3.0000     79.1314     75.0072     74.2000     73.2820     82.0496     81.4260   1006.0471      0.0000      3.3246
     67.8000    319.7369      7.0000      0.0000    453.0000    414.0000    444.0000    490.0000    530.0000    413.0000     85.9073      1.2366      3.0000     79.0037     75.0072     74.2000     73.2820     82.0496     81.4260   1012.9667      0.0000      3.2938
     67.9000    318.2184      7.0000      0.0464    492.0000    403.0000    432.0000    487.0000    467.0000    378.0000     85.5282      1.2366      3.0000     79.5147     75.0072     74.2000     73.2820     82.0496     81.4260   1009.6937     10.0215      3.2886
     68.0000    318.5272      7.0000      0.0464    474.0000    440.0000    430.0000    458.0000    507.0000    348.0000     84.2979      1.2366      3.0000     80.4090     75.0072     74.2000     73.2820     82.0496     81.4260   1008.0573     10.0215      3.3068
     68.1000    318.1312      7.0000      0.0000    406.0000    464.0000    399.0000    451.0000    425.0000    362.0000     82.6230      1.2366      3.0000     80.9200     75.0072     74.2000     73.2820     82.0496     81.4260   1010.5120      0.0000      3.3285
     68.2000    318.8353      7.0000      0.0000    540.9370    440.7559    321.3622    369.7559    351.5433    356.5197     80.6281      1.2366      3.0000     81.1755     75.0072     74.2000     73.4102     82.0496     81.4260   1009.6937      0.0000      3.3407
     68.3000    318.5272      7.0000      0.0000    327.0000    472.0000    220.0000    440.0000    349.0000    377.0000     78.1991      1.2366      3.0000     81.1755     75.0072     74.2000     73.4102     82.0496     81.4260   1010.5120      0.0000      3.3369
     68.4000    318.8353      7.0000      0.0000    435.0000    323.0000    341.0000    318.0000    308.0000    291.0000     75.2259      1.2366      3.0000     81.0478     75.0072     74.2000     73.7949     82.0496     81.4260   1008.8755      0.0000      3.3233
     68.5000    319.3406      7.0000      0.0000    261.9685    304.0157    263.4803    322.0866    257.0000    213.9843     71.7606      1.2366      3.0000     81.0478     75.0072     74.2000     73.7949     82.0496     81.4260   1008.8755      0.0000      3.3087
     68.6000    319.2516      7.0000      0.0464    275.0000    274.0000    269.0000    283.0000    258.0000    223.0000     68.0465      1.2366      3.0000     81.0478     75.0072     74.4586     73.7949     82.0496     81.4260   1007.2390    190.0215      3.3060
     68.7000    318.2419      6.0000      0.0464    160.0000    129.0000    173.0000    147.0000    221.0000     95.0000     64.4896      1.2366      3.0000     81.1755     75.0072     74.9758     73.7949     82.0496     81.4260   1009.6937    190.0215      3.3191
     68.8000    318.1551      6.0000      0.0464     74.0000    197.0000     61.0000    239.0000     89.0000    217.0000     61.5912      1.2366      3.0000     81.1755     75.0072     75.1051     73.7949     82.0496     81.4260   1001.5114    190.0215      3.3439
     68.9000    319.4493      9.0000      0.0464    367.0000    624.0000    290.0000    653.0000    323.0000    638.0000     60.0212      1.2366      3.0000     81.3033     75.0072     75.3637     73.7949     82.0496     81.8023   1003.9661    190.0215      3.3699
     69.0000    321.5382      9.0000      0.0464    366.0000    221.0000    319.0000    253.0000    295.0000    372.0000     59.9955      1.2366      3.0000     81.3033     75.0072     75.3637     73.7949     82.0496     81.5514   1017.0578    190.0215      3.3865
     69.1000    325.0215      9.0000      0.0464    867.0000    331.0000    475.0000    290.0000    447.0000    287.0000     61.2906      1.2366      3.0000     81.3033     75.0072     74.9758     73.7949     82.0496     81.5514   1010.5120    190.0215      3.3892
     69.2000    326.6126      8.0000      0.0657    138.0000    320.0000     82.0000    124.0000     88.0000    261.0000     63.4689      1.2366      3.0000     81.3033     75.0072     74.9758     73.7949     82.0496     81.4260   1010.5120    145.0215      3.3781
     69.3000    327.5024      8.0000      0.0657     92.1417    270.5984     91.0709     75.1417    114.5354     25.9291     65.7896      1.2366      3.0000     81.2349     75.0072     75.1051     73.7949     82.0496     81.4843   1010.1318    145.0215      3.3596
     69.4000    326.0127      7.0000      0.0657    368.0000     41.0000    351.0000     48.0000    447.0000      5.0000     67.6780      1.2366      3.0000     81.3033     75.0072     74.8465     73.4102     82.0496     81.4260   1023.6036    145.0215      3.3424
     69.5000    322.6355      7.0000      0.0464    277.0000    448.0000    279.0000    308.0000    289.0000    223.0000     69.0144      1.2366      3.0000     81.1755     75.0072     74.5879     73.2820     82.0496     81.4260   1007.2390    190.0215      3.3331
     69.6000    321.5382      7.0000      0.0464    274.8504    248.4252    327.4016    277.4252    281.4252    180.0000     70.1158      1.2366      3.0000     81.1755     75.0072     74.2000     73.2820     82.0496     81.4260   1004.9068    190.0215      3.3328
     69.7000    321.2339      7.0000      0.0464    252.0000    259.0000    260.0000    305.0000    256.0000    205.0000     71.4103      1.2366      3.0000     81.1755     75.0072     74.2000     73.2820     82.0496     81.4260   1009.6937    190.0215      3.3365
     69.8000    321.6316      7.0000      0.0657    268.0000    242.0000    276.0000    268.0000    272.0000    188.0000     72.9570      1.2366      3.0000     81.1755     75.0072     74.2000     73.2820     82.0496     81.4260   1010.5120    235.0215      3.3417
     69.9000    322.3330      7.0000      0.0657    233.0000    243.0000    231.0000    277.0000    262.0000    207.0000     74.5493      1.2366      3.0000     81.1755     75.0072     74.2000     73.2820     82.0496     81.4260   1008.0573    235.0215      3.3498
     70.0000    322.2288      7.0000      0.0464    254.0000    219.0000    256.0000    244.0000    255.0000    200.0000     75.7385      1.2366      3.0000     81.1755     75.0072     74.2000     73.2820     82.0496     81.4260   1009.6937    190.0215      3.3607
     70.1000    322.8265      7.0000      0.0546    271.7953    237.0000    239.8504    251.8740    256.1496    233.1496     76.2825      1.2366      3.0000     81.1755     75.0072     74.2000     73.2820     82.0496     81.4260   1007.2390    209.1553      3.3702
     70.2000    324.5233      7.0000      0.0657    274.0000    231.0000    246.0000    270.0000    257.0000    231.0000     76.3235      1.2366      3.0000     81.1755     75.0072     74.2000     73.2820     82.0496     81.6769   1008.8755    235.0215      3.3692
     70.3000    326.8176      7.0000      0.0657    313.0000    236.0000    259.0000    259.0000    259.0000    232.0000     76.4371      1.2366      3.0000     81.1755     75.0072     74.2000     73.2820     82.0496     81.4260   1009.6937    235.0215      3.3571
