~VERSION INFORMATION 
VERS.          2.0   :CWLS LOG ASCII STANDARD - VERSION 2.0
WRAP.          NO    :ONE LINE PER DEPTH STEP
PROD.  Schlumberger   :LAS Producer
PROG.  DLIS to ASCII 19C2-270                          :LAS Program name and version
CREA.        2014/02/23 09:08                          :LAS Creation date {YYYY/MM/DD hh:mm}
DLIS_CREA.  2014-Feb-23 08:51                          :DLIS Creation date and time {YYYY-MMM-DD hh:mm}
SOURCE.     1AA063409108W400_FMI_SONIC_MAIN.dlis       :DLIS File Name
FILE-ID.     ConPr_R2L3Up_S008_FBST_DSLT_HGNS          :File Identification Number
#--------------------------------------------------
~WELL INFORMATION 
#MNEM.UNIT      DATA             DESCRIPTION
#---- ------ --------------   -----------------------------
STRT.M      54.71160        :START DEPTH
STOP.M      257.70840       :STOP DEPTH
STEP.M       0.15240        :STEP
NULL .          -999.25      :NULL VALUE
COMP.        SUNCOR ENERGY INC.                       :COMPANY
WELL.        SUNCOR LEWIS 6-34-91-8                   :WELL
FLD  .        LEWIS                                    :FIELD
LOC.        6-34-91-8W4                              :LOCATION
PROV .        ALBERTA                                  :PROVINCE
UWI.        1AA063409108W400                         :UNIQUE WELL ID
LIC  .        0464072                                  :LICENSE NUMBER
CTRY .        CA                                       :COUNTRY (WWW code)
DATE.        23-Feb-2014                              :LOG DATE {DD-MMM-YYYY}
SRVC .        Schlumberger                             :SERVICE COMPANY
LATI .DEG     56.934500 degrees                        :LATITUDE
LONG .DEG     -111.20540 degrees                       :LONGITUDE
GDAT .                                                 :GeoDetic Datum
SECT .        06-34                                    :Section
RANG .        08W4                                     :Range
TOWN .        091                                      :Township
#-----------------------------------------------------------------------------
~CURVE INFORMATION 
#MNEM.UNIT   API CODE                                  DESCRIPTION
#---- -----  --------                                  -----------------------
 DEPT.M         00 001 00 00             :Depth Index - Measured Depth
   BS.MM        61 280 07 00             :BIT SIZE {F14.5}
   C1.MM        42 280 06 00             :CALIPER 1 {F14.5}
   C2.MM        42 280 05 00             :CALIPER 2 {F14.5}
DEPTH.M         00 001 00 00             :DEPTH INDEX {F14.5}
DEVIM.DEG       00 630 00 00             :MEMORIZED DEVIATION {F14.5}
   DT.US/M      60 520 32 00             :DELTA-T (ALSO CALLED SLOWNESS OR INTERVAL TRANSIT TIME) {F14.5}
   EI.MA        00 000 00 00             :EMEX CURRENT {F14.5}
   EV.V         00 000 00 00             :EMEX VOLTAGE {F14.5}
 FBCR.OHMS      00 000 00 00             :CORRELATION RESISTANCE {F14.5}
   GR.GAPI      42 310 01 00             :GAMMA RAY {F14.5}
 HAZI.DEG       00 620 00 00             :HOLE AZIMUTH RELATIVE TO TRUE NORTH {F14.5}
HAZIM.DEG       00 620 00 00             :HOLE AZIMUTH RELATIVE TO TRUE NORTH {F14.5}
 P1AZ.DEG       00 630 00 00             :PAD 1 AZIMUTH IN HORIZONTAL PLANE (0 = TRUE NORTH) {F14.5}
P1NO_FBST.DEG   00 000 00 00             :PAD 1 AZIMUTH IN PLANE ORTHOGONAL TO TOOL AXIS (0 = TRUE NORTH), MEMORIZED TO FBST {F14.5}
   RB.DEG       00 631 00 00             :RELATIVE BEARING {F14.5}
 SDEV.DEG       00 000 00 00             :SONDE DEVIATION {F14.5}
 TENS.N         61 280 10 00             :CABLE TENSION {F14.5}
  TT1.US        60 520 32 01             :TRANSIT TIME 1 {F14.5}
  TT2.US        60 520 32 02             :TRANSIT TIME 2 {F14.5}
  TT3.US        60 520 32 03             :TRANSIT TIME 3 {F14.5}
  TT4.US        60 520 32 04             :TRANSIT TIME 4 {F14.5}
~PARAMETER INFORMATION 
#MNEM.UNIT    VALUE                      DESCRIPTION
#---- -----   --------------------       ------------------------
 CSGD.M       72.80000                   :Casing Bottom of Driller
 CSGL.M       73.20000                   :Logger Casing Shoe Depth
 CSGS.MM      177.80000                  :Current Casing Size
 CSGW.KG/M    25.30000                   :Casing Weight
 MUDD.K/M3    1090.00000                 :Drilling Fluid Density
  DFL.C3      6.00000                    :Drilling Fluid Loss
   PH.        10.00000                   :Drilling Fluid pH
  MUD.        Polymer                    :Drilling Fluid Type
 MUDV.S       108.00000                  :Drilling Fluid Viscosity
   GL.M       445.00000                  :Elevation of Ground Level
 EREF.M       449.00000                  :Elevation of Kelly Bushing
  ENG.        NICK POLLEY                :Engineer s Name
 DREF.        KB                         :Logging Measured From (Name of Logging Elevation Reference)
 BASE.        WINTER PROJECT             :LOGGING UNIT LOCATION
 FACT.        CP4P-00020                 :Service Order Number
  LIC.        0464072                    :API Well Number
 PROV.        ALBERTA                    :County or Parish
 UNIT.        3125                       :Logging Unit Number
 RMCT.DEGC    8.73000                    :Mudcake Sample Temperature
 RMFT.DEGC    8.73000                    :Mud Filtrate Sample Temperature
 TMAX.DEGC    12.28000                   :Maximum Recorded Temperature
 MUDS.        Flowline                   :Mud Sample Source
  RMT.DEGC    8.73000                    :Mud Sample Temperature
RANGE.        08W4                       :Range
  RMC.OHMM    1.18000                    :Resistivity of Mud Cake Sample
  RMF.OHMM    0.59200                    :Resistivity of Mud Filtrate Sample
   RM.OHMM    0.78900                    :Resistivity of Mud Sample
SECTION.      06-34                      :Section
 TIMC.        01 55 00                   :Time Circulation Stopped
 TIML.        07 55 00                   :Time Logger At Bottom
TOWNSHIP.     091                        :Township
  WIT.        JONATHAN FELL              :Witness s Name
  APD.M       4.00000                    :Elevation of Depth Reference (LMF) Above Permanent Datum
 APIN.        0464072                    :API Well Number
  BHT.DEGC    12.28000                   :Bottom Hole Temperature
  BLI.M       256.00000                  :Bottom Log Interval
   BS.MM      156.00000                  :Bit Size
   CN.        SUNCOR ENERGY INC.         :Company Name
 COUN.        ALBERTA                    :County or Parish
 LDAT.        23-Feb-2014                :Tools Above Rotary Table Date
  DCS.        23-Feb-2014                :Date Circulation Stopped
  DFL.C3      6.00000                    :Drilling Fluid Loss
 DLAB.        23-Feb-2014                :Date Logger At Bottom
  DMF.        KB                         :Drilling Measured From (Name of Drilling Elevation Reference)
  EDF.M       448.70001                  :Elevation of Drill Floor
  EGL.M       445.00000                  :Elevation of Ground Level
  EKB.M       449.00000                  :Elevation of Kelly Bushing
   FD.K/M3    1000.00000                 :Fluid Density
   FL.        6-34-91-8W4               :FIELD LOCATION
  FL1.        1AA063409108W400           :Field Location, Line 1
  FL2.                                   :Field Location, Line 2
   FN.        LEWIS                      :Field Name
 HID1.                                   :Header Identifier 1
 HID2.                                   :Header Identifier 2
 HIDE.        LEWIS                      :Header Identifier
 LATI.        56.934500 degrees          :Latitude
  LMF.        KB                         :Logging Measured From (Name of Logging Elevation Reference)
 LONG.        -111.20540 degrees         :Longitude
 MATR.        SAND                       :Rock Matrix for Neutron Porosity Corrections
 MCSS.        Calculated                 :Mudcake Sample Source
 MDEC.DEG     14.38033                   :Magnetic Field Declination
 MDEN.K/M3    2650.00000                 :Matrix Density for Density Porosity
 MRT1.DEGC    12.28000                   :Maximum Recorded Temperature 1
 MRT2.DEGC    -999.25000                 :Maximum Recorded Temperature 2
  NMT.        NOBARITE                   :HRDD Mud Type for Nuclear Devices
  OS1.                                   :Other Services Line 1
  OS2.                                   :Other Services Line 2
  OS3.                                   :Other Services Line 3
  OS4.                                   :Other Services Line 4
  OS5.                                   :Other Services Line 5
 PDAT.        GL                         :Permanent Datum
   R1.        THANK YOU FOR CHOOSING SCHLUMBERGER  :Remarks Line 1
   R2.        ALL TOOLS RAN AS PER TOOL SKETCH AND ALL PRESENTATIONS AS PER CLIENT REQUEST  :Remarks Line 2
   R3.        INDUCTION LOG – DESCENT #1 :Remarks Line 3
   R4.        NEUTRON / DENSITY LOG – DESCENT #1  :Remarks Line 4
  RMB.OHMM    0.70618                    :Resistivity of Mud at Bottom Hole Temperature
 RMFB.OHMM    0.52986                    :Resistivity of Mud Filtrate At Bottom Hole Temperature
  RUN.        ONE/2                      :Run Number
  SON.        CP4P-00020                 :SERVICE ORDER NUMBER
  TDD.M       256.00000                  :Driller Total Depth
  TDL.M       256.00000                  :Logger Total Depth
  TLI.M       75.00000                   :Top Log Interval
 UWID.        1AA063409108W400           :Unique Well Identifier
   WN.        SUNCOR LEWIS 6-34-91-8     :Well Name
  EPD.C3      445.000000                 :Elevation of Permanent Datum above Mean Sea Level
#-----------------------------------------------------------------------------
#
#      DEPT          BS            C1            C2            DEPTH         DEVIM         DT            EI            EV            FBCR          GR            HAZI          HAZIM         P1AZ        P1NO_FBST       RB            SDEV          TENS          TT1           TT2           TT3           TT4
#
#-----------------------------------------------------------------------------

~A       DEPT           BS           C1           C2        DEPTH        DEVIM           DT           EI           EV         FBCR           GR         HAZI        HAZIM         P1AZ    P1NO_FBST           RB         SDEV         TENS          TT1          TT2          TT3          TT4
# ...
    161.69640     156.00000     151.88531     153.44574     161.69508       0.54469     360.67001    2680.61035      11.13107  223568.01563      87.39141     226.82135     221.35149      76.09284      80.34392     209.27014       0.51505    4966.58789     729.68719     470.24902     730.94983     465.47699
    161.84880     156.00000     154.34271     155.37610     161.84816       0.55018     330.13617    2680.61035      11.11158  531138.18750      69.92310     226.46025     221.47905      76.72690      78.83394     210.26505       0.51512    4785.99023     730.30554     466.57959     728.61584     469.45212
    162.00120     156.00000     151.71065     155.37610     162.00055       0.55588     314.30777    2682.31470      11.01411  900635.62500      66.34700     226.25574     221.67917      79.81107      75.51218     213.55505       0.51500    4794.88623     729.42334     469.77698     729.30206     465.87949
    162.15360     156.00000     151.88531     153.44574     162.15176       0.56039     349.69070    2719.80615      10.89715  306593.25000      72.37902     226.14790     221.86096      79.86395      72.23466     213.71419       0.51413    4722.82520     728.83868     455.81992     727.21729     444.55988
    162.30600     156.00000     151.53598     154.73264     162.30467       0.56475     396.52029    2723.21411      10.87765  236051.12500      82.92877     226.15991     222.06210      77.22245      66.19106     211.06178       0.51398    4833.14111     723.01520     461.49240     720.47693     471.68573
    162.45840     156.00000     151.88531     152.80231     162.45877       0.56822     416.49234    2755.59326      10.81917  168188.06250      95.99818     226.13998     222.30309      74.10508      61.22134     207.96606       0.51365    4791.32764     720.68164     491.77545     726.97723     508.22629
    162.61080     156.00000     152.49966     154.41092     162.61235       0.57135     422.31717    2753.88916      10.68271  173504.46875     102.90414     226.02104     222.58771      69.38850      59.92831     203.36661       0.51305    4591.15771     722.67151     516.13770     727.82739     518.43823
    162.76320     156.00000     151.71065     152.80231     162.76628       0.57452     422.11136    2784.56348      10.60474  151151.70313     106.55346     225.86073     222.89589      63.25114      58.67822     197.38841       0.51347    4681.30859     752.13226     523.90289     768.21503     521.99695
    162.91560     156.00000     151.88531     152.80231     162.91919       0.57754     438.02026    2779.45142      10.48777  173535.89063     112.55941     225.61134     223.25119      60.37256      57.48815     194.75919       0.51457    4578.99951     776.05658     526.76892     777.50836     525.09729
    163.06800     156.00000     151.88531     152.80231     163.06735       0.58013     426.34018    2815.23877      10.42929  196175.79688     118.06728     225.23070     223.68665      59.36282      56.05578     194.13008       0.51518    4483.80762     784.42175     534.24115     782.78119     531.59955
    163.22040     156.00000     151.27098     152.80231     163.21704       0.58450     427.19534    2779.45142      10.39030  164379.68750     119.59694     224.86787     224.56317      57.96803      54.45632     193.10114       0.51739    4611.91602     790.88354     535.47968     790.03674     529.68860
    163.37280     156.00000     151.53598     152.80231     163.37131       0.58656     433.46301    2779.45142      10.37081  198860.57813     114.22626     224.43008     225.09860      57.05111      53.31763     192.61969       0.51904    4591.45459     798.31128     530.19196     796.67188     524.34363
    163.52520     156.00000     150.48045     152.80231     163.52455       0.58800     431.82983    2816.94238      10.40980  120783.65625     106.44408     223.95152     225.59717      55.09423      52.61306     191.14320       0.52043    4466.90430     799.73132     532.03284     797.11017     528.89551
    163.67760     156.00000     149.25026     152.80231     163.67915       0.58824     433.26010    2818.64673      10.39030  197635.76563     105.78216     223.55725     226.06961      53.86168      51.17059     190.30263       0.52246    4510.79346     795.55994     536.51355     792.96338     534.42078
    163.83000     156.00000     149.42792     152.80231     163.83240       0.58793     429.79449    2818.64673      10.33182  454658.12500     116.11137     223.15974     226.50000      52.90745      47.34314     189.74948       0.52354    4500.41406     791.42535     537.01129     789.01477     535.41064
    163.98240     156.00000     150.65662     152.80231     163.98463       0.58699     430.25629    2816.94238      10.35131  221093.39063     121.90181     222.76424     226.82890      52.15702      46.30119     189.39346       0.52463    4578.99951     791.18994     537.15961     790.78674     531.93311
    164.13480     156.00000     151.27098     152.80231     164.13669       0.58572     434.09448    2849.32153      10.33182  201847.89063     127.66218     222.43765     227.06841      49.29779      46.00571     186.85963       0.52554    4771.75586     797.84509     525.78912     797.63531     520.58276
    164.28720     156.00000     149.42792     151.51540     164.28656       0.58429     428.24924    2822.05518      10.33182  123556.32813     121.94243     222.09073     227.24115      46.34270      46.18831     184.25078       0.52559    4940.19482     799.98425     527.00336     795.22156     526.55487
    164.43960     156.00000     149.42792     151.51540     164.43709       0.58299     427.41617    2856.13818      10.25384  246350.48438     121.27762     221.82434     227.30872      46.36003      46.30217     184.53561       0.52606    4982.00830     791.89270     536.76489     792.19995     535.63983
    164.59200     156.00000     148.32796     151.51540     164.59262       0.58126     428.46588    2856.13818      10.19536  126262.28906     116.74019     221.58304     227.28819      46.00649      42.92664     184.42461       0.52646    4696.48828     795.13416     537.67157     796.28729     535.03485
    164.74440     156.00000     147.27768     150.22852     164.74884       0.58040     430.47110    2852.72949      10.19536  173283.03125     119.96799     221.39769     227.22519      46.31524      40.68487     184.91571       0.52858    4992.38770     803.50439     534.43549     804.04907     530.25580
    164.89680     156.00000     146.97052     150.22852     164.90123       0.57974     435.55692    2849.32153      10.19536  166270.90625     123.61475     221.28119     227.13338      45.20031      41.52341     183.92026       0.53103    4848.85791     809.96155     531.97485     806.68414     530.95410
    165.04920     156.00000     145.74181     150.22852     165.05431       0.57988     438.39117    2852.72949      10.17587  204292.67188     130.17303     221.22514     226.96085      41.22182      40.25872     179.99811       0.53474    4752.47998     805.62878     537.71118     800.63977     539.29126
    165.20160     156.00000     146.97052     151.19368     165.20296       0.58025     439.25824    2852.72949      10.13688  267301.62500     127.49387     221.25487     226.81926      41.07583      39.84305     179.82118       0.53949    4813.92920     800.35614     546.52356     797.57977     544.63910
    165.35400     156.00000     146.04898     150.87196     165.35081       0.58106     442.10120    2883.40479      10.13688  164762.57813     116.14612     221.35149     226.69481      41.20882      42.53105     179.85905       0.54469    5228.73633     801.23853     544.62531     798.68512     539.61395
    165.50640     156.00000     146.04898     149.90678     165.50322       0.58187     440.88168    2844.20898      10.19536  488828.21875     105.73878     221.47905     226.54185      39.55180      44.87060     178.07283       0.55018    5207.97803     797.58398     539.75031     794.18359     536.39105
