~VERSION INFORMATION 
VERS.          2.0   :CWLS LOG ASCII STANDARD - VERSION 2.0
WRAP.          NO    :ONE LINE PER DEPTH STEP
PROD.  Schlumberger   :LAS Producer
PROG.  DLIS to ASCII 19C2-270                          :LAS Program name and version
CREA.        2014/02/23 09:08                          :LAS Creation date {YYYY/MM/DD hh:mm}
DLIS_CREA.  2014-Feb-23 08:51                          :DLIS Creation date and time {YYYY-MMM-DD hh:mm}
SOURCE.     1AA063409108W400_FMI_SONIC_MAIN.dlis       :DLIS File Name
FILE-ID.     ConPr_R2L3Up_S008_FBST_DSLT_HGNS          :File Identification Number
#--------------------------------------------------
~WELL INFORMATION 
#MNEM.UNIT      DATA             DESCRIPTION
#---- ------ --------------   -----------------------------
STRT.M      54.71160        :START DEPTH
STOP.M      257.70840       :STOP DEPTH
STEP.M       0.15240        :STEP
NULL .          -999.25      :NULL VALUE
COMP.        SUNCOR ENERGY INC.                       :COMPANY
WELL.        SUNCOR LEWIS 6-34-91-8                   :WELL
FLD  .        LEWIS                                    :FIELD
LOC.        6-34-91-8W4                              :LOCATION
PROV .        ALBERTA                                  :PROVINCE
UWI.        1AA063409108W400                         :UNIQUE WELL ID
LIC  .        0464072                                  :LICENSE NUMBER
CTRY .        CA                                       :COUNTRY (WWW code)
DATE.        23-Feb-2014                              :LOG DATE {DD-MMM-YYYY}
SRVC .        Schlumberger                             :SERVICE COMPANY
LATI .DEG     56.934500 degrees                        :LATITUDE
LONG .DEG     -111.20540 degrees                       :LONGITUDE
GDAT .                                                 :GeoDetic Datum
SECT .        06-34                                    :Section
RANG .        08W4                                     :Range
TOWN .        091                                      :Township
#-----------------------------------------------------------------------------
~CURVE INFORMATION 
#MNEM.UNIT   API CODE                                  DESCRIPTION
#---- -----  --------                                  -----------------------
 DEPT.M         00 001 00 00             :Depth Index - Measured Depth
   BS.MM        61 280 07 00             :BIT SIZE {F14.5}
   C1.MM        42 280 06 00             :CALIPER 1 {F14.5}
   C2.MM        42 280 05 00             :CALIPER 2 {F14.5}
DEPTH.M         00 001 00 00             :DEPTH INDEX {F14.5}
DEVIM.DEG       00 630 00 00             :MEMORIZED DEVIATION {F14.5}
   DT.US/M      60 520 32 00             :DELTA-T (ALSO CALLED SLOWNESS OR INTERVAL TRANSIT TIME) {F14.5}
   EI.MA        00 000 00 00             :EMEX CURRENT {F14.5}
   EV.V         00 000 00 00             :EMEX VOLTAGE {F14.5}
 FBCR.OHMS      00 000 00 00             :CORRELATION RESISTANCE {F14.5}
   GR.GAPI      42 310 01 00             :GAMMA RAY {F14.5}
 HAZI.DEG       00 620 00 00             :HOLE AZIMUTH RELATIVE TO TRUE NORTH {F14.5}
HAZIM.DEG       00 620 00 00             :HOLE AZIMUTH RELATIVE TO TRUE NORTH {F14.5}
 P1AZ.DEG       00 630 00 00             :PAD 1 AZIMUTH IN HORIZONTAL PLANE (0 = TRUE NORTH) {F14.5}
P1NO_FBST.DEG   00 000 00 00             :PAD 1 AZIMUTH IN PLANE ORTHOGONAL TO TOOL AXIS (0 = TRUE NORTH), MEMORIZED TO FBST {F14.5}
   RB.DEG       00 631 00 00             :RELATIVE BEARING {F14.5}
 SDEV.DEG       00 000 00 00             :SONDE DEVIATION {F14.5}
 TENS.N         61 280 10 00             :CABLE TENSION {F14.5}
  TT1.US        60 520 32 01             :TRANSIT TIME 1 {F14.5}
  TT2.US        60 520 32 02             :TRANSIT TIME 2 {F14.5}
  TT3.US        60 520 32 03             :TRANSIT TIME 3 {F14.5}
  TT4.US        60 520 32 04             :TRANSIT TIME 4 {F14.5}
~PARAMETER INFORMATION 
#MNEM.UNIT    VALUE                      DESCRIPTION
#---- -----   --------------------       ------------------------
 CSGD.M       72.80000                   :Casing Bottom of Driller
 CSGL.M       73.20000                   :Logger Casing Shoe Depth
 CSGS.MM      177.80000                  :Current Casing Size
 CSGW.KG/M    25.30000                   :Casing Weight
 MUDD.K/M3    1090.00000                 :Drilling Fluid Density
  DFL.C3      6.00000                    :Drilling Fluid Loss
   PH.        10.00000                   :Drilling Fluid pH
  MUD.        Polymer                    :Drilling Fluid Type
 MUDV.S       108.00000                  :Drilling Fluid Viscosity
   GL.M       445.00000                  :Elevation of Ground Level
 EREF.M       449.00000                  :Elevation of Kelly Bushing
  ENG.        NICK POLLEY                :Engineer s Name
 DREF.        KB                         :Logging Measured From (Name of Logging Elevation Reference)
 BASE.        WINTER PROJECT             :LOGGING UNIT LOCATION
 FACT.        CP4P-00020                 :Service Order Number
  LIC.        0464072                    :API Well Number
 PROV.        ALBERTA                    :County or Parish
 UNIT.        3125                       :Logging Unit Number
 RMCT.DEGC    8.73000                    :Mudcake Sample Temperature
 RMFT.DEGC    8.73000                    :Mud Filtrate Sample Temperature
 TMAX.DEGC    12.28000                   :Maximum Recorded Temperature
 MUDS.        Flowline                   :Mud Sample Source
  RMT.DEGC    8.73000                    :Mud Sample Temperature
RANGE.        08W4                       :Range
  RMC.OHMM    1.18000                    :Resistivity of Mud Cake Sample
  RMF.OHMM    0.59200                    :Resistivity of Mud Filtrate Sample
   RM.OHMM    0.78900                    :Resistivity of Mud Sample
SECTION.      06-34                      :Section
 TIMC.        01 55 00                   :Time Circulation Stopped
 TIML.        07 55 00                   :Time Logger At Bottom
TOWNSHIP.     091                        :Township
  WIT.        JONATHAN FELL              :Witness s Name
  APD.M       4.00000                    :Elevation of Depth Reference (LMF) Above Permanent Datum
 APIN.        0464072                    :API Well Number
  BHT.DEGC    12.28000                   :Bottom Hole Temperature
  BLI.M       256.00000                  :Bottom Log Interval
   BS.MM      156.00000                  :Bit Size
   CN.        SUNCOR ENERGY INC.         :Company Name
 COUN.        ALBERTA                    :County or Parish
 LDAT.        23-Feb-2014                :Tools Above Rotary Table Date
  DCS.        23-Feb-2014                :Date Circulation Stopped
  DFL.C3      6.00000                    :Drilling Fluid Loss
 DLAB.        23-Feb-2014                :Date Logger At Bottom
  DMF.        KB                         :Drilling Measured From (Name of Drilling Elevation Reference)
  EDF.M       448.70001                  :Elevation of Drill Floor
  EGL.M       445.00000                  :Elevation of Ground Level
  EKB.M       449.00000                  :Elevation of Kelly Bushing
   FD.K/M3    1000.00000                 :Fluid Density
   FL.        6-34-91-8W4               :FIELD LOCATION
  FL1.        1AA063409108W400           :Field Location, Line 1
  FL2.                                   :Field Location, Line 2
   FN.        LEWIS                      :Field Name
 HID1.                                   :Header Identifier 1
 HID2.                                   :Header Identifier 2
 HIDE.        LEWIS                      :Header Identifier
 LATI.        56.934500 degrees          :Latitude
  LMF.        KB                         :Logging Measured From (Name of Logging Elevation Reference)
 LONG.        -111.20540 degrees         :Longitude
 MATR.        SAND                       :Rock Matrix for Neutron Porosity Corrections
 MCSS.        Calculated                 :Mudcake Sample Source
 MDEC.DEG     14.38033                   :Magnetic Field Declination
 MDEN.K/M3    2650.00000                 :Matrix Density for Density Porosity
 MRT1.DEGC    12.28000                   :Maximum Recorded Temperature 1
 MRT2.DEGC    -999.25000                 :Maximum Recorded Temperature 2
  NMT.        NOBARITE                   :HRDD Mud Type for Nuclear Devices
  OS1.                                   :Other Services Line 1
  OS2.                                   :Other Services Line 2
  OS3.                                   :Other Services Line 3
  OS4.                                   :Other Services Line 4
  OS5.                                   :Other Services Line 5
 PDAT.        GL                         :Permanent Datum
   R1.        THANK YOU FOR CHOOSING SCHLUMBERGER  :Remarks Line 1
   R2.        ALL TOOLS RAN AS PER TOOL SKETCH AND ALL PRESENTATIONS AS PER CLIENT REQUEST  :Remarks Line 2
   R3.        INDUCTION LOG – DESCENT #1 :Remarks Line 3
   R4.        NEUTRON / DENSITY LOG – DESCENT #1  :Remarks Line 4
  RMB.OHMM    0.70618                    :Resistivity of Mud at Bottom Hole Temperature
 RMFB.OHMM    0.52986                    :Resistivity of Mud Filtrate At Bottom Hole Temperature
  RUN.        ONE/2                      :Run Number
  SON.        CP4P-00020                 :SERVICE ORDER NUMBER
  TDD.M       256.00000                  :Driller Total Depth
  TDL.M       256.00000                  :Logger Total Depth
  TLI.M       75.00000                   :Top Log Interval
 UWID.        1AA063409108W400           :Unique Well Identifier
   WN.        SUNCOR LEWIS 6-34-91-8     :Well Name
  EPD.C3      445.000000                 :Elevation of Permanent Datum above Mean Sea Level
#-----------------------------------------------------------------------------
#
#      DEPT          BS            C1            C2            DEPTH         DEVIM         DT            EI            EV            FBCR          GR            HAZI          HAZIM         P1AZ        P1NO_FBST       RB            SDEV          TENS          TT1           TT2           TT3           TT4
#
#-----------------------------------------------------------------------------

~A       DEPT           BS           C1           C2        DEPTH        DEVIM           DT           EI           EV         FBCR           GR         HAZI        HAZIM         P1AZ    P1NO_FBST           RB         SDEV         TENS          TT1          TT2          TT3          TT4
# ...
    106.22280     159.00000     165.85799     166.95810     106.22368       0.50062     536.00305    3534.38965       5.75073   54965.42578     108.29769     230.69391     224.74780     212.67888     208.04877     341.98520       0.44424    4151.37695     954.69983     632.20465     955.09607     632.18866
    106.37520     159.00000     165.70062     163.09743     106.37528       0.49779     537.26514    3532.68555       5.69225   52401.71484     110.66791     230.32880     224.66112     210.67166     206.05540     340.34268       0.44384    4369.74219     959.68939     635.66638     958.65912     633.88434
    106.52760     159.00000     166.01534     163.74088     106.52679       0.49572     539.62000    3534.38965       5.63377   48324.48438     113.05560     229.65479     224.41617     208.71935     203.06168     339.06525       0.44367    4272.07227     963.84583     636.72614     962.53046     634.20886
    106.68000     159.00000     166.01534     164.70602     106.68257       0.49341     541.50922    3565.06470       5.57528   48406.92188     115.21018     228.87810     224.05087     207.30115     199.79283     338.42285       0.44363    4545.48926     968.32104     635.78552     963.47943     635.01257
    106.83240     159.00000     165.85799     165.34949     106.83230       0.49210     541.38757    3563.36035       5.55579   47660.16406     117.22072     227.95805     223.61578     204.45544     198.77654     336.49695       0.44425    4723.37598     965.33978     636.48206     963.60577     634.80750
    106.98480     159.00000     165.70062     165.34949     106.98212       0.49127     541.53479    3532.68555       5.51680   51794.93359     116.14373     227.21515     223.37666     201.40884     198.23820     334.19455       0.44489    4404.33252     961.54254     637.22479     959.75024     634.36194
    107.13720     159.00000     165.70062     165.67120     107.13774       0.48966     542.49805    3571.88135       5.51680   52994.71484     114.04311     226.54460     222.72975     198.98154     198.29340     332.43750       0.44546    4351.25049     958.03418     637.31604     957.08820     635.39227
    107.28960     159.00000     165.70062     165.02777     107.29099       0.48877     539.95062    3539.50244       5.53630   48617.83203     112.62502     226.09349     222.08340     198.62234     196.61031     332.53052       0.44561    4601.24023     952.77789     636.83258     954.29321     630.11121
    107.44200     159.00000     167.54820     165.67120     107.44237       0.48823     539.19055    3573.58545       5.59478   48260.98047     110.30890     225.82452     221.49663     198.17104     194.29527     332.34961       0.44658    4278.29932     948.75171     633.80450     951.02972     627.77942
    107.59440     159.00000     165.85799     165.99292     107.59426       0.48780     529.53339    3568.47266       5.63377   58911.55469     114.29461     225.75844     221.09200     197.63881     191.65678     331.87949       0.44717    4395.13965     949.82764     631.12793     943.44360     626.05682
    107.74680     159.00000     166.01534     162.45399     107.74921       0.48679     521.50543    3525.86890       5.69225   54157.56250     110.18305     225.79460     220.77899     195.68594     188.38232     329.89496       0.44926    4375.27100     942.37213     628.39587     932.60449     621.99567
    107.89920     159.00000     163.39757     162.45399     107.89874       0.48564     513.04114    3524.16479       5.78972   70552.45313     114.83333     225.74416     220.76755     192.95932     187.42464     327.21509       0.45141    4305.24316     933.90692     622.11737     923.79535     614.40424
    108.05160     159.00000     163.55794     161.81055     108.04825       0.48449     510.50415    3491.78589       5.90668   63458.62109     109.71629     225.60855     221.03310     189.84344     186.22850     324.23337       0.45574    4412.63574     927.73895     611.92358     917.19684     602.58722
    108.20400     159.00000     163.23721     161.81055     108.20319       0.48281     502.40805    3491.78589       6.02365   77322.82031     110.72182     225.36610     221.58748     187.73647     184.28435     322.37183       0.46103    4342.05762     918.29517     604.49298     905.12695     594.43750
    108.35640     159.00000     166.01534     165.02777     108.35796       0.48136     496.24701    3495.19434       6.08213   80321.08594     107.31049     225.06516     222.36330     187.04640     182.42877     321.98349       0.46815    4538.96533     906.77136     600.72894     896.27966     592.71912
    108.50880     159.00000     163.23721     163.09743     108.50906       0.47982     491.22388    3461.11157       6.17960   71457.71094     111.20679     224.67038     223.33688     185.11063     180.18539     320.44138       0.47528    4228.35254     898.59802     596.55847     891.25513     586.02850
    108.66120     159.00000     166.01534     160.52365     108.66157       0.47940     487.98053    3459.40698       6.27707   74347.98438     110.57822     224.37016     224.39082     183.56670     177.40538     319.19611       0.48311    4352.14014     892.51697     589.43054     886.25098     582.58020
    108.81360     159.00000     163.55794     160.52365     108.81441       0.47847     486.35599    3461.11157       6.35504   76208.77344     112.19387     224.16145     225.46507     181.25070     176.74147     317.09012       0.49021    4153.05029     887.07648     586.31042     881.50409     582.70178
    108.96600     159.00000     156.80011     155.37610     108.96671       0.47882     484.78400    3425.32422       6.41353   98559.96875     104.77878     223.99432     226.47952     180.18539     173.55768     316.19412       0.49366    4401.66357     880.92188     584.58807     877.72760     580.76147
    109.11840     159.00000     156.46281     155.37610     109.11830       0.47964     480.60690    3425.32422       6.43302   90364.46875     102.18459     224.03616     227.35722     177.40540     169.96754     313.37097       0.49928    4228.03467     878.60986     582.15839     876.04230     579.04785
    109.27080     159.00000     156.18576     154.41092     109.26846       0.48068     478.73755    3457.70288       6.49150   91115.16406     100.56873     224.17079     228.08490     176.74149     166.68134     312.57129       0.50340    4391.58105     877.82141     580.61523     876.72687     577.36591
    109.42320     159.00000     155.57140     155.37610     109.42408       0.48162     479.19385    3387.83252       6.49150   94474.89063     105.47015     224.41182     228.63225     173.55772     164.26152     309.14752       0.50520    4566.24805     878.41107     579.46533     873.27032     577.26160
    109.57560     159.00000     156.80011     156.66299     109.57459       0.48301     479.70630    3421.91577       6.49150   73964.29688     107.22061     224.65823     229.02611     169.96762     162.86392     305.31049       0.50569    4460.61328     873.72620     581.18890     867.18188     578.69995
    109.72800     159.00000     158.02879     157.94987     109.72533       0.48441     481.63373    3425.32422       6.45251   87546.31250     110.12936     224.88512     229.27881     166.68146     160.69443     301.79700       0.50384    4648.98486     865.86530     581.52637     859.32141     576.45862
    109.88040     159.00000     156.63145     157.94987     109.88229       0.48518     482.89688    3432.14063       6.49150   84329.01563     104.30343     224.95996     229.54448     164.26169     158.72539     299.30203       0.50173    4503.97266     862.04248     577.76251     856.09235     572.85889
    110.03280     159.00000     156.80011     157.94987     110.03397       0.48571     477.30368    3428.73267       6.51100   69809.64063     109.54565     224.92300     229.77240     161.74983     158.47668     296.82938       0.50013    4228.98779     857.35522     573.33252     851.38385     566.84717
