~VERSION INFORMATION 
VERS.          2.0   :CWLS LOG ASCII STANDARD - VERSION 2.0
WRAP.          NO    :ONE LINE PER DEPTH STEP
PROD.  Schlumberger   :LAS Producer
PROG.  DLIS to ASCII 19C2-270                          :LAS Program name and version
CREA.        2014/02/23 09:08                          :LAS Creation date {YYYY/MM/DD hh:mm}
DLIS_CREA.  2014-Feb-23 08:51                          :DLIS Creation date and time {YYYY-MMM-DD hh:mm}
SOURCE.     1AA063409108W400_FMI_SONIC_MAIN.dlis       :DLIS File Name
FILE-ID.     ConPr_R2L3Up_S008_FBST_DSLT_HGNS          :File Identification Number
#--------------------------------------------------
~WELL INFORMATION 
#MNEM.UNIT      DATA             DESCRIPTION
#---- ------ --------------   -----------------------------
STRT.M      54.71160        :START DEPTH
STOP.M      257.70840       :STOP DEPTH
STEP.M       0.15240        :STEP
NULL .          -999.25      :NULL VALUE
COMP.        SUNCOR ENERGY INC.                       :COMPANY
WELL.        SUNCOR LEWIS 6-34-91-8                   :WELL
FLD  .        LEWIS                                    :FIELD
LOC.        6-34-91-8W4                              :LOCATION
PROV .        ALBERTA                                  :PROVINCE
UWI.        1AA063409108W400                         :UNIQUE WELL ID
LIC  .        0464072                                  :LICENSE NUMBER
CTRY .        CA                                       :COUNTRY (WWW code)
DATE.        23-Feb-2014                              :LOG DATE {DD-MMM-YYYY}
SRVC .        Schlumberger                             :SERVICE COMPANY
LATI .DEG     56.934500 degrees                        :LATITUDE
LONG .DEG     -111.20540 degrees                       :LONGITUDE
GDAT .                                                 :GeoDetic Datum
SECT .        06-34                                    :Section
RANG .        08W4                                     :Range
TOWN .        091                                      :Township
#-----------------------------------------------------------------------------
~CURVE INFORMATION 
#MNEM.UNIT   API CODE                                  DESCRIPTION
#---- -----  --------                                  -----------------------
 DEPT.M         00 001 00 00             :Depth Index - Measured Depth
   BS.MM        61 280 07 00             :BIT SIZE {F14.5}
   C1.MM        42 280 06 00             :CALIPER 1 {F14.5}
   C2.MM        42 280 05 00             :CALIPER 2 {F14.5}
DEPTH.M         00 001 00 00             :DEPTH INDEX {F14.5}
DEVIM.DEG       00 630 00 00             :MEMORIZED DEVIATION {F14.5}
   DT.US/M      60 520 32 00             :DELTA-T (ALSO CALLED SLOWNESS OR INTERVAL TRANSIT TIME) {F14.5}
   EI.MA        00 000 00 00             :EMEX CURRENT {F14.5}
   EV.V         00 000 00 00             :EMEX VOLTAGE {F14.5}
 FBCR.OHMS      00 000 00 00             :CORRELATION RESISTANCE {F14.5}
   GR.GAPI      42 310 01 00             :GAMMA RAY {F14.5}
 HAZI.DEG       00 620 00 00             :HOLE AZIMUTH RELATIVE TO TRUE NORTH {F14.5}
HAZIM.DEG       00 620 00 00             :HOLE AZIMUTH RELATIVE TO TRUE NORTH {F14.5}
 P1AZ.DEG       00 630 00 00             :PAD 1 AZIMUTH IN HORIZONTAL PLANE (0 = TRUE NORTH) {F14.5}
P1NO_FBST.DEG   00 000 00 00             :PAD 1 AZIMUTH IN PLANE ORTHOGONAL TO TOOL AXIS (0 = TRUE NORTH), MEMORIZED TO FBST {F14.5}
   RB.DEG       00 631 00 00             :RELATIVE BEARING {F14.5}
 SDEV.DEG       00 000 00 00             :SONDE DEVIATION {F14.5}
 TENS.N         61 280 10 00             :CABLE TENSION {F14.5}
  TT1.US        60 520 32 01             :TRANSIT TIME 1 {F14.5}
  TT2.US        60 520 32 02             :TRANSIT TIME 2 {F14.5}
  TT3.US        60 520 32 03             :TRANSIT TIME 3 {F14.5}
  TT4.US        60 520 32 04             :TRANSIT TIME 4 {F14.5}
~PARAMETER INFORMATION 
#MNEM.UNIT    VALUE                      DESCRIPTION
#---- -----   --------------------       ------------------------
 CSGD.M       72.80000                   :Casing Bottom of Driller
 CSGL.M       73.20000                   :Logger Casing Shoe Depth
 CSGS.MM      177.80000                  :Current Casing Size
 CSGW.KG/M    25.30000                   :Casing Weight
 MUDD.K/M3    1090.00000                 :Drilling Fluid Density
  DFL.C3      6.00000                    :Drilling Fluid Loss
   PH.        10.00000                   :Drilling Fluid pH
  MUD.        Polymer                    :Drilling Fluid Type
 MUDV.S       108.00000                  :Drilling Fluid Viscosity
   GL.M       445.00000                  :Elevation of Ground Level
 EREF.M       449.00000                  :Elevation of Kelly Bushing
  ENG.        NICK POLLEY                :Engineer s Name
 DREF.        KB                         :Logging Measured From (Name of Logging Elevation Reference)
 BASE.        WINTER PROJECT             :LOGGING UNIT LOCATION
 FACT.        CP4P-00020                 :Service Order Number
  LIC.        0464072                    :API Well Number
 PROV.        ALBERTA                    :County or Parish
 UNIT.        3125                       :Logging Unit Number
 RMCT.DEGC    8.73000                    :Mudcake Sample Temperature
 RMFT.DEGC    8.73000                    :Mud Filtrate Sample Temperature
 TMAX.DEGC    12.28000                   :Maximum Recorded Temperature
 MUDS.        Flowline                   :Mud Sample Source
  RMT.DEGC    8.73000                    :Mud Sample Temperature
RANGE.        08W4                       :Range
  RMC.OHMM    1.18000                    :Resistivity of Mud Cake Sample
  RMF.OHMM    0.59200                    :Resistivity of Mud Filtrate Sample
   RM.OHMM    0.78900                    :Resistivity of Mud Sample
SECTION.      06-34                      :Section
 TIMC.        01 55 00                   :Time Circulation Stopped
 TIML.        07 55 00                   :Time Logger At Bottom
TOWNSHIP.     091                        :Township
  WIT.        JONATHAN FELL              :Witness s Name
  APD.M       4.00000                    :Elevation of Depth Reference (LMF) Above Permanent Datum
 APIN.        0464072                    :API Well Number
  BHT.DEGC    12.28000                   :Bottom Hole Temperature
  BLI.M       256.00000                  :Bottom Log Interval
   BS.MM      156.00000                  :Bit Size
   CN.        SUNCOR ENERGY INC.         :Company Name
 COUN.        ALBERTA                    :County or Parish
 LDAT.        23-Feb-2014                :Tools Above Rotary Table Date
  DCS.        23-Feb-2014                :Date Circulation Stopped
  DFL.C3      6.00000                    :Drilling Fluid Loss
 DLAB.        23-Feb-2014                :Date Logger At Bottom
  DMF.        KB                         :Drilling Measured From (Name of Drilling Elevation Reference)
  EDF.M       448.70001                  :Elevation of Drill Floor
  EGL.M       445.00000                  :Elevation of Ground Level
  EKB.M       449.00000                  :Elevation of Kelly Bushing
   FD.K/M3    1000.00000                 :Fluid Density
   FL.        6-34-91-8W4               :FIELD LOCATION
  FL1.        1AA063409108W400           :Field Location, Line 1
  FL2.                                   :Field Location, Line 2
   FN.        LEWIS                      :Field Name
 HID1.                                   :Header Identifier 1
 HID2.                                   :Header Identifier 2
 HIDE.        LEWIS                      :Header Identifier
 LATI.        56.934500 degrees          :Latitude
  LMF.        KB                         :Logging Measured From (Name of Logging Elevation Reference)
 LONG.        -111.20540 degrees         :Longitude
 MATR.        SAND                       :Rock Matrix for Neutron Porosity Corrections
 MCSS.        Calculated                 :Mudcake Sample Source
 MDEC.DEG     14.38033                   :Magnetic Field Declination
 MDEN.K/M3    2650.00000                 :Matrix Density for Density Porosity
 MRT1.DEGC    12.28000                   :Maximum Recorded Temperature 1
 MRT2.DEGC    -999.25000                 :Maximum Recorded Temperature 2
  NMT.        NOBARITE                   :HRDD Mud Type for Nuclear Devices
  OS1.                                   :Other Services Line 1
  OS2.                                   :Other Services Line 2
  OS3.                                   :Other Services Line 3
  OS4.                                   :Other Services Line 4
  OS5.                                   :Other Services Line 5
 PDAT.        GL                         :Permanent Datum
   R1.        THANK YOU FOR CHOOSING SCHLUMBERGER  :Remarks Line 1
   R2.        ALL TOOLS RAN AS PER TOOL SKETCH AND ALL PRESENTATIONS AS PER CLIENT REQUEST  :Remarks Line 2
   R3.        INDUCTION LOG – DESCENT #1 :Remarks Line 3
   R4.        NEUTRON / DENSITY LOG – DESCENT #1  :Remarks Line 4
  RMB.OHMM    0.70618                    :Resistivity of Mud at Bottom Hole Temperature
 RMFB.OHMM    0.52986                    :Resistivity of Mud Filtrate At Bottom Hole Temperature
  RUN.        ONE/2                      :Run Number
  SON.        CP4P-00020                 :SERVICE ORDER NUMBER
  TDD.M       256.00000                  :Driller Total Depth
  TDL.M       256.00000                  :Logger Total Depth
  TLI.M       75.00000                   :Top Log Interval
 UWID.        1AA063409108W400           :Unique Well Identifier
   WN.        SUNCOR LEWIS 6-34-91-8     :Well Name
  EPD.C3      445.000000                 :Elevation of Permanent Datum above Mean Sea Level
#-----------------------------------------------------------------------------
#
#      DEPT          BS            C1            C2            DEPTH         DEVIM         DT            EI            EV            FBCR          GR            HAZI          HAZIM         P1AZ        P1NO_FBST       RB            SDEV          TENS          TT1           TT2           TT3           TT4
#
#-----------------------------------------------------------------------------

~A       DEPT           BS           C1           C2        DEPTH        DEVIM           DT           EI           EV         FBCR           GR         HAZI        HAZIM         P1AZ    P1NO_FBST           RB         SDEV         TENS          TT1          TT2          TT3          TT4
     54.71160     250.99998     102.31979     100.68327      73.00416    -999.25000     278.41406      -8.53821      -0.01949    -999.25000      58.33770       7.55938       7.55938     329.35168     329.35226     321.79321       0.43980    3357.88403     493.31949     323.36926     488.88559     322.08215
     54.86400     250.99998     102.31979     100.68327      73.00416    -999.25000     278.41406      -8.53821      -0.01949    -999.25000      58.33770       7.55938       7.55938     329.35168     329.35226     321.79321       0.43980    3357.88403     493.31949     323.36926     488.88559     322.08215
     55.01640     250.99998     102.31979     100.68327      73.00416    -999.25000     278.41406      -8.53821      -0.01949    -999.25000      58.33770       7.55938       7.55938     329.35168     329.35226     321.79321       0.43980    3357.88403     493.31949     323.36926     488.88559     322.08215
     55.16880     250.99998     102.31979     100.68327      73.00416    -999.25000     278.41406      -8.53821      -0.01949    -999.25000      58.33770       7.55938       7.55938     329.35168     329.35226     321.79321       0.43980    3357.88403     493.31949     323.36926     488.88559     322.08215
     55.32120     250.99998     102.31979     100.68327      73.00416    -999.25000     278.41406      -8.53821      -0.01949    -999.25000      58.33770       7.55938       7.55938     329.35168     329.35226     321.79321       0.43980    3357.88403     493.31949     323.36926     488.88559     322.08215
     55.47360     250.99998     102.31979     100.68327      73.00416    -999.25000     278.41406      -8.53821      -0.01949    -999.25000      58.33770       7.55938       7.55938     329.35168     329.35226     321.79321       0.43980    3357.88403     493.31949     323.36926     488.88559     322.08215
     55.62600     250.99998     102.31979     100.68327      73.00416    -999.25000     278.41406      -8.53821      -0.01949    -999.25000      58.33770       7.55938       7.55938     329.35168     329.35226     321.79321       0.43980    3357.88403     493.31949     323.36926     488.88559     322.08215
     55.77840     250.99998     102.31979     100.68327      73.00416    -999.25000     278.41406      -8.53821      -0.01949    -999.25000      58.33770       7.55938       7.55938     329.35168     329.35226     321.79321       0.43980    3357.88403     493.31949     323.36926     488.88559     322.08215
     55.93080     250.99998     102.31979     100.68327      73.00416    -999.25000     278.41406      -8.53821      -0.01949    -999.25000      58.33770       7.55938       7.55938     329.35168     329.35226     321.79321       0.43980    3357.88403     493.31949     323.36926     488.88559     322.08215
     56.08320     250.99998     102.31979     100.68327      73.00416    -999.25000     278.41406      -8.53821      -0.01949    -999.25000      58.33770       7.55938       7.55938     329.35168     329.35226     321.79321       0.43980    3357.88403     493.31949     323.36926     488.88559     322.08215
     56.23560     250.99998     102.31979     100.68327      73.00416    -999.25000     278.41406      -8.53821      -0.01949    -999.25000      58.33770       7.55938       7.55938     329.35168     329.35226     321.79321       0.43980    3357.88403     493.31949     323.36926     488.88559     322.08215
     56.38800     250.99998     102.31979     100.68327      73.00416    -999.25000     278.41406      -8.53821      -0.01949    -999.25000      58.33770       7.55938       7.55938     329.35168     329.35226     321.79321       0.43980    3357.88403     493.31949     323.36926     488.88559     322.08215
     56.54040     250.99998     102.31979     100.68327      73.00416    -999.25000     278.41406      -8.53821      -0.01949    -999.25000      58.33770       7.55938       7.55938     329.35168     329.35226     321.79321       0.43980    3357.88403     493.31949     323.36926     488.88559     322.08215
     56.69280     250.99998     102.31979     100.68327      73.00416    -999.25000     278.41406      -8.53821      -0.01949    -999.25000      58.33770       7.55938       7.55938     329.35168     329.35226     321.79321       0.43980    3357.88403     493.31949     323.36926     488.88559     322.08215
     56.84520     250.99998     102.31979     100.68327      73.00416    -999.25000     278.41406      -8.53821      -0.01949    -999.25000      59.90602       7.55938       7.55938     329.35168     329.35226     321.79321       0.43980    3357.88403     493.31949     323.36926     488.88559     322.08215
     56.99760     250.99998     102.31979     100.68327      73.00416    -999.25000     278.41406      -8.53821      -0.01949    -999.25000      61.49643       7.55938       7.55938     329.35168     329.35226     321.79321       0.43980    3357.88403     493.31949     323.36926     488.88559     322.08215
     57.15000     250.99998     102.31979     100.68327      73.00416    -999.25000     278.41406      -8.53821      -0.01949    -999.25000      63.87166       7.55938       7.55938     329.35168     329.35226     321.79321       0.43980    3357.88403     493.31949     323.36926     488.88559     322.08215
     57.30240     250.99998     102.31979     100.68327      73.00416    -999.25000     278.41406      -8.53821      -0.01949    -999.25000      66.52955       7.55938       7.55938     329.35168     329.35226     321.79321       0.43980    3357.88403     493.31949     323.36926     488.88559     322.08215
     57.45480     250.99998     102.31979     100.68327      73.00416    -999.25000     278.41406      -8.53821      -0.01949    -999.25000      69.11211       7.55938       7.55938     329.35168     329.35226     321.79321       0.43980    3357.88403     493.31949     323.36926     488.88559     322.08215
     57.60720     250.99998     102.31979     100.68327      73.00416    -999.25000     278.41406      -8.53821      -0.01949    -999.25000      72.79906       7.55938       7.55938     329.35168     329.35226     321.79321       0.43980    3357.88403     493.31949     323.36926     488.88559     322.08215
     57.75960     250.99998     102.31979     100.68327      73.00416    -999.25000     278.41406      -8.53821      -0.01949    -999.25000      74.38901       7.55938       7.55938     329.35168     329.35226     321.79321       0.43980    3357.88403     493.31949     323.36926     488.88559     322.08215
     57.91200     250.99998     102.31979     100.68327      73.00416    -999.25000     278.41406      -8.53821      -0.01949    -999.25000      75.64211       7.55938       7.55938     329.35168     329.35226     321.79321       0.43980    3357.88403     493.31949     323.36926     488.88559     322.08215
     58.06440     250.99998     102.31979     100.68327      73.00416    -999.25000     278.41406      -8.53821      -0.01949    -999.25000      75.36502       7.55938       7.55938     329.35168     329.35226     321.79321       0.43980    3357.88403     493.31949     323.36926     488.88559     322.08215
     58.21680     250.99998     102.31979     100.68327      73.00416    -999.25000     278.41406      -8.53821      -0.01949    -999.25000      73.81145       7.55938       7.55938     329.35168     329.35226     321.79321       0.43980    3357.88403     493.31949     323.36926     488.88559     322.08215
     58.36920     250.99998     102.31979     100.68327      73.00416    -999.25000     278.41406      -8.53821      -0.01949    -999.25000      72.50397       7.55938       7.55938     329.35168     329.35226     321.79321       0.43980    3357.88403     493.31949     323.36926     488.88559     322.08215
     58.52160     250.99998     102.31979     100.68327      73.00416    -999.25000     278.41406      -8.53821      -0.01949    -999.25000      69.41432       7.55938       7.55938     329.35168     329.35226     321.79321       0.43980    3357.88403     493.31949     323.36926     488.88559     322.08215
