~Version Information
 VERS.                2.00:   CWLS log ASCII Standard -VERSION 2.00
 WRAP.                  NO:   One line per frame      
~Well Information Block
#MNEM.UNIT                   Data                        Description
#----.----   -----------------------------------------   -------------------------------
 STRT.M                                       27.0000 : Starting Depth
 STOP.M                                      188.0000 : Ending Depth
 STEP.M                                        0.1000 : Level Spacing
 NULL.                                      -999.2500 : Absent Value
 COMP.       SUNCOR ENERGY INC                        : Company
 WELL.       SUNCOR LEWIS 7-22-92-8                   : Well
 FLD .       UNDEFINED                                : Field
 LOC .       LSD 07-22-092-08W4                       : Location
 PROV.       ALBERTA                                  : Province
 CTRY.       CA                                       : Country
 SRVC.       Baker Hughes                             : Service Company
 DATE.       16-JAN-2016                              : Log Date
 UWI .       1AA072209208W400                         : Unique Well ID
 LIC .       0477502                                  : License Number
~Curve Information Block
#MNEM    .UNIT        API Codes     Curve Description
#--------.--------   LG--CV-CL--M   -------------------------------
 DEPT    .M           0   1  0  1 : Depth
 AZSTQH  .deg        99 995 99  1 : Azimuth of reference pad for STAR
 BKRGQH  .dim        99 995 99  1 : Bucker driver value
 DEVSTQH .deg        99 995 99  1 : Deviation for STAR
 DIP1QH  .raw        75 610  1  1 : Pad 1 average data of buttons 11, 12, 13, 14
 DIP2QH  .raw        75 610  1  1 : Pad 2 average data of buttons 11, 12, 13, 14
 DIP3QH  .raw        75 610  1  1 : Pad 3 average data of buttons 11, 12, 13, 14
 DIP4QH  .raw        75 610  1  1 : Pad 4 average data of buttons 11, 12, 13, 14
 DIP5QH  .raw        75 610  1  1 : Pad 5 average data of buttons 11, 12, 13, 14
 DIP6QH  .raw        75 610  1  1 : Pad 6 average data of buttons 11, 12, 13, 14
 GR      .gAPI       30 310  1  1 : Gamma ray
 PADFQH  .pct        94 995 99  1 : Pad force
 PADGQH  .dim        99 995 99  1 : Pad gain code
 RAD1QH  .mm         75 280 99  1 : Radius, tool axis to pad 1 face
 RAD2QH  .mm         75 280 99  1 : Radius, tool axis to pad 2 face
 RAD3QH  .mm         75 280 99  1 : Radius, tool axis to pad 3 face
 RAD4QH  .mm         75 280 99  1 : Radius, tool axis to pad 4 face
 RAD5QH  .mm         75 280 99  1 : Radius, tool axis to pad 5 face
 RAD6QH  .mm         75 280 99  1 : Radius, tool axis to pad 6 face
 RAZGSTQH.mG         99 995 99  1 : Raw Z-axis accelerometer shifted to STAR
 RBSTQH  .deg        99 995 99  1 : Relative bearing (relative to borehole high side) for STAR
 SPD     .m/min      99 636 99  1 : Speed
~Parameter Information Block
#MNEM.UNIT                     Value                    Description
#----.----   ----------------------------------------   -------------------------------
 HID1.       RESISTIVITY IMAGING LOG^T                : Header Identifer
 HID2.       GAMMA RAY LOG                            : Header Identifer
 FILE.       3953                                     : File Number
 CMT1.       UID                                      : Comment 1  
 CMT2.       1AA072209208W400                         : Comment 2  
 CMT3.       LICENSE                                  : Comment 3  
 CMT4.       0477502                                  : Comment 4  
 FL2 .       BH LOC. LSD  07                          : Field Location 2
 SECT.       22                                       : Section
 TOWN.       092                                      : Township
 RANG.       08W4                                     : Range
 OS1 .       ZDL-CN-GR-CAL                            : Other Services Line 1
 OS2 .       HDIL-GR-CAL, CVL                         : Other Services Line 2
 OS3 .       DAL-GR-CAL                               : Other Services Line 3
 OS4 .       COMPOSITE                                : Other Services Line 4
 PDAT.       G.L.                                     : Permanent Datum
 EPD .M      438.50                                   : Elevation Of Perm. Datum
 LMF .       K.B.                                     : Log Measured From
 APD .M      2.20                                     : Above Permanent Datum
 DMF .       KELLY BUSHING                            : Drilling Measured From
 EKB .M      440.70                                   : Elevation Of Kelly Bushing
 EGL .M      438.50                                   : Elevation Of Ground Level
 RUN .       1                                        : Run Number
 TRIP.       1                                        : Trip Number
 SON .       CA003953J                                : Service Order Number
 TDD .M      187.0                                    : Total Depth - Driller
 TDL .M      186.3                                    : Total Depth - Logger
 BLI .M      183.0                                    : Bottom Log Interval
 TLI .M      55.0                                     : Top Log Interval
 CSIZ.MM     177.8                                    : Casing Size
 CBDR.M      49.4                                     : Casing Bottom - Driller
 CBLO.M      49.4                                     : Casing Bottom - Logger
 BS  .MM     156.0                                    : Bit Size
 DFT .       WB (WATER BASE MUD)                      : Drilling Fluid Type
 DFD .G/L    1030.0                                   : Drilling Fluid Density
 DFV .S      79.0                                     : Drilling Fluid Viscosity
 DFPH.       7.0                                      : Drilling Fluid Ph
 DFL .ML     8.0                                      : Drilling Fluid Loss
 MSS .       F (FLOWLINE)                             : Mud Sample Source
 RMS .OHMM   1.2                                      : Resistivity Of Mud Sample
 MST .DEGC   25.0                                     : Mud Sample Temperature
 RMFS.OHMM   1.0                                      : Resistivity Of Mud Filtrate Sample
 MFST.DEGC   25.0                                     : Mud Filtrate Sample Temperature
 RMCS.OHMM   1.4                                      : Resistivity Of Mud Cake Sample
 MCST.DEGC   25.0                                     : Mud Cake Sample Temperature
 MFSS.       CALCULATED                               : Mud Filtrate Sample Source
 MCSS.       CALCULATED                               : Mud Cake Sample Source
 RMB .OHMM   2.0                                      : Mud Resistivity At Bht
 BHT .DEGC   7.0                                      : Bottom Hole Temperature
 TSC .       5.0 HOURS                                : Time Since Circulation
 MRT .DEGC   7.0                                      : Maximum Recorded Temperature
 LUN .       Z004250                                  : Logging Unit Number
 LUL .       LEDUC OH                                 : Logging Unit Location
 ENGI.       A.MALIK                                  : Engineer's Name
 WITN.       H.WILSON / P.ENE                         : Witness' Name
 TSTR.       /STAR/GR/                                : Title Service Mnemonic
 TSTG.       NA                                       : Title Service Mnemonic
 STUS.       FINAL                                    : Status
 LCNM.       BAKER ATLAS                              : Logging Company Name
 LCC .       150                                      : Logging Company Code
 OPMD.       OH.WIRE                                  : Operation Mode
 PANA.       A.MALIK                                  : Processing Analyst
 PCON.       BAKER ATLAS                              : Processing Contractor
 APIN.                                                : API Serial Number
 STAT.                                                : State Or Province
~Other information
LAT/LON  57.0175, -111.419                                                      
TIME STOPPED CIRCULATION  16-JAN-2016 0830AM                                    
STAR RUN WITH 0% PAD FORCE AND AUTOMATICALLY CONTROLLED GAINS                   
ANY STICK AND PULL AFFECTS LOG QUALITY                                          
RIG  ENCORE 402                                                                 
CREW  F.AJAGU, A.MALIK                                                          
#  Curve Data
~A  DEPT        AZSTQH      BKRGQH      DEVSTQH     DIP1QH      DIP2QH      DIP3QH      DIP4QH      DIP5QH      DIP6QH      GR          PADFQH      PADGQH      RAD1QH      RAD2QH      RAD3QH      RAD4QH      RAD5QH      RAD6QH      RAZGSTQH    RBSTQH      SPD       
# ...
     95.2000     20.5801      6.0000      0.2077    190.0000    168.0000    190.0000    167.0000    218.0000    129.0000     91.3868      1.2366      3.0000     78.8759     75.5118     77.1739     81.1025     86.5285     81.4260   1008.8755    216.5865      3.4771
     95.3000     19.7171      6.0000      0.2077    216.0000    172.0000    221.0000    200.0000    225.0000    123.0000     90.8311      1.2366      3.0000     78.8759     75.0072     77.3032     81.1025     87.2963     81.4260   1012.9667    216.5865      3.4761
     95.4000     19.9966      6.0000      0.2077    243.0000    195.0000    232.0000    235.0000    271.0000    111.0000     89.7061      1.2366      3.0000     78.8759     75.5118     77.1739     81.1025     87.1684     81.5514   1009.6937    216.5865      3.4627
     95.5000     18.9941      6.0000      0.2077    242.1339    199.1496    316.6850    239.4252    304.3543    183.1496     87.9185      1.2366      3.0000     78.8759     75.5118     76.7860     81.1025     86.5285     81.0496   1011.3301    216.5865      3.4332
     95.6000     18.4121      6.0000      0.2077    565.0000    484.0000    579.0000    482.0000    550.0000    372.0000     85.8090      1.2366      3.0000     79.0037     75.5118     76.7860     81.1025     87.2963     81.0496   1016.2395    216.5865      3.3886
     95.7000     18.6923      6.0000      0.2077    443.0000    456.0000    474.0000    529.0000    598.0000    226.0000     83.6434      1.2366      3.0000     78.7481     75.5118     77.6911     83.0256     87.2963     81.1751   1010.5120    216.5865      3.3390
     95.8000     18.2719      6.0000      0.2077    511.4646    449.7165    562.1811    521.0000    569.4645    477.6063     81.6279      1.2366      3.0000     78.6204     75.5118     78.5963     83.0256     87.1684     81.0496   1004.4042    216.5865      3.3034
     95.9000     17.8313      6.0000      0.2077    485.0000    532.0000    552.0000    592.0000    582.0000    437.0000     79.9049      1.2366      3.0000     79.0037     75.0072     78.4670     82.6410     87.1684     81.0496   1007.2390    216.5865      3.2909
     96.0000     16.1269      6.0000      0.2077    542.0000    460.0000    571.0000    552.0000    495.0000    478.0000     78.5876      1.2366      3.0000     78.8759     75.8902     78.5963     83.0256     87.1684     81.0496   1010.5120    216.5865      3.2947
     96.1000     15.9860      6.0000      0.2077    552.0000    526.0000    535.0000    571.0000    454.0000    462.0000     77.8739      1.2366      3.0000     78.7481     75.8902     78.5963     83.0256     87.1684     81.0496   1012.1484    216.5865      3.3030
     96.2000     16.2678      6.0000      0.2077    593.0000    548.0000    625.0000    531.0000    508.0000    453.0000     77.7743      1.2366      3.0000     78.6204     75.8902     78.4670     83.0256     87.2963     81.3005   1010.5120    216.5865      3.3080
     96.3000     16.9710      6.0000      0.2077    448.0000    520.0000    570.0000    561.0000    527.0000    457.0000     77.9747      1.1304      3.0000     79.0037     75.8902     78.5963     83.0256     87.4243     81.4260   1009.6937    216.5865      3.3102
     96.4000     17.9715      6.0000      0.2077    514.0000    483.0000    544.0000    518.0000    477.0000    469.0000     78.2011      1.2366      3.0000     79.0037     76.2686     78.4670     83.0256     87.8082     81.1751   1005.6026    216.5865      3.3120
     96.5000     19.5536      6.0000      0.2077    466.0000    412.0000    316.0000    487.0000    435.0000    396.0000     78.4066      1.1304      3.0000     79.0037     75.8902     78.4670     82.2564     87.4243     80.9242   1003.1479    216.5865      3.3107
     96.6000     20.1362      6.0000      0.2077    470.5039    450.9606    444.0866    473.9921    435.0079    397.0079     78.7747      1.2366      3.0000     79.0037     75.8902     78.2084     82.0000     88.5760     81.0496   1011.7360    216.5865      3.3036
     96.7000     19.5536      6.0000      0.2077    449.0000    420.0000    465.0000    449.0000    489.0000    345.0000     79.3903      1.2366      3.0000     79.1314     76.0163     78.5963     82.8974     90.2396     81.0496   1007.2390    216.5865      3.2944
     96.8000     20.5801      6.0000      0.2077    478.0000    442.0000    455.0000    451.0000    488.0000    262.0000     79.9283      1.2366      3.0000     79.1314     75.8902     80.0186     83.4102     90.7515     81.0496   1007.2390    216.5865      3.2955
     96.9000     23.1104      6.0000      0.2077    477.0000    449.1811    473.2756    495.9685    432.2126    433.9449     79.9224      1.1304      3.0000     79.1314     75.7640     80.1479     86.7436     91.1858     81.0496   1012.1484    216.5865      3.3159
     97.0000     23.4731      6.0000      0.2077    505.0000    465.0000    429.0000    462.0000    451.0000    411.0000     79.2432      1.2366      3.0000     79.0037     75.7640     79.1135     86.6154     90.8795     81.0496   1010.5120    216.5865      3.3559
     97.1000     23.9201      6.0000      0.2077    455.0000    451.0000    487.0000    461.0000    482.0000    240.0000     78.3192      1.2366      3.0000     79.0037     75.7640     78.9842     82.6410     88.5760     81.0496   1014.6031    216.5865      3.4069
     97.2000     24.9529      6.0000      0.2077    446.0000    454.0000    382.0000    411.0000    456.0000    441.0000     78.0135      1.2366      3.0000     79.0037     75.3857     79.1135     81.6154     88.5760     81.0496   1012.1484    216.5865      3.4490
     97.3000     27.0198      6.0000      0.2077    392.0000    433.0000    352.0000    416.0000    401.0000    369.0000     78.8433      1.2366      3.0000     79.0037     75.3857     78.8549     85.5897     88.5760     80.9242   1003.9661    216.5865      3.4665
     97.4000     29.5797      6.0000      0.2077    429.4567    320.2441    379.6772    403.6535    431.1968    333.1102     80.8204      1.2366      3.0000     79.0037     75.3857     78.9842     85.4615     88.5760     80.6733   1008.0573    216.5865      3.4474
     97.5000     34.0417      6.0000      0.2077    434.0000    426.0000    405.0000    409.0000    430.0000    385.0000     83.1439      1.2366      3.0000     79.0037     75.3857     78.9842     85.2051     88.1921     80.7987   1012.9667    216.5865      3.4007
     97.6000     39.4489      6.0000      0.2322    414.0000    422.0000    363.0000    451.0000    393.0000    384.0000     85.1458      1.2366      3.0000     78.7481     75.3857     78.9842     86.1025     88.4481     81.0496   1007.2390    226.8914      3.3433
     97.7000     42.1325      6.0000      0.2322    392.5039    403.2992    324.2362    398.2362    398.2992    369.4331     86.3430      1.2366      3.0000     78.7481     75.3857     78.5963     85.2051     87.8082     80.9242   1008.8755    226.8914      3.2921
     97.8000     43.4748      6.0000      0.2322    411.0000    343.0000    362.0000    368.0000    286.0000    346.0000     86.5186      1.1304      3.0000     78.7481     75.3857     78.5963     86.1025     87.4243     80.5478   1008.8755    226.8914      3.2612
     97.9000     45.8399      6.0000      0.2322    386.0000    372.0000    389.0000    397.0000    389.0000    349.0000     85.8222      1.2366      3.0000     78.7481     75.3857     78.0791     83.9231     86.5285     80.5478   1009.6937    226.8914      3.2520
     98.0000     49.1911      6.0000      0.2322    379.0000    304.0000    345.0000    370.0000    348.0000    296.0000     84.5517      1.2366      3.0000     78.7481     75.3857     76.2688     81.4872     85.1209     80.5478   1008.8755    226.8914      3.2582
     98.1000     50.3914      6.0000      0.2322    282.0000    283.0000    272.0000    283.0000    302.0000    270.0000     83.2966      1.2366      3.0000     78.7481     75.3857     75.8809     78.6666     84.6090     80.5478   1007.2390    226.8914      3.2661
     98.2000     50.9001      6.0000      0.2322    296.6614    285.3386    280.8347    201.4331    318.5905    262.7559     82.6566      1.2366      3.0000     78.7481     75.3857     75.8809     77.7692     84.6090     80.5478   1008.8755    226.8914      3.2662
