~Version Information
 VERS.                2.00:   CWLS log ASCII Standard -VERSION 2.00
 WRAP.                  NO:   One line per frame      
~Well Information Block
#MNEM.UNIT                   Data                        Description
#----.----   -----------------------------------------   -------------------------------
 STRT.M                                       27.0000 : Starting Depth
 STOP.M                                      188.0000 : Ending Depth
 STEP.M                                        0.1000 : Level Spacing
 NULL.                                      -999.2500 : Absent Value
 COMP.       SUNCOR ENERGY INC                        : Company
 WELL.       SUNCOR LEWIS 7-22-92-8                   : Well
 FLD .       UNDEFINED                                : Field
 LOC .       LSD 07-22-092-08W4                       : Location
 PROV.       ALBERTA                                  : Province
 CTRY.       CA                                       : Country
 SRVC.       Baker Hughes                             : Service Company
 DATE.       16-JAN-2016                              : Log Date
 UWI .       1AA072209208W400                         : Unique Well ID
 LIC .       0477502                                  : License Number
~Curve Information Block
#MNEM    .UNIT        API Codes     Curve Description
#--------.--------   LG--CV-CL--M   -------------------------------
 DEPT    .M           0   1  0  1 : Depth
 AZSTQH  .deg        99 995 99  1 : Azimuth of reference pad for STAR
 BKRGQH  .dim        99 995 99  1 : Bucker driver value
 DEVSTQH .deg        99 995 99  1 : Deviation for STAR
 DIP1QH  .raw        75 610  1  1 : Pad 1 average data of buttons 11, 12, 13, 14
 DIP2QH  .raw        75 610  1  1 : Pad 2 average data of buttons 11, 12, 13, 14
 DIP3QH  .raw        75 610  1  1 : Pad 3 average data of buttons 11, 12, 13, 14
 DIP4QH  .raw        75 610  1  1 : Pad 4 average data of buttons 11, 12, 13, 14
 DIP5QH  .raw        75 610  1  1 : Pad 5 average data of buttons 11, 12, 13, 14
 DIP6QH  .raw        75 610  1  1 : Pad 6 average data of buttons 11, 12, 13, 14
 GR      .gAPI       30 310  1  1 : Gamma ray
 PADFQH  .pct        94 995 99  1 : Pad force
 PADGQH  .dim        99 995 99  1 : Pad gain code
 RAD1QH  .mm         75 280 99  1 : Radius, tool axis to pad 1 face
 RAD2QH  .mm         75 280 99  1 : Radius, tool axis to pad 2 face
 RAD3QH  .mm         75 280 99  1 : Radius, tool axis to pad 3 face
 RAD4QH  .mm         75 280 99  1 : Radius, tool axis to pad 4 face
 RAD5QH  .mm         75 280 99  1 : Radius, tool axis to pad 5 face
 RAD6QH  .mm         75 280 99  1 : Radius, tool axis to pad 6 face
 RAZGSTQH.mG         99 995 99  1 : Raw Z-axis accelerometer shifted to STAR
 RBSTQH  .deg        99 995 99  1 : Relative bearing (relative to borehole high side) for STAR
 SPD     .m/min      99 636 99  1 : Speed
~Parameter Information Block
#MNEM.UNIT                     Value                    Description
#----.----   ----------------------------------------   -------------------------------
 HID1.       RESISTIVITY IMAGING LOG^T                : Header Identifer
 HID2.       GAMMA RAY LOG                            : Header Identifer
 FILE.       3953                                     : File Number
 CMT1.       UID                                      : Comment 1  
 CMT2.       1AA072209208W400                         : Comment 2  
 CMT3.       LICENSE                                  : Comment 3  
 CMT4.       0477502                                  : Comment 4  
 FL2 .       BH LOC. LSD  07                          : Field Location 2
 SECT.       22                                       : Section
 TOWN.       092                                      : Township
 RANG.       08W4                                     : Range
 OS1 .       ZDL-CN-GR-CAL                            : Other Services Line 1
 OS2 .       HDIL-GR-CAL, CVL                         : Other Services Line 2
 OS3 .       DAL-GR-CAL                               : Other Services Line 3
 OS4 .       COMPOSITE                                : Other Services Line 4
 PDAT.       G.L.                                     : Permanent Datum
 EPD .M      438.50                                   : Elevation Of Perm. Datum
 LMF .       K.B.                                     : Log Measured From
 APD .M      2.20                                     : Above Permanent Datum
 DMF .       KELLY BUSHING                            : Drilling Measured From
 EKB .M      440.70                                   : Elevation Of Kelly Bushing
 EGL .M      438.50                                   : Elevation Of Ground Level
 RUN .       1                                        : Run Number
 TRIP.       1                                        : Trip Number
 SON .       CA003953J                                : Service Order Number
 TDD .M      187.0                                    : Total Depth - Driller
 TDL .M      186.3                                    : Total Depth - Logger
 BLI .M      183.0                                    : Bottom Log Interval
 TLI .M      55.0                                     : Top Log Interval
 CSIZ.MM     177.8                                    : Casing Size
 CBDR.M      49.4                                     : Casing Bottom - Driller
 CBLO.M      49.4                                     : Casing Bottom - Logger
 BS  .MM     156.0                                    : Bit Size
 DFT .       WB (WATER BASE MUD)                      : Drilling Fluid Type
 DFD .G/L    1030.0                                   : Drilling Fluid Density
 DFV .S      79.0                                     : Drilling Fluid Viscosity
 DFPH.       7.0                                      : Drilling Fluid Ph
 DFL .ML     8.0                                      : Drilling Fluid Loss
 MSS .       F (FLOWLINE)                             : Mud Sample Source
 RMS .OHMM   1.2                                      : Resistivity Of Mud Sample
 MST .DEGC   25.0                                     : Mud Sample Temperature
 RMFS.OHMM   1.0                                      : Resistivity Of Mud Filtrate Sample
 MFST.DEGC   25.0                                     : Mud Filtrate Sample Temperature
 RMCS.OHMM   1.4                                      : Resistivity Of Mud Cake Sample
 MCST.DEGC   25.0                                     : Mud Cake Sample Temperature
 MFSS.       CALCULATED                               : Mud Filtrate Sample Source
 MCSS.       CALCULATED                               : Mud Cake Sample Source
 RMB .OHMM   2.0                                      : Mud Resistivity At Bht
 BHT .DEGC   7.0                                      : Bottom Hole Temperature
 TSC .       5.0 HOURS                                : Time Since Circulation
 MRT .DEGC   7.0                                      : Maximum Recorded Temperature
 LUN .       Z004250                                  : Logging Unit Number
 LUL .       LEDUC OH                                 : Logging Unit Location
 ENGI.       A.MALIK                                  : Engineer's Name
 WITN.       H.WILSON / P.ENE                         : Witness' Name
 TSTR.       /STAR/GR/                                : Title Service Mnemonic
 TSTG.       NA                                       : Title Service Mnemonic
 STUS.       FINAL                                    : Status
 LCNM.       BAKER ATLAS                              : Logging Company Name
 LCC .       150                                      : Logging Company Code
 OPMD.       OH.WIRE                                  : Operation Mode
 PANA.       A.MALIK                                  : Processing Analyst
 PCON.       BAKER ATLAS                              : Processing Contractor
 APIN.                                                : API Serial Number
 STAT.                                                : State Or Province
~Other information
LAT/LON  57.0175, -111.419                                                      
TIME STOPPED CIRCULATION  16-JAN-2016 0830AM                                    
STAR RUN WITH 0% PAD FORCE AND AUTOMATICALLY CONTROLLED GAINS                   
ANY STICK AND PULL AFFECTS LOG QUALITY                                          
RIG  ENCORE 402                                                                 
CREW  F.AJAGU, A.MALIK                                                          
#  Curve Data
~A  DEPT        AZSTQH      BKRGQH      DEVSTQH     DIP1QH      DIP2QH      DIP3QH      DIP4QH      DIP5QH      DIP6QH      GR          PADFQH      PADGQH      RAD1QH      RAD2QH      RAD3QH      RAD4QH      RAD5QH      RAD6QH      RAZGSTQH    RBSTQH      SPD       
# ...
     85.9000     14.7028      7.0000      0.1915    564.0000    526.0000    546.0000    533.0000    594.0000    466.0000    100.1742      1.2366      3.0000     81.1755     77.9083     76.3981     74.6923     82.1776     82.6805   1012.1484    204.0577      3.3074
     86.0000     14.5615      7.0000      0.1915    592.0000    536.0000    544.0000    476.0000    642.0000    505.0000    100.2603      1.3429      3.0000     81.3033     77.9083     76.2688     75.2051     82.0496     82.8059   1009.6937    204.0577      3.3367
     86.1000     14.7028      7.0000      0.1915    650.0000    545.0000    670.0000    564.0000    640.0000    549.0000    100.1396      1.3429      3.0000     81.1755     78.0345     76.3981     75.2051     82.1776     82.9314   1009.6937    204.0577      3.3556
     86.2000     14.4202      7.0000      0.1915    580.0000    617.0000    647.0000    613.0000    553.0000    534.0000     99.6796      1.3429      3.0000     81.3033     77.9083     76.3981     74.6923     82.5615     82.8059   1011.3301    204.0577      3.3500
     86.3000     14.1374      7.0000      0.1915    624.0000    596.0000    581.0000    554.0000    586.0000    510.0000     99.0313      1.2366      3.0000     81.1755     77.9083     76.0102     75.0769     82.1776     82.4296   1011.3301    204.0577      3.3273
     86.4000     15.1262      7.0000      0.1915    393.0000    554.0000    393.0000    525.0000    369.0000    472.0000     98.1128      1.2366      3.0000     81.1755     77.9083     76.2688     75.0769     82.1776     82.4296   1012.9667    204.0577      3.3068
     86.5000     14.9851      7.0000      0.1915    381.0000    643.0000    312.0000    341.0000    369.0000    299.0000     96.6353      1.2366      3.0000     81.3033     77.9083     76.1395     74.6923     82.1776     82.4296   1005.6026    204.0577      3.3074
     86.6000     14.4149      7.0000      0.1915    484.0236    355.0945    560.9291    385.5591    523.5197    319.6535     94.7763      1.2366      3.0000     81.3033     77.9083     76.0102     74.7579     82.5615     82.4296   1004.7843    204.0577      3.3295
     86.7000     12.4310      8.0000      0.1469    657.0000    636.0000    584.0000    755.0000    610.0000    675.0000     93.2297      1.2366      3.0000     81.1755     77.9083     76.2688     74.6923     82.5615     82.4296   1004.7843    208.4564      3.3594
     86.8000     11.5811      7.0000      0.1469    173.0000    247.0000    121.0000    233.0000     80.0000    173.0000     92.6829      1.2366      3.0000     81.3033     77.9083     75.8809     74.6923     82.5615     82.4296   1009.6937    208.4564      3.3832
     86.9000     11.0141      6.0000      0.1468    143.5905    121.5748    163.1969    116.1732    149.1890     87.9843     93.1825      1.3429      3.0000     81.3033     78.0345     76.3981     74.6923     82.1776     82.8059   1012.1484    208.4564      3.3902
     87.0000     10.0215      6.0000      0.1469    275.0000    179.0000    294.0000    161.0000    272.0000    104.0000     94.1102      1.2366      3.0000     81.4311     78.0345     75.8809     75.0769     82.5615     82.4296   1008.8755    208.4564      3.3802
     87.1000      8.7484      6.0000      0.1393    300.0000    291.0000    305.0000    218.0000    296.0000    233.0000     95.0798      1.2366      3.0000     82.0698     77.9083     76.2688     76.3590     83.5852     82.4296   1008.8755    190.0215      3.3588
     87.2000      9.3142      6.0000      0.1915    301.0000    269.0000    261.0000    234.0000    284.0000    215.0000     96.0766      1.2366      3.0000     82.0698     77.9083     76.3981     76.8718     84.7370     82.4296   1008.8755    204.0577      3.3378
     87.3000      9.7386      6.0000      0.1915    289.0000    265.0000    253.0000    267.0000    261.0000    257.0000     97.2256      1.2366      3.0000     82.0698     77.9083     76.3981     76.8718     84.7370     82.4296   1009.6937    204.0577      3.3279
     87.4000     10.3044      6.0000      0.1669    228.3465    251.6929    236.6535    236.3465    212.5512    200.0000     98.4902      1.2366      3.0000     82.0698     77.9083     76.0683     76.6860     83.8412     82.3041   1010.5956    206.4822      3.3298
     87.5000      9.8800      6.0000      0.1468    262.0000    215.0000    294.0000    236.0000    242.0000    171.0000     99.6483      1.2366      3.0000     82.0698     77.9083     76.3981     76.4872     83.9691     82.3041   1008.8755    208.4564      3.3307
     87.6000      9.8800      6.0000      0.1915    322.0000    244.0000    291.0000    240.0000    308.0000    202.0000    100.5689      1.2366      3.0000     82.0698     77.5299     76.9153     76.8718     83.5852     82.3041   1011.3301    204.0577      3.3158
     87.7000      9.7386      6.0000      0.1469    320.7638    299.4409    259.1181    270.6772    321.5591    244.2362    101.2287      1.2366      3.0000     81.6866     77.9083     77.3032     76.8718     83.4573     82.4296   1010.0545    208.4564      3.2840
     87.8000      8.0417      6.0000      0.1469    229.0000    251.0000    227.0000    291.0000    260.0000    236.0000    101.6365      1.2366      3.0000     81.8143     77.6561     77.3032     77.0000     83.4573     82.4296   1010.5120    208.4564      3.2503
     87.9000      8.1784      6.0000      0.1469    291.0000    205.0000    295.0000    237.0000    294.0000    210.0000    101.7528      1.2366      3.0000     81.8143     77.9083     77.3032     77.0000     83.4573     82.1787   1010.5120    208.4564      3.2370
     88.0000      8.6036      6.0000      0.1468    272.0000    260.0000    307.0000    271.0000    280.0000    225.0000    101.6685      1.2366      3.0000     81.9421     77.9083     77.6911     77.0000     83.4573     82.0532   1008.0573    208.4564      3.2535
     88.1000      8.6036      6.0000      0.1469    316.0000    266.0000    252.0000    274.0000    221.0000    228.0000    101.5316      1.2366      3.0000     82.5809     77.9083     77.6911     77.0000     84.6090     82.0532   1006.4208    208.4564      3.2946
     88.2000      8.3201      6.0000      0.1469    261.8661    173.3150    291.2283    203.4095    320.3228    170.3150    101.4844      1.2366      3.0000     82.5809     77.9083     77.5619     77.0000     84.6090     82.0532   1009.3586    208.4564      3.3359
     88.3000      9.3124      6.0000      0.1468    220.0000    328.0000    328.0000    315.0000    326.0000    278.0000    101.6386      1.2366      3.0000     82.1976     77.9083     77.5619     77.0000     83.8412     82.3041   1009.6937    208.4564      3.3588
     88.4000     10.1633      6.0000      0.1468    408.0000    343.0000    383.0000    332.0000    359.0000    268.0000    101.9660      1.2366      3.0000     82.0698     77.9083     77.5619     76.8718     83.7132     82.4296   1010.5120    208.4564      3.3614
     88.5000     10.8723      6.0000      0.1468    417.4016    375.4409    394.5197    331.0000    403.5591    305.5984    101.9985      1.2366      3.0000     82.1976     77.9083     77.6911     76.8718     83.5852     82.3041   1008.8755    208.4564      3.3587
     88.6000     12.7208      6.0000      0.1468    398.0000    375.0000    377.0000    371.0000    365.0000    347.0000    101.3042      1.2366      3.0000     82.0698     77.9083     77.3032     76.8718     83.4573     82.1787   1009.6937    208.4564      3.3649
     88.7000     12.7208      6.0000      0.1468    364.0000    378.0000    384.0000    344.0000    380.0000    250.0000     99.8324      1.2366      3.0000     82.0698     77.9083     77.1739     77.0000     82.9454     82.0532   1013.7849    208.4564      3.3819
     88.8000     11.8645      6.0000      0.1468    288.0000    362.0000    267.0000    328.0000    281.0000    317.0000     97.9541      1.2366      3.0000     82.0698     77.9083     77.1739     76.8718     82.9454     82.3041   1009.6937    208.4564      3.4048
     88.9000     11.7228      6.0000      0.1469    252.0000    254.0000    252.0000    261.0000    264.0000    190.0000     96.3980      1.2366      3.0000     82.0698     77.9083     77.1739     77.0000     83.4573     82.3041   1009.6937    208.4564      3.4281
