~VERSION INFORMATION 
VERS.          2.0   :CWLS LOG ASCII STANDARD - VERSION 2.0
WRAP.          NO    :ONE LINE PER DEPTH STEP
PROD.  Schlumberger   :LAS Producer
PROG.  DLIS to ASCII 19C2-270                          :LAS Program name and version
CREA.        2014/02/23 09:08                          :LAS Creation date {YYYY/MM/DD hh:mm}
DLIS_CREA.  2014-Feb-23 08:51                          :DLIS Creation date and time {YYYY-MMM-DD hh:mm}
SOURCE.     1AA063409108W400_FMI_SONIC_REPEAT.dlis     :DLIS File Name
FILE-ID.     ConPr_R2L2Up_S008_FBST_DSLT_HGNS          :File Identification Number
#--------------------------------------------------
~WELL INFORMATION 
#MNEM.UNIT      DATA             DESCRIPTION
#---- ------ --------------   -----------------------------
STRT.M      88.69680        :START DEPTH
STOP.M      258.01320       :STOP DEPTH
STEP.M       0.15240        :STEP
NULL .          -999.25      :NULL VALUE
COMP.        SUNCOR ENERGY INC.                       :COMPANY
WELL.        SUNCOR LEWIS 6-34-91-8                   :WELL
FLD  .        LEWIS                                    :FIELD
LOC.        6-34-91-8W4                              :LOCATION
PROV .        ALBERTA                                  :PROVINCE
UWI.        1AA063409108W400                         :UNIQUE WELL ID
LIC  .        0464072                                  :LICENSE NUMBER
CTRY .        CA                                       :COUNTRY (WWW code)
DATE.        23-Feb-2014                              :LOG DATE {DD-MMM-YYYY}
SRVC .        Schlumberger                             :SERVICE COMPANY
LATI .DEG     56.934500 degrees                        :LATITUDE
LONG .DEG     -111.20540 degrees                       :LONGITUDE
GDAT .                                                 :GeoDetic Datum
SECT .        06-34                                    :Section
RANG .        08W4                                     :Range
TOWN .        091                                      :Township
#-----------------------------------------------------------------------------
~CURVE INFORMATION 
#MNEM.UNIT   API CODE                                  DESCRIPTION
#---- -----  --------                                  -----------------------
 DEPT.M         00 001 00 00             :Depth Index - Measured Depth
   BS.MM        61 280 07 00             :BIT SIZE {F14.5}
   C1.MM        42 280 06 00             :CALIPER 1 {F14.5}
   C2.MM        42 280 05 00             :CALIPER 2 {F14.5}
DEPTH.M         00 001 00 00             :DEPTH INDEX {F14.5}
DEVIM.DEG       00 630 00 00             :MEMORIZED DEVIATION {F14.5}
   DT.US/M      60 520 32 00             :DELTA-T (ALSO CALLED SLOWNESS OR INTERVAL TRANSIT TIME) {F14.5}
   EI.MA        00 000 00 00             :EMEX CURRENT {F14.5}
   EV.V         00 000 00 00             :EMEX VOLTAGE {F14.5}
 FBCR.OHMS      00 000 00 00             :CORRELATION RESISTANCE {F14.5}
   GR.GAPI      42 310 01 00             :GAMMA RAY {F14.5}
 HAZI.DEG       00 620 00 00             :HOLE AZIMUTH RELATIVE TO TRUE NORTH {F14.5}
HAZIM.DEG       00 620 00 00             :HOLE AZIMUTH RELATIVE TO TRUE NORTH {F14.5}
 P1AZ.DEG       00 630 00 00             :PAD 1 AZIMUTH IN HORIZONTAL PLANE (0 = TRUE NORTH) {F14.5}
P1NO_FBST.DEG   00 000 00 00             :PAD 1 AZIMUTH IN PLANE ORTHOGONAL TO TOOL AXIS (0 = TRUE NORTH), MEMORIZED TO FBST {F14.5}
   RB.DEG       00 631 00 00             :RELATIVE BEARING {F14.5}
 SDEV.DEG       00 000 00 00             :SONDE DEVIATION {F14.5}
 TENS.N         61 280 10 00             :CABLE TENSION {F14.5}
  TT1.US        60 520 32 01             :TRANSIT TIME 1 {F14.5}
  TT2.US        60 520 32 02             :TRANSIT TIME 2 {F14.5}
  TT3.US        60 520 32 03             :TRANSIT TIME 3 {F14.5}
  TT4.US        60 520 32 04             :TRANSIT TIME 4 {F14.5}
~PARAMETER INFORMATION 
#MNEM.UNIT    VALUE                      DESCRIPTION
#---- -----   --------------------       ------------------------
 CSGD.M       72.80000                   :Casing Bottom of Driller
 CSGL.M       73.20000                   :Logger Casing Shoe Depth
 CSGS.MM      177.80000                  :Current Casing Size
 CSGW.KG/M    25.30000                   :Casing Weight
 MUDD.K/M3    1090.00000                 :Drilling Fluid Density
  DFL.C3      6.00000                    :Drilling Fluid Loss
   PH.        10.00000                   :Drilling Fluid pH
  MUD.        Polymer                    :Drilling Fluid Type
 MUDV.S       108.00000                  :Drilling Fluid Viscosity
   GL.M       445.00000                  :Elevation of Ground Level
 EREF.M       449.00000                  :Elevation of Kelly Bushing
  ENG.        NICK POLLEY                :Engineer s Name
 DREF.        KB                         :Logging Measured From (Name of Logging Elevation Reference)
 BASE.        WINTER PROJECT             :LOGGING UNIT LOCATION
 FACT.        CP4P-00020                 :Service Order Number
  LIC.        0464072                    :API Well Number
 PROV.        ALBERTA                    :County or Parish
 UNIT.        3125                       :Logging Unit Number
 RMCT.DEGC    8.73000                    :Mudcake Sample Temperature
 RMFT.DEGC    8.73000                    :Mud Filtrate Sample Temperature
 TMAX.DEGC    12.28000                   :Maximum Recorded Temperature
 MUDS.        Flowline                   :Mud Sample Source
  RMT.DEGC    8.73000                    :Mud Sample Temperature
RANGE.        08W4                       :Range
  RMC.OHMM    1.18000                    :Resistivity of Mud Cake Sample
  RMF.OHMM    0.59200                    :Resistivity of Mud Filtrate Sample
   RM.OHMM    0.78900                    :Resistivity of Mud Sample
SECTION.      06-34                      :Section
 TIMC.        01 55 00                   :Time Circulation Stopped
 TIML.        07 55 00                   :Time Logger At Bottom
TOWNSHIP.     091                        :Township
  WIT.        JONATHAN FELL              :Witness s Name
  APD.M       4.00000                    :Elevation of Depth Reference (LMF) Above Permanent Datum
 APIN.        0464072                    :API Well Number
  BHT.DEGC    12.28000                   :Bottom Hole Temperature
  BLI.M       256.00000                  :Bottom Log Interval
   BS.MM      156.00000                  :Bit Size
   CN.        SUNCOR ENERGY INC.         :Company Name
 COUN.        ALBERTA                    :County or Parish
 LDAT.        23-Feb-2014                :Tools Above Rotary Table Date
  DCS.        23-Feb-2014                :Date Circulation Stopped
  DFL.C3      6.00000                    :Drilling Fluid Loss
 DLAB.        23-Feb-2014                :Date Logger At Bottom
  DMF.        KB                         :Drilling Measured From (Name of Drilling Elevation Reference)
  EDF.M       448.70001                  :Elevation of Drill Floor
  EGL.M       445.00000                  :Elevation of Ground Level
  EKB.M       449.00000                  :Elevation of Kelly Bushing
   FD.K/M3    1000.00000                 :Fluid Density
   FL.        6-34-91-8W4               :FIELD LOCATION
  FL1.        1AA063409108W400           :Field Location, Line 1
  FL2.                                   :Field Location, Line 2
   FN.        LEWIS                      :Field Name
 HID1.                                   :Header Identifier 1
 HID2.                                   :Header Identifier 2
 HIDE.        LEWIS                      :Header Identifier
 LATI.        56.934500 degrees          :Latitude
  LMF.        KB                         :Logging Measured From (Name of Logging Elevation Reference)
 LONG.        -111.20540 degrees         :Longitude
 MATR.        SAND                       :Rock Matrix for Neutron Porosity Corrections
 MCSS.        Calculated                 :Mudcake Sample Source
 MDEC.DEG     14.38033                   :Magnetic Field Declination
 MDEN.K/M3    2650.00000                 :Matrix Density for Density Porosity
 MRT1.DEGC    12.28000                   :Maximum Recorded Temperature 1
 MRT2.DEGC    -999.25000                 :Maximum Recorded Temperature 2
  NMT.        NOBARITE                   :HRDD Mud Type for Nuclear Devices
  OS1.                                   :Other Services Line 1
  OS2.                                   :Other Services Line 2
  OS3.                                   :Other Services Line 3
  OS4.                                   :Other Services Line 4
  OS5.                                   :Other Services Line 5
 PDAT.        GL                         :Permanent Datum
   R1.        THANK YOU FOR CHOOSING SCHLUMBERGER  :Remarks Line 1
   R2.        ALL TOOLS RAN AS PER TOOL SKETCH AND ALL PRESENTATIONS AS PER CLIENT REQUEST  :Remarks Line 2
   R3.        INDUCTION LOG – DESCENT #1 :Remarks Line 3
   R4.        NEUTRON / DENSITY LOG – DESCENT #1  :Remarks Line 4
  RMB.OHMM    0.70618                    :Resistivity of Mud at Bottom Hole Temperature
 RMFB.OHMM    0.52986                    :Resistivity of Mud Filtrate At Bottom Hole Temperature
  RUN.        ONE/2                      :Run Number
  SON.        CP4P-00020                 :SERVICE ORDER NUMBER
  TDD.M       256.00000                  :Driller Total Depth
  TDL.M       256.00000                  :Logger Total Depth
  TLI.M       75.00000                   :Top Log Interval
 UWID.        1AA063409108W400           :Unique Well Identifier
   WN.        SUNCOR LEWIS 6-34-91-8     :Well Name
  EPD.C3      445.000000                 :Elevation of Permanent Datum above Mean Sea Level
#-----------------------------------------------------------------------------
#
#      DEPT          BS            C1            C2            DEPTH         DEVIM         DT            EI            EV            FBCR          GR            HAZI          HAZIM         P1AZ        P1NO_FBST       RB            SDEV          TENS          TT1           TT2           TT3           TT4
#
#-----------------------------------------------------------------------------

~A       DEPT           BS           C1           C2        DEPTH        DEVIM           DT           EI           EV         FBCR           GR         HAZI        HAZIM         P1AZ    P1NO_FBST           RB         SDEV         TENS          TT1          TT2          TT3          TT4
# ...
    231.34320     156.00000     156.01636     155.37610     231.34273       0.25851     399.34546    2948.16211      10.23435  225684.89063      16.33018     194.00894     210.90082     253.83150     251.51405      59.82234       0.23393    4717.78369     722.76697     484.62814     722.46735     490.21811
    231.49560     156.00000     155.84695     157.94987     231.49574       0.26199     398.45691    2948.16211      10.21486  683678.31250      16.84855     194.19891     211.16505     251.85434     252.06033      57.65523       0.23372    4864.13037     725.65045     488.47430     726.71155     494.07468
    231.64800     156.00000     157.72162     157.94987     231.64871       0.26426     407.21631    2914.07910      10.29283  181466.09375      15.14420     194.34021     211.47214     251.12221     252.40826      56.78178       0.23371    5026.49072     726.77808     487.13824     728.64313     488.91946
    231.80040     156.00000     155.84695     157.94987     231.80135       0.26585     398.41675    2920.89551      10.44878  265981.09375      14.84566     194.44348     211.57216     251.93774     251.96149      57.49404       0.23397    4793.79297     722.17999     479.61438     722.55243     491.19980
    231.95280     156.00000     156.18576     158.27159     231.95554       0.26665     398.31848    2886.81274      10.58524 1454569.25000      12.25363     194.55782     211.75346     252.38925     253.50363      57.83120       0.23413    4802.30029     721.22351     476.26215     722.15356     488.40192
    232.10520     156.00000     153.55595     155.37610     232.10678       0.26696     382.57178    2890.22119      10.70221  256351.14063      11.60159     194.64409     211.91862     252.02188     253.97910      57.37754       0.23425    4718.72900     714.83496     471.13522     719.55328     481.30869
    232.25760     156.00000     156.18576     156.66299     232.26001       0.26727     371.24335    2886.81274      10.81917 1378170.37500      12.13570     194.77097     212.04037     252.69464     253.37251      57.92347       0.23374    4890.96777     706.69482     466.86728     713.04425     479.29800
    232.41000     156.00000     153.86313     155.37610     232.40784       0.26785     376.40567    2851.02539      10.97512  427585.71875      13.83231     194.88895     212.12732     253.83752     251.72578      58.94846       0.23372    4778.27979     705.06653     466.01813     712.51489     467.89871
    232.56240     156.00000     153.72836     155.37610     232.56128       0.26829     372.92276    2845.91309      11.03360  987701.81250      14.18583     195.03482     212.23810     253.66873     253.17986      58.63371       0.23261    4863.57422     703.55865     467.85300     707.77106     479.45230
    232.71480     156.00000     152.01859     152.80231     232.71330       0.26938     375.68073    2842.50464      11.07259 1098035.75000      13.36104     195.06827     212.30457     253.00092     256.14633      57.93261       0.23063    4716.30127     700.74170     470.56372     699.14819     475.19070
    232.86720     156.00000     156.80011     155.37610     232.86751       0.27057     381.66882    2842.50464      11.09209 1096377.00000      12.84260     195.22292     212.31776     251.72610     257.97983      56.50307       0.22830    4957.54297     698.36896     471.95050     702.02386     482.77420
    233.01960     156.00000     156.32430     156.66299     233.01997       0.27204     387.22400    2839.09644      11.17006  169414.56250      13.64371     195.52550     212.11903     253.18018     258.19183      57.65466       0.22533    5053.17969     701.53772     472.95178     701.31659     480.58664
    233.17200     156.00000     156.18576     155.37610     233.17183       0.27366     385.25339    2805.01367      11.17006  197668.21875      13.40811     196.16507     211.93529     256.14667     258.63904      59.98119       0.22229    5074.03076     701.30536     473.62595     700.57666     480.02853
    233.32440     156.00000     156.63145     155.37610     233.32709       0.27632     378.36899    2805.01367      11.11158 1022010.43750      15.43462     197.01054     211.58910     257.98016     254.24197      60.96895       0.21957    4781.56055     700.04321     472.42972     700.03967     477.31677
    233.47680     156.00000     158.64316     157.30644     233.47784       0.27881     371.31219    2808.42163      11.09209  826499.37500      15.92957     198.90167     211.31189     258.56183     249.03899      59.66039       0.21684    4625.55762     700.77686     470.14462     699.60211     472.71817
    233.62920     156.00000     156.01636     155.37610     233.62903       0.28175     364.70837    2844.20898      11.03360  227659.82813      18.84365     200.55092     210.86710     257.58264     248.35583      57.03074       0.21616    4635.32520     698.03735     468.11337     696.60272     468.23312
    233.78160     156.00000     155.84695     155.37610     233.78113       0.28473     362.76031    2847.61743      11.01411  221107.90625      18.23102     202.40579     210.44786     250.62845     247.83231      48.22294       0.21724    4823.05859     686.91541     463.69769     684.29260     462.56860
    233.93400     156.00000     156.01636     155.37610     233.93256       0.28763     364.76706    2815.23877      11.26753  201313.85938      16.93492     204.20091     209.99936     248.61554     247.47427      44.41374       0.21928    4743.75049     678.84241     461.91312     675.59619     459.76328
    234.08640     156.00000     156.49294     155.37610     234.08525       0.29058     360.72308    2813.53442      11.22854  192929.00000      16.14167     205.98413     209.65640     248.10979     246.06599      42.12483       0.22331    4810.01025     671.93750     458.10327     668.78021     457.79739
    234.23880     156.00000     156.18576     155.37610     234.23878       0.29378     349.52686    2811.83008      11.13107  395491.40625      15.62330     207.44408     209.42068     247.68396     242.49512      40.23846       0.22800    4726.51367     669.65979     455.54129     668.17206     455.00500
    234.39120     156.00000     157.41446     157.62816     234.39276       0.29719     341.99435    2806.71777      10.93613  902884.18750      16.91946     208.67271     209.33287     246.98993     241.08850      38.31882       0.23411    4750.10791     671.98035     452.76721     671.42621     452.74899
    234.54360     156.00000     158.31039     157.30644     234.54211       0.30114     337.24039    2839.09644      10.74119  247829.28125      21.60880     209.69630     209.38942     244.14674     240.39046      34.44701       0.23932    4680.71533     673.92377     451.84509     673.52954     451.55295
    234.69600     156.00000     157.86168     157.94987     234.69598       0.30551     338.42407    2874.88379      10.66322  200264.57813      26.00741     210.21217     209.67148     241.77528     240.19632      31.56330       0.24523    4739.02393     675.62378     452.56662     675.61517     453.04410
    234.84840     156.00000     157.07867     157.94987     234.84827       0.31064     350.02200    2842.50464      10.66322  141842.57813      30.24893     210.72218     210.08501     240.56679     240.01491      29.84138       0.25051    4640.97803     679.43860     458.15982     680.76929     460.05069
    235.00080     156.00000     154.47748     155.37610     235.00111       0.31840     359.86902    2874.88379      10.48777  126443.21875      29.62053     211.06621     210.80542     240.13243     240.30910      29.06498       0.25513    4697.87793     687.01947     464.46948     687.21021     466.42523
    235.15320     156.00000     153.72836     155.37610     235.15222       0.32490     366.92389    2908.96704      10.42929  137093.37500      29.51056     211.32141     211.31924     240.19684     240.59335      28.87596       0.25945    4713.63232     696.45612     473.63803     696.48358     475.09122
