~Version Information
 VERS.                2.00:   CWLS log ASCII Standard -VERSION 2.00
 WRAP.                  NO:   One line per frame      
~Well Information Block
#MNEM.UNIT                   Data                        Description
#----.----   -----------------------------------------   -------------------------------
 STRT.M                                       27.0000 : Starting Depth
 STOP.M                                      188.0000 : Ending Depth
 STEP.M                                        0.1000 : Level Spacing
 NULL.                                      -999.2500 : Absent Value
 COMP.       SUNCOR ENERGY INC                        : Company
 WELL.       SUNCOR LEWIS 7-22-92-8                   : Well
 FLD .       UNDEFINED                                : Field
 LOC .       LSD 07-22-092-08W4                       : Location
 PROV.       ALBERTA                                  : Province
 CTRY.       CA                                       : Country
 SRVC.       Baker Hughes                             : Service Company
 DATE.       16-JAN-2016                              : Log Date
 UWI .       1AA072209208W400                         : Unique Well ID
 LIC .       0477502                                  : License Number
~Curve Information Block
#MNEM    .UNIT        API Codes     Curve Description
#--------.--------   LG--CV-CL--M   -------------------------------
 DEPT    .M           0   1  0  1 : Depth
 AZSTQH  .deg        99 995 99  1 : Azimuth of reference pad for STAR
 BKRGQH  .dim        99 995 99  1 : Bucker driver value
 DEVSTQH .deg        99 995 99  1 : Deviation for STAR
 DIP1QH  .raw        75 610  1  1 : Pad 1 average data of buttons 11, 12, 13, 14
 DIP2QH  .raw        75 610  1  1 : Pad 2 average data of buttons 11, 12, 13, 14
 DIP3QH  .raw        75 610  1  1 : Pad 3 average data of buttons 11, 12, 13, 14
 DIP4QH  .raw        75 610  1  1 : Pad 4 average data of buttons 11, 12, 13, 14
 DIP5QH  .raw        75 610  1  1 : Pad 5 average data of buttons 11, 12, 13, 14
 DIP6QH  .raw        75 610  1  1 : Pad 6 average data of buttons 11, 12, 13, 14
 GR      .gAPI       30 310  1  1 : Gamma ray
 PADFQH  .pct        94 995 99  1 : Pad force
 PADGQH  .dim        99 995 99  1 : Pad gain code
 RAD1QH  .mm         75 280 99  1 : Radius, tool axis to pad 1 face
 RAD2QH  .mm         75 280 99  1 : Radius, tool axis to pad 2 face
 RAD3QH  .mm         75 280 99  1 : Radius, tool axis to pad 3 face
 RAD4QH  .mm         75 280 99  1 : Radius, tool axis to pad 4 face
 RAD5QH  .mm         75 280 99  1 : Radius, tool axis to pad 5 face
 RAD6QH  .mm         75 280 99  1 : Radius, tool axis to pad 6 face
 RAZGSTQH.mG         99 995 99  1 : Raw Z-axis accelerometer shifted to STAR
 RBSTQH  .deg        99 995 99  1 : Relative bearing (relative to borehole high side) for STAR
 SPD     .m/min      99 636 99  1 : Speed
~Parameter Information Block
#MNEM.UNIT                     Value                    Description
#----.----   ----------------------------------------   -------------------------------
 HID1.       RESISTIVITY IMAGING LOG^T                : Header Identifer
 HID2.       GAMMA RAY LOG                            : Header Identifer
 FILE.       3953                                     : File Number
 CMT1.       UID                                      : Comment 1  
 CMT2.       1AA072209208W400                         : Comment 2  
 CMT3.       LICENSE                                  : Comment 3  
 CMT4.       0477502                                  : Comment 4  
 FL2 .       BH LOC. LSD  07                          : Field Location 2
 SECT.       22                                       : Section
 TOWN.       092                                      : Township
 RANG.       08W4                                     : Range
 OS1 .       ZDL-CN-GR-CAL                            : Other Services Line 1
 OS2 .       HDIL-GR-CAL, CVL                         : Other Services Line 2
 OS3 .       DAL-GR-CAL                               : Other Services Line 3
 OS4 .       COMPOSITE                                : Other Services Line 4
 PDAT.       G.L.                                     : Permanent Datum
 EPD .M      438.50                                   : Elevation Of Perm. Datum
 LMF .       K.B.                                     : Log Measured From
 APD .M      2.20                                     : Above Permanent Datum
 DMF .       KELLY BUSHING                            : Drilling Measured From
 EKB .M      440.70                                   : Elevation Of Kelly Bushing
 EGL .M      438.50                                   : Elevation Of Ground Level
 RUN .       1                                        : Run Number
 TRIP.       1                                        : Trip Number
 SON .       CA003953J                                : Service Order Number
 TDD .M      187.0                                    : Total Depth - Driller
 TDL .M      186.3                                    : Total Depth - Logger
 BLI .M      183.0                                    : Bottom Log Interval
 TLI .M      55.0                                     : Top Log Interval
 CSIZ.MM     177.8                                    : Casing Size
 CBDR.M      49.4                                     : Casing Bottom - Driller
 CBLO.M      49.4                                     : Casing Bottom - Logger
 BS  .MM     156.0                                    : Bit Size
 DFT .       WB (WATER BASE MUD)                      : Drilling Fluid Type
 DFD .G/L    1030.0                                   : Drilling Fluid Density
 DFV .S      79.0                                     : Drilling Fluid Viscosity
 DFPH.       7.0                                      : Drilling Fluid Ph
 DFL .ML     8.0                                      : Drilling Fluid Loss
 MSS .       F (FLOWLINE)                             : Mud Sample Source
 RMS .OHMM   1.2                                      : Resistivity Of Mud Sample
 MST .DEGC   25.0                                     : Mud Sample Temperature
 RMFS.OHMM   1.0                                      : Resistivity Of Mud Filtrate Sample
 MFST.DEGC   25.0                                     : Mud Filtrate Sample Temperature
 RMCS.OHMM   1.4                                      : Resistivity Of Mud Cake Sample
 MCST.DEGC   25.0                                     : Mud Cake Sample Temperature
 MFSS.       CALCULATED                               : Mud Filtrate Sample Source
 MCSS.       CALCULATED                               : Mud Cake Sample Source
 RMB .OHMM   2.0                                      : Mud Resistivity At Bht
 BHT .DEGC   7.0                                      : Bottom Hole Temperature
 TSC .       5.0 HOURS                                : Time Since Circulation
 MRT .DEGC   7.0                                      : Maximum Recorded Temperature
 LUN .       Z004250                                  : Logging Unit Number
 LUL .       LEDUC OH                                 : Logging Unit Location
 ENGI.       A.MALIK                                  : Engineer's Name
 WITN.       H.WILSON / P.ENE                         : Witness' Name
 TSTR.       /STAR/GR/                                : Title Service Mnemonic
 TSTG.       NA                                       : Title Service Mnemonic
 STUS.       FINAL                                    : Status
 LCNM.       BAKER ATLAS                              : Logging Company Name
 LCC .       150                                      : Logging Company Code
 OPMD.       OH.WIRE                                  : Operation Mode
 PANA.       A.MALIK                                  : Processing Analyst
 PCON.       BAKER ATLAS                              : Processing Contractor
 APIN.                                                : API Serial Number
 STAT.                                                : State Or Province
~Other information
LAT/LON  57.0175, -111.419                                                      
TIME STOPPED CIRCULATION  16-JAN-2016 0830AM                                    
STAR RUN WITH 0% PAD FORCE AND AUTOMATICALLY CONTROLLED GAINS                   
ANY STICK AND PULL AFFECTS LOG QUALITY                                          
RIG  ENCORE 402                                                                 
CREW  F.AJAGU, A.MALIK                                                          
#  Curve Data
~A  DEPT        AZSTQH      BKRGQH      DEVSTQH     DIP1QH      DIP2QH      DIP3QH      DIP4QH      DIP5QH      DIP6QH      GR          PADFQH      PADGQH      RAD1QH      RAD2QH      RAD3QH      RAD4QH      RAD5QH      RAD6QH      RAZGSTQH    RBSTQH      SPD       
# ...
    116.9000    134.8155     10.0000      0.1915    420.0000    228.0000    256.0000    253.0000    459.0000    117.0000     30.0045      1.2366      5.0000     78.8759     75.0072     74.9758     75.4615     82.0496     80.0460   1012.9667    294.0577      3.4293
    117.0000    135.0135     10.0000      0.1468    427.0000    440.0000    303.0000    284.0000    323.0000    238.0000     29.9573      1.2366      5.0000     78.6204     75.0072     74.9758     75.0769     82.0496     80.0460   1003.9661    298.4564      3.4263
    117.1000    134.5007     10.0000      0.1468    679.0000    372.0000    659.0000    199.0000    470.0000     95.0000     29.0428      1.2366      5.0000     78.4926     75.0072     75.2344     75.4615     81.9216     79.7951   1013.7849    298.4564      3.4173
    117.2000    135.3279     10.0000      0.1468    507.0000    739.0000    450.0000    466.0000    285.0000    219.0000     27.4774      1.2366      5.0000     78.6204     75.0072     74.7172     75.8461     82.0496     79.6697   1012.9667    298.4564      3.4051
    117.3000    136.2371     10.0000      0.1468    411.0000    461.0000    376.0000    412.0000    223.0000    141.0000     25.9798      1.2366      5.0000     78.6204     75.0072     74.9758     75.4615     82.0496     79.7951   1012.9667    298.4564      3.3965
    117.4000    137.2608     10.0000      0.1469    200.1969    216.1102    198.2756    126.1102    128.5827    113.1654     25.2935      1.2366      4.0000     78.6807     75.0072     74.9758     75.5221     81.9892     79.7358   1011.7167    298.4564      3.3954
    117.5000    138.6813     10.0000      0.1468    205.0000    222.0000    210.0000    106.0000    107.0000     49.0000     25.6201      1.2366      4.0000     78.6204     75.0072     74.9758     75.8461     82.0496     79.6697   1007.2390    298.4564      3.4002
    117.6000    139.4810     10.0000      0.1468    114.0000    188.0000    279.0000    248.0000    281.0000     12.0000     26.5510      1.2366      4.0000     78.6204     75.0072     74.9758     75.9743     82.0496     79.6697   1012.1484    298.4564      3.4059
    117.7000    140.4545     10.0000      0.1468    284.4173    137.4173    629.4094    253.6535    401.2520    124.9134     27.1447      1.2366      4.0000     78.4926     75.0072     74.9758     75.4615     82.0496     79.7951   1009.2169    298.4564      3.4097
    117.8000    141.5016     10.0000      0.1038    302.0000    468.0000    619.0000    654.0000    433.0000    203.0000     26.9676      1.2366      4.0000     78.4926     75.0072     74.9758     75.8461     81.9216     79.7951   1008.0573    306.5865      3.4109
    117.9000    142.5057     10.0000      0.1038    384.0000    322.0000    332.0000    463.0000    250.0000    264.0000     26.1885      1.2366      4.0000     78.6204     75.0072     74.9758     75.9743     82.0496     79.6697   1008.0573    306.5865      3.4095
    118.0000    142.9078     10.0000      0.1038    381.0000    657.0000    327.0000    742.0000    508.0000    396.0000     25.4948      1.2366      5.0000     78.6204     74.8811     74.9758     75.4615     81.9216     79.7951   1011.3301    306.5865      3.4059
    118.1000    143.0119     10.0000      0.1038    351.0000    404.0000    337.0000    394.0000    538.0000    266.0000     25.2088      1.2366      5.0000     78.4926     75.0072     74.8465     75.8461     82.0496     79.6697   1003.1479    306.5865      3.4009
    118.2000    141.7970     10.0000      0.1038    245.4016    294.2205    164.1969    376.3622    287.3307    381.2992     25.1228      1.2366      5.0000     78.7481     75.0072     74.9758     75.4615     82.0496     79.6697   1010.8663    306.5865      3.3961
    118.3000    141.1940     10.0000      0.1038    291.0000    146.0000    222.0000    130.0000    190.0000    247.0000     24.7347      1.2366      5.0000     78.6204     75.0072     74.9758     75.9743     81.9216     79.7951   1012.1484    306.5865      3.3930
    118.4000    141.5016     10.0000      0.1038     74.0000    203.0000     88.0000    263.0000     89.0000    110.0000     23.9165      1.1304      5.0000     78.6204     75.0072     74.9758     75.9743     82.0496     79.6697   1008.8755    306.5865      3.3911
    118.5000    140.7925     10.0000      0.1039    472.4724    458.6063    603.1102    485.0000    271.2677      1.0866     22.9562      1.2366      6.0000     78.5620     75.0072     74.9758     75.8461     81.9912     79.6697   1013.3596    306.5865      3.3896
    118.6000    141.5959     10.0000      0.1038    199.0000    229.0000    321.0000    144.0000    212.0000     24.0000     22.4475      1.2366      6.0000     78.6204     75.0072     74.5879     75.4615     81.9216     79.2933   1012.9667    306.5865      3.3887
    118.7000    141.1940     10.0000      0.1038    260.0000    234.0000    228.0000    180.0000    243.0000      8.0000     22.6604      1.2366      6.0000     77.5983     75.0072     74.2000     75.8461     82.0496     79.6697   1006.4208    306.5865      3.3898
    118.8000    142.4006     10.0000      0.1038    134.0000    130.0000    113.0000    155.0000    118.0000      9.0000     23.6338      1.2366      5.0000     77.0873     74.7550     75.8809     75.8461     82.0496     80.5478    999.8749    306.5865      3.3932
    118.9000    145.9277     10.0000      0.1038     95.0000     74.0000     83.0000     64.0000     99.0000     10.0000     25.3923      1.2366      4.0000     79.1314     75.0072     76.3981     76.8718     82.0496     80.9242   1009.6937    343.4564      3.3975
    119.0000    146.5316     10.0000      0.1038    124.6378     50.2126     82.8189     49.6063    114.3937     14.3937     27.7163      1.2366      3.0000     81.1755     77.5299     77.3032     77.7692     82.8678     82.4296   1011.8005    343.4564      3.4008
    119.1000    147.1351     10.0000      0.1038    305.0000     66.0000    320.0000     68.0000    634.0000    103.0000     30.2962      1.2366      3.0000     81.1755     77.5299     77.3032     77.7692     83.8412     81.8023   1010.5120    343.4564      3.4019
    119.2000    147.9391      9.0000      0.1038     26.0000    152.0000     29.0000    159.0000     37.0000    164.0000     32.2428      1.1304      3.0000     79.6424     77.4038     77.1739     77.7692     83.4573     81.9278   1008.8755    343.4564      3.4019
    119.3000    149.6058      8.0000      0.1038    634.5040     18.0000    275.3071     17.0000    138.2047      0.0000     32.9536      1.2366      3.0000     78.7481     76.9578     76.0102     77.3200     82.0496     81.4260   1008.0573    343.4564      3.4030
    119.4000    151.4728     10.0000      0.0657    482.0000    919.0000    462.0000    489.0000    366.0000   1023.0000     32.2583      1.2366      4.0000     77.7261     74.6288     75.2344     75.4615     82.0496     80.9242   1010.5120    325.0215      3.4058
    119.5000    151.5842     10.0000      0.0657    120.0000    338.0000     99.0000    450.0000    138.0000    290.0000     30.4457      1.2366      4.0000     78.1094     74.1243     74.9758     75.5897     81.9216     79.6697   1008.8755    325.0215      3.4085
    119.6000    150.6719     10.0000      0.0657    312.0000    296.0000    246.0000    418.0000    284.0000    203.0000     28.2539      1.2366      6.0000     78.1094     74.1243     75.1051     75.4615     81.9216     79.6697   1017.0578    325.0215      3.4086
    119.7000    150.1612     10.0000      0.1038    459.0000    267.0000    385.0000    194.0000    437.0000     13.0000     26.0111      1.2366      6.0000     77.8538     74.2504     75.4930     75.4615     81.9216     80.1715   1005.6026    343.4564      3.4072
    119.8000    149.4666     10.0000      0.1038    340.0000    332.0000    297.0000    423.0000    279.0000     70.0000     23.9660      1.2366      6.0000     77.8538     74.6288     75.3637     75.4615     82.0496     79.7951   1005.6026    343.4564      3.4087
    119.9000    147.9494     10.0000      0.1038    230.0000    329.0000    264.0000    295.0000    231.0000     23.0000     22.6950      1.2366      6.0000     78.1094     74.6288     76.0102     75.4615     82.0496     79.6697    999.0568    343.4564      3.4153
