~VERSION INFORMATION 
VERS.          2.0   :CWLS LOG ASCII STANDARD - VERSION 2.0
WRAP.          NO    :ONE LINE PER DEPTH STEP
PROD.  Schlumberger   :LAS Producer
PROG.  DLIS to ASCII 19C2-270                          :LAS Program name and version
CREA.        2014/02/23 09:08                          :LAS Creation date {YYYY/MM/DD hh:mm}
DLIS_CREA.  2014-Feb-23 08:51                          :DLIS Creation date and time {YYYY-MMM-DD hh:mm}
SOURCE.     1AA063409108W400_FMI_SONIC_MAIN.dlis       :DLIS File Name
FILE-ID.     ConPr_R2L3Up_S008_FBST_DSLT_HGNS          :File Identification Number
#--------------------------------------------------
~WELL INFORMATION 
#MNEM.UNIT      DATA             DESCRIPTION
#---- ------ --------------   -----------------------------
STRT.M      54.71160        :START DEPTH
STOP.M      257.70840       :STOP DEPTH
STEP.M       0.15240        :STEP
NULL .          -999.25      :NULL VALUE
COMP.        SUNCOR ENERGY INC.                       :COMPANY
WELL.        SUNCOR LEWIS 6-34-91-8                   :WELL
FLD  .        LEWIS                                    :FIELD
LOC.        6-34-91-8W4                              :LOCATION
PROV .        ALBERTA                                  :PROVINCE
UWI.        1AA063409108W400                         :UNIQUE WELL ID
LIC  .        0464072                                  :LICENSE NUMBER
CTRY .        CA                                       :COUNTRY (WWW code)
DATE.        23-Feb-2014                              :LOG DATE {DD-MMM-YYYY}
SRVC .        Schlumberger                             :SERVICE COMPANY
LATI .DEG     56.934500 degrees                        :LATITUDE
LONG .DEG     -111.20540 degrees                       :LONGITUDE
GDAT .                                                 :GeoDetic Datum
SECT .        06-34                                    :Section
RANG .        08W4                                     :Range
TOWN .        091                                      :Township
#-----------------------------------------------------------------------------
~CURVE INFORMATION 
#MNEM.UNIT   API CODE                                  DESCRIPTION
#---- -----  --------                                  -----------------------
 DEPT.M         00 001 00 00             :Depth Index - Measured Depth
   BS.MM        61 280 07 00             :BIT SIZE {F14.5}
   C1.MM        42 280 06 00             :CALIPER 1 {F14.5}
   C2.MM        42 280 05 00             :CALIPER 2 {F14.5}
DEPTH.M         00 001 00 00             :DEPTH INDEX {F14.5}
DEVIM.DEG       00 630 00 00             :MEMORIZED DEVIATION {F14.5}
   DT.US/M      60 520 32 00             :DELTA-T (ALSO CALLED SLOWNESS OR INTERVAL TRANSIT TIME) {F14.5}
   EI.MA        00 000 00 00             :EMEX CURRENT {F14.5}
   EV.V         00 000 00 00             :EMEX VOLTAGE {F14.5}
 FBCR.OHMS      00 000 00 00             :CORRELATION RESISTANCE {F14.5}
   GR.GAPI      42 310 01 00             :GAMMA RAY {F14.5}
 HAZI.DEG       00 620 00 00             :HOLE AZIMUTH RELATIVE TO TRUE NORTH {F14.5}
HAZIM.DEG       00 620 00 00             :HOLE AZIMUTH RELATIVE TO TRUE NORTH {F14.5}
 P1AZ.DEG       00 630 00 00             :PAD 1 AZIMUTH IN HORIZONTAL PLANE (0 = TRUE NORTH) {F14.5}
P1NO_FBST.DEG   00 000 00 00             :PAD 1 AZIMUTH IN PLANE ORTHOGONAL TO TOOL AXIS (0 = TRUE NORTH), MEMORIZED TO FBST {F14.5}
   RB.DEG       00 631 00 00             :RELATIVE BEARING {F14.5}
 SDEV.DEG       00 000 00 00             :SONDE DEVIATION {F14.5}
 TENS.N         61 280 10 00             :CABLE TENSION {F14.5}
  TT1.US        60 520 32 01             :TRANSIT TIME 1 {F14.5}
  TT2.US        60 520 32 02             :TRANSIT TIME 2 {F14.5}
  TT3.US        60 520 32 03             :TRANSIT TIME 3 {F14.5}
  TT4.US        60 520 32 04             :TRANSIT TIME 4 {F14.5}
~PARAMETER INFORMATION 
#MNEM.UNIT    VALUE                      DESCRIPTION
#---- -----   --------------------       ------------------------
 CSGD.M       72.80000                   :Casing Bottom of Driller
 CSGL.M       73.20000                   :Logger Casing Shoe Depth
 CSGS.MM      177.80000                  :Current Casing Size
 CSGW.KG/M    25.30000                   :Casing Weight
 MUDD.K/M3    1090.00000                 :Drilling Fluid Density
  DFL.C3      6.00000                    :Drilling Fluid Loss
   PH.        10.00000                   :Drilling Fluid pH
  MUD.        Polymer                    :Drilling Fluid Type
 MUDV.S       108.00000                  :Drilling Fluid Viscosity
   GL.M       445.00000                  :Elevation of Ground Level
 EREF.M       449.00000                  :Elevation of Kelly Bushing
  ENG.        NICK POLLEY                :Engineer s Name
 DREF.        KB                         :Logging Measured From (Name of Logging Elevation Reference)
 BASE.        WINTER PROJECT             :LOGGING UNIT LOCATION
 FACT.        CP4P-00020                 :Service Order Number
  LIC.        0464072                    :API Well Number
 PROV.        ALBERTA                    :County or Parish
 UNIT.        3125                       :Logging Unit Number
 RMCT.DEGC    8.73000                    :Mudcake Sample Temperature
 RMFT.DEGC    8.73000                    :Mud Filtrate Sample Temperature
 TMAX.DEGC    12.28000                   :Maximum Recorded Temperature
 MUDS.        Flowline                   :Mud Sample Source
  RMT.DEGC    8.73000                    :Mud Sample Temperature
RANGE.        08W4                       :Range
  RMC.OHMM    1.18000                    :Resistivity of Mud Cake Sample
  RMF.OHMM    0.59200                    :Resistivity of Mud Filtrate Sample
   RM.OHMM    0.78900                    :Resistivity of Mud Sample
SECTION.      06-34                      :Section
 TIMC.        01 55 00                   :Time Circulation Stopped
 TIML.        07 55 00                   :Time Logger At Bottom
TOWNSHIP.     091                        :Township
  WIT.        JONATHAN FELL              :Witness s Name
  APD.M       4.00000                    :Elevation of Depth Reference (LMF) Above Permanent Datum
 APIN.        0464072                    :API Well Number
  BHT.DEGC    12.28000                   :Bottom Hole Temperature
  BLI.M       256.00000                  :Bottom Log Interval
   BS.MM      156.00000                  :Bit Size
   CN.        SUNCOR ENERGY INC.         :Company Name
 COUN.        ALBERTA                    :County or Parish
 LDAT.        23-Feb-2014                :Tools Above Rotary Table Date
  DCS.        23-Feb-2014                :Date Circulation Stopped
  DFL.C3      6.00000                    :Drilling Fluid Loss
 DLAB.        23-Feb-2014                :Date Logger At Bottom
  DMF.        KB                         :Drilling Measured From (Name of Drilling Elevation Reference)
  EDF.M       448.70001                  :Elevation of Drill Floor
  EGL.M       445.00000                  :Elevation of Ground Level
  EKB.M       449.00000                  :Elevation of Kelly Bushing
   FD.K/M3    1000.00000                 :Fluid Density
   FL.        6-34-91-8W4               :FIELD LOCATION
  FL1.        1AA063409108W400           :Field Location, Line 1
  FL2.                                   :Field Location, Line 2
   FN.        LEWIS                      :Field Name
 HID1.                                   :Header Identifier 1
 HID2.                                   :Header Identifier 2
 HIDE.        LEWIS                      :Header Identifier
 LATI.        56.934500 degrees          :Latitude
  LMF.        KB                         :Logging Measured From (Name of Logging Elevation Reference)
 LONG.        -111.20540 degrees         :Longitude
 MATR.        SAND                       :Rock Matrix for Neutron Porosity Corrections
 MCSS.        Calculated                 :Mudcake Sample Source
 MDEC.DEG     14.38033                   :Magnetic Field Declination
 MDEN.K/M3    2650.00000                 :Matrix Density for Density Porosity
 MRT1.DEGC    12.28000                   :Maximum Recorded Temperature 1
 MRT2.DEGC    -999.25000                 :Maximum Recorded Temperature 2
  NMT.        NOBARITE                   :HRDD Mud Type for Nuclear Devices
  OS1.                                   :Other Services Line 1
  OS2.                                   :Other Services Line 2
  OS3.                                   :Other Services Line 3
  OS4.                                   :Other Services Line 4
  OS5.                                   :Other Services Line 5
 PDAT.        GL                         :Permanent Datum
   R1.        THANK YOU FOR CHOOSING SCHLUMBERGER  :Remarks Line 1
   R2.        ALL TOOLS RAN AS PER TOOL SKETCH AND ALL PRESENTATIONS AS PER CLIENT REQUEST  :Remarks Line 2
   R3.        INDUCTION LOG – DESCENT #1 :Remarks Line 3
   R4.        NEUTRON / DENSITY LOG – DESCENT #1  :Remarks Line 4
  RMB.OHMM    0.70618                    :Resistivity of Mud at Bottom Hole Temperature
 RMFB.OHMM    0.52986                    :Resistivity of Mud Filtrate At Bottom Hole Temperature
  RUN.        ONE/2                      :Run Number
  SON.        CP4P-00020                 :SERVICE ORDER NUMBER
  TDD.M       256.00000                  :Driller Total Depth
  TDL.M       256.00000                  :Logger Total Depth
  TLI.M       75.00000                   :Top Log Interval
 UWID.        1AA063409108W400           :Unique Well Identifier
   WN.        SUNCOR LEWIS 6-34-91-8     :Well Name
  EPD.C3      445.000000                 :Elevation of Permanent Datum above Mean Sea Level
#-----------------------------------------------------------------------------
#
#      DEPT          BS            C1            C2            DEPTH         DEVIM         DT            EI            EV            FBCR          GR            HAZI          HAZIM         P1AZ        P1NO_FBST       RB            SDEV          TENS          TT1           TT2           TT3           TT4
#
#-----------------------------------------------------------------------------

~A       DEPT           BS           C1           C2        DEPTH        DEVIM           DT           EI           EV         FBCR           GR         HAZI        HAZIM         P1AZ    P1NO_FBST           RB         SDEV         TENS          TT1          TT2          TT3          TT4
# ...
     94.33560     159.00000     154.34271     152.80231      94.33260       0.53555     467.44083    3363.97461       7.05683  111157.06250      89.32042     214.71539     211.60376     314.62360     315.08588      99.90771       0.53050    4231.84766     862.52319     575.96796     863.68555     571.11475
     94.48800     159.00000     154.34271     153.44574      94.48499       0.53118     463.35339    3360.56665       7.09582  111231.53906      89.57189     214.92258     211.59677     315.91861     311.19989     100.99482       0.52465    4306.47168     867.99573     568.02643     863.66058     563.87518
     94.64040     159.00000     153.99940     157.62816      94.64246       0.52411     458.78284    3326.48364       7.11531   93493.90625      92.87553     215.03725     211.81850     316.22290     309.55176     101.18562       0.52294    4456.82178     860.30255     562.75800     853.89270     563.26685
     94.79280     159.00000     154.34271     157.62816      94.79669       0.51954     457.61365    3326.48364       7.09582   78589.56250      96.11626     215.17566     211.97301     315.08658     306.83795      99.91296       0.51606    4692.23828     852.18030     561.76080     846.76929     561.47406
     94.94520     159.00000     154.34271     156.66299      94.94828       0.50990     464.68350    3326.48364       7.07632  101015.85156     100.01231     215.20766     212.56667     311.20071     303.98965      95.99342       0.51012    4475.80078     847.81836     559.23535     843.61676     561.51318
     95.09760     159.00000     154.34271     156.66299      95.10094       0.49864     465.16409    3329.89160       7.03733   68874.22656      95.63140     215.22577     213.38849     309.55264     299.88022      94.32803       0.50513    4526.06543     843.68256     562.82153     840.59576     563.02228
     95.25000     159.00000     154.78616     157.30644      95.24809       0.48649     465.78745    3358.86230       7.05683   82340.39063      89.62578     215.05215     214.39784     306.83893     298.76950      91.78573       0.50118    4433.28857     842.95038     562.85297     842.01337     562.30609
     95.40240     159.00000     154.17105     155.37610      95.40091       0.47320     467.16055    3358.86230       7.07632  103624.20313      91.07983     214.73051     215.64586     301.32800     298.39120      86.59765       0.49858    4506.04834     844.66034     560.30170     843.74121     562.79614
     95.55480     159.00000     154.17105     155.37610      95.55343       0.46072     463.30679    3326.48364       7.11531   96434.54688      93.19834     214.28459     217.00845     299.39551     297.50888      85.11110       0.49681    4504.77783     845.29260     564.33478     844.14648     565.22357
     95.70720     159.00000     154.34271     152.80231      95.70605       0.44822     462.92352    3331.59595       7.23227   96364.47656      98.79960     213.70439     218.47208     298.33002     295.20624      84.62506       0.49612    4400.47754     844.94507     561.31256     847.37610     561.13898
     95.85960     159.00000     154.17105     152.80231      95.85896       0.43711     462.28665    3300.92139       7.31025   88376.14063      92.69530     213.04625     219.93228     298.14206     293.58322      85.09613       0.49568    4284.27295     851.41388     560.86987     850.71722     561.09961
     96.01200     159.00000     154.34271     152.80231      96.01000       0.42684     462.48795    3297.51294       7.40772  119900.08594      91.38466     212.46350     221.39244     296.60196     292.45108      84.13831       0.49594    4345.61621     848.89270     562.96021     846.25775     563.40332
     96.16440     159.00000     153.99940     154.73264      96.16341       0.41847     465.72977    3297.51294       7.44671  129743.83594      85.15482     211.84953     222.79063     294.17825     292.54352      82.32881       0.49634    4471.05566     849.70398     562.86786     849.17029     564.98206
     96.31680     159.00000     156.80011     155.37610      96.31853       0.41013     468.39972    3258.31763       7.48570  142298.21875      84.02348     211.44269     224.02315     292.85266     293.39487      81.41069       0.49753    4763.74902     855.59344     564.73486     855.35767     564.36194
     96.46920     159.00000     156.80011     155.37610      96.46873       0.40250     467.87692    3258.31763       7.52468  123229.68750      85.96264     211.14232     225.10466     292.46371     293.78076      81.32235       0.49929    4694.78027     857.70148     565.23804     859.37659     567.93311
     96.62160     159.00000     154.61525     155.05437      96.61858       0.39559     470.49771    3261.72559       7.44671  114223.68750      87.07549     211.06389     226.06851     292.87848     294.66095      81.81322       0.50236    4466.90430     861.33514     571.21716     858.68951     573.97351
     96.77400     159.00000     155.23109     155.37610      96.77420       0.39006     476.67712    3263.42993       7.42721  104193.33594      93.86196     211.16194     226.69327     293.58734     294.49924      82.42355       0.50692    4354.80908     861.56671     575.58240     861.41626     578.61017
     96.92640     159.00000     154.95706     152.80231      96.92521       0.38415     479.93463    3261.72559       7.36873  100195.48438      96.62655     211.30374     227.20639     294.28842     289.45071      82.98441       0.51218    4394.20752     865.17975     578.83069     864.18286     575.94763
     97.07880     159.00000     156.46281     155.37610      97.07764       0.37940     482.42172    3294.10425       7.31025   82755.46094      99.72388     211.50279     227.43413     294.92200     288.50125      83.41767       0.51776    4587.59912     867.03320     576.38477     867.17261     577.94092
     97.23120     159.00000     159.25751     156.66299      97.23092       0.37665     484.48297    3288.99219       7.32974   85548.79688      96.58482     211.54242     227.41893     294.50061     288.26871      82.95831       0.52128    4809.16309     869.51825     579.48022     867.55902     581.73279
     97.38360     159.00000     153.99940     156.01955      97.38329       0.37495     480.38132    3254.90918       7.32974   92621.72656      96.19125     211.67337     227.13539     289.45233     286.54355      77.77805       0.52729    4578.99951     869.77069     581.60236     868.69989     581.44092
     97.53600     159.00000     154.34271     155.37610      97.53645       0.37580     475.79877    3288.99219       7.42721  100901.20313      99.14479     211.67972     226.91818     288.50290     285.69461      76.82341       0.53178    4465.37891     862.60089     580.87103     846.21332     579.58734
     97.68840     159.00000     154.17105     155.37610      97.68979       0.37726     474.51309    3256.61353       7.58317  106160.34375      94.51933     211.59557     226.40404     288.27042     284.66428      76.67330       0.53467    4418.27051     826.40234     580.77155     811.53308     578.16455
     97.84080     159.00000     154.17105     155.37610      97.84306       0.37999     477.69733    3225.93823       7.79760  124596.82813      88.50380     211.53152     225.78946     286.54529     284.27673      75.01419       0.53560    4659.83008     781.66046     572.73682     762.75439     553.08813
     97.99320     159.00000     154.95706     155.37610      97.99594       0.38404     454.78806    3190.15161       8.03153  154246.64063      78.27915     211.44698     225.15991     285.05103     284.23438      73.60379       0.53538    4648.09521     747.72992     538.51447     727.71265     516.73169
     98.14560     159.00000     155.09409     152.80231      98.14641       0.38935     391.42160    3120.28149       8.32394  151440.10938      72.97383     211.46376     224.53366     284.30441     283.04822      72.84118       0.53243    4548.94238     715.62848     491.75327     710.48987     470.30612
