~VERSION INFORMATION 
VERS.          2.0   :CWLS LOG ASCII STANDARD - VERSION 2.0
WRAP.          NO    :ONE LINE PER DEPTH STEP
PROD.  Schlumberger   :LAS Producer
PROG.  DLIS to ASCII 19C2-270                          :LAS Program name and version
CREA.        2014/02/23 09:08                          :LAS Creation date {YYYY/MM/DD hh:mm}
DLIS_CREA.  2014-Feb-23 08:51                          :DLIS Creation date and time {YYYY-MMM-DD hh:mm}
SOURCE.     1AA063409108W400_FMI_SONIC_MAIN.dlis       :DLIS File Name
FILE-ID.     ConPr_R2L3Up_S008_FBST_DSLT_HGNS          :File Identification Number
#--------------------------------------------------
~WELL INFORMATION 
#MNEM.UNIT      DATA             DESCRIPTION
#---- ------ --------------   -----------------------------
STRT.M      54.71160        :START DEPTH
STOP.M      257.70840       :STOP DEPTH
STEP.M       0.15240        :STEP
NULL .          -999.25      :NULL VALUE
COMP.        SUNCOR ENERGY INC.                       :COMPANY
WELL.        SUNCOR LEWIS 6-34-91-8                   :WELL
FLD  .        LEWIS                                    :FIELD
LOC.        6-34-91-8W4                              :LOCATION
PROV .        ALBERTA                                  :PROVINCE
UWI.        1AA063409108W400                         :UNIQUE WELL ID
LIC  .        0464072                                  :LICENSE NUMBER
CTRY .        CA                                       :COUNTRY (WWW code)
DATE.        23-Feb-2014                              :LOG DATE {DD-MMM-YYYY}
SRVC .        Schlumberger                             :SERVICE COMPANY
LATI .DEG     56.934500 degrees                        :LATITUDE
LONG .DEG     -111.20540 degrees                       :LONGITUDE
GDAT .                                                 :GeoDetic Datum
SECT .        06-34                                    :Section
RANG .        08W4                                     :Range
TOWN .        091                                      :Township
#-----------------------------------------------------------------------------
~CURVE INFORMATION 
#MNEM.UNIT   API CODE                                  DESCRIPTION
#---- -----  --------                                  -----------------------
 DEPT.M         00 001 00 00             :Depth Index - Measured Depth
   BS.MM        61 280 07 00             :BIT SIZE {F14.5}
   C1.MM        42 280 06 00             :CALIPER 1 {F14.5}
   C2.MM        42 280 05 00             :CALIPER 2 {F14.5}
DEPTH.M         00 001 00 00             :DEPTH INDEX {F14.5}
DEVIM.DEG       00 630 00 00             :MEMORIZED DEVIATION {F14.5}
   DT.US/M      60 520 32 00             :DELTA-T (ALSO CALLED SLOWNESS OR INTERVAL TRANSIT TIME) {F14.5}
   EI.MA        00 000 00 00             :EMEX CURRENT {F14.5}
   EV.V         00 000 00 00             :EMEX VOLTAGE {F14.5}
 FBCR.OHMS      00 000 00 00             :CORRELATION RESISTANCE {F14.5}
   GR.GAPI      42 310 01 00             :GAMMA RAY {F14.5}
 HAZI.DEG       00 620 00 00             :HOLE AZIMUTH RELATIVE TO TRUE NORTH {F14.5}
HAZIM.DEG       00 620 00 00             :HOLE AZIMUTH RELATIVE TO TRUE NORTH {F14.5}
 P1AZ.DEG       00 630 00 00             :PAD 1 AZIMUTH IN HORIZONTAL PLANE (0 = TRUE NORTH) {F14.5}
P1NO_FBST.DEG   00 000 00 00             :PAD 1 AZIMUTH IN PLANE ORTHOGONAL TO TOOL AXIS (0 = TRUE NORTH), MEMORIZED TO FBST {F14.5}
   RB.DEG       00 631 00 00             :RELATIVE BEARING {F14.5}
 SDEV.DEG       00 000 00 00             :SONDE DEVIATION {F14.5}
 TENS.N         61 280 10 00             :CABLE TENSION {F14.5}
  TT1.US        60 520 32 01             :TRANSIT TIME 1 {F14.5}
  TT2.US        60 520 32 02             :TRANSIT TIME 2 {F14.5}
  TT3.US        60 520 32 03             :TRANSIT TIME 3 {F14.5}
  TT4.US        60 520 32 04             :TRANSIT TIME 4 {F14.5}
~PARAMETER INFORMATION 
#MNEM.UNIT    VALUE                      DESCRIPTION
#---- -----   --------------------       ------------------------
 CSGD.M       72.80000                   :Casing Bottom of Driller
 CSGL.M       73.20000                   :Logger Casing Shoe Depth
 CSGS.MM      177.80000                  :Current Casing Size
 CSGW.KG/M    25.30000                   :Casing Weight
 MUDD.K/M3    1090.00000                 :Drilling Fluid Density
  DFL.C3      6.00000                    :Drilling Fluid Loss
   PH.        10.00000                   :Drilling Fluid pH
  MUD.        Polymer                    :Drilling Fluid Type
 MUDV.S       108.00000                  :Drilling Fluid Viscosity
   GL.M       445.00000                  :Elevation of Ground Level
 EREF.M       449.00000                  :Elevation of Kelly Bushing
  ENG.        NICK POLLEY                :Engineer s Name
 DREF.        KB                         :Logging Measured From (Name of Logging Elevation Reference)
 BASE.        WINTER PROJECT             :LOGGING UNIT LOCATION
 FACT.        CP4P-00020                 :Service Order Number
  LIC.        0464072                    :API Well Number
 PROV.        ALBERTA                    :County or Parish
 UNIT.        3125                       :Logging Unit Number
 RMCT.DEGC    8.73000                    :Mudcake Sample Temperature
 RMFT.DEGC    8.73000                    :Mud Filtrate Sample Temperature
 TMAX.DEGC    12.28000                   :Maximum Recorded Temperature
 MUDS.        Flowline                   :Mud Sample Source
  RMT.DEGC    8.73000                    :Mud Sample Temperature
RANGE.        08W4                       :Range
  RMC.OHMM    1.18000                    :Resistivity of Mud Cake Sample
  RMF.OHMM    0.59200                    :Resistivity of Mud Filtrate Sample
   RM.OHMM    0.78900                    :Resistivity of Mud Sample
SECTION.      06-34                      :Section
 TIMC.        01 55 00                   :Time Circulation Stopped
 TIML.        07 55 00                   :Time Logger At Bottom
TOWNSHIP.     091                        :Township
  WIT.        JONATHAN FELL              :Witness s Name
  APD.M       4.00000                    :Elevation of Depth Reference (LMF) Above Permanent Datum
 APIN.        0464072                    :API Well Number
  BHT.DEGC    12.28000                   :Bottom Hole Temperature
  BLI.M       256.00000                  :Bottom Log Interval
   BS.MM      156.00000                  :Bit Size
   CN.        SUNCOR ENERGY INC.         :Company Name
 COUN.        ALBERTA                    :County or Parish
 LDAT.        23-Feb-2014                :Tools Above Rotary Table Date
  DCS.        23-Feb-2014                :Date Circulation Stopped
  DFL.C3      6.00000                    :Drilling Fluid Loss
 DLAB.        23-Feb-2014                :Date Logger At Bottom
  DMF.        KB                         :Drilling Measured From (Name of Drilling Elevation Reference)
  EDF.M       448.70001                  :Elevation of Drill Floor
  EGL.M       445.00000                  :Elevation of Ground Level
  EKB.M       449.00000                  :Elevation of Kelly Bushing
   FD.K/M3    1000.00000                 :Fluid Density
   FL.        6-34-91-8W4               :FIELD LOCATION
  FL1.        1AA063409108W400           :Field Location, Line 1
  FL2.                                   :Field Location, Line 2
   FN.        LEWIS                      :Field Name
 HID1.                                   :Header Identifier 1
 HID2.                                   :Header Identifier 2
 HIDE.        LEWIS                      :Header Identifier
 LATI.        56.934500 degrees          :Latitude
  LMF.        KB                         :Logging Measured From (Name of Logging Elevation Reference)
 LONG.        -111.20540 degrees         :Longitude
 MATR.        SAND                       :Rock Matrix for Neutron Porosity Corrections
 MCSS.        Calculated                 :Mudcake Sample Source
 MDEC.DEG     14.38033                   :Magnetic Field Declination
 MDEN.K/M3    2650.00000                 :Matrix Density for Density Porosity
 MRT1.DEGC    12.28000                   :Maximum Recorded Temperature 1
 MRT2.DEGC    -999.25000                 :Maximum Recorded Temperature 2
  NMT.        NOBARITE                   :HRDD Mud Type for Nuclear Devices
  OS1.                                   :Other Services Line 1
  OS2.                                   :Other Services Line 2
  OS3.                                   :Other Services Line 3
  OS4.                                   :Other Services Line 4
  OS5.                                   :Other Services Line 5
 PDAT.        GL                         :Permanent Datum
   R1.        THANK YOU FOR CHOOSING SCHLUMBERGER  :Remarks Line 1
   R2.        ALL TOOLS RAN AS PER TOOL SKETCH AND ALL PRESENTATIONS AS PER CLIENT REQUEST  :Remarks Line 2
   R3.        INDUCTION LOG – DESCENT #1 :Remarks Line 3
   R4.        NEUTRON / DENSITY LOG – DESCENT #1  :Remarks Line 4
  RMB.OHMM    0.70618                    :Resistivity of Mud at Bottom Hole Temperature
 RMFB.OHMM    0.52986                    :Resistivity of Mud Filtrate At Bottom Hole Temperature
  RUN.        ONE/2                      :Run Number
  SON.        CP4P-00020                 :SERVICE ORDER NUMBER
  TDD.M       256.00000                  :Driller Total Depth
  TDL.M       256.00000                  :Logger Total Depth
  TLI.M       75.00000                   :Top Log Interval
 UWID.        1AA063409108W400           :Unique Well Identifier
   WN.        SUNCOR LEWIS 6-34-91-8     :Well Name
  EPD.C3      445.000000                 :Elevation of Permanent Datum above Mean Sea Level
#-----------------------------------------------------------------------------
#
#      DEPT          BS            C1            C2            DEPTH         DEVIM         DT            EI            EV            FBCR          GR            HAZI          HAZIM         P1AZ        P1NO_FBST       RB            SDEV          TENS          TT1           TT2           TT3           TT4
#
#-----------------------------------------------------------------------------

~A       DEPT           BS           C1           C2        DEPTH        DEVIM           DT           EI           EV         FBCR           GR         HAZI        HAZIM         P1AZ    P1NO_FBST           RB         SDEV         TENS          TT1          TT2          TT3          TT4
# ...
    122.07240     159.00000     166.01534     166.95810     122.07248       0.40959     513.46863    3565.06470       5.63377   51276.85156     110.97314     229.02766     229.36490      12.08151     358.67938     143.05499       0.47198    4134.62207     895.63141     605.35046     901.29364     605.13763
    122.22480     159.00000     163.23721     166.95810     122.22297       0.40937     503.60596    3530.98169       5.69225   69673.55469     107.83111     228.24133     229.76279       7.54706     353.44882     139.30821       0.47221    4144.25977     899.89703     600.00446     897.27411     599.52576
    122.37720     159.00000     163.23721     166.31465     122.37875       0.41041     492.31976    3530.98169       5.75073   82386.55469     105.94575     227.52797     230.19902       1.52776     348.06284     133.99950       0.47187    4334.64355     892.79089     595.21954     891.24756     592.16895
    122.52960     159.00000     160.77380     165.02777     122.53004       0.41339     480.99930    3493.49023       5.90668   65483.20703     109.59059     226.87520     230.45831     356.46274     344.62704     129.58897       0.47087    4390.07715     889.53882     586.03271     887.85846     579.09613
    122.68200     159.00000     161.10054     165.02777     122.68237       0.41653     474.74133    3491.78589       6.06263   64435.23438     110.34457     226.42540     230.64301     350.73514     341.32425     124.31010       0.46867    4209.79688     883.31006     578.79309     884.31238     573.75116
    122.83440     159.00000     160.77380     165.02777     122.83575       0.41730     470.44846    3457.70288       6.08213   67651.12500     114.74333     226.21547     230.51358     348.06296     338.98083     121.85030       0.46876    4432.01758     882.93738     579.22809     873.26202     575.60461
    122.98680     159.00000     155.23109     160.52365     122.98452       0.42118     474.63245    3461.11157       6.10162   93217.17188     112.10287     225.76137     230.50352     344.62720     338.54639     118.86715       0.46422    4609.94629     880.17377     580.88898     870.34100     577.06287
    123.13920     159.00000     158.64316     160.52365     123.13788       0.42497     471.90387    3466.22363       6.10162   75461.93750     113.57511     225.27412     230.41956     341.32446     337.43488     116.04760       0.45794    4100.07422     878.92712     582.71082     867.29468     575.57886
    123.29160     159.00000     170.01161     168.88843     123.29023       0.42817     481.47989    3466.22363       6.12112   70110.53906     111.31319     224.88249     230.39059     338.98105     337.27087     114.10093       0.45168    4296.34668     877.19189     582.17853     866.11542     576.80511
    123.44400     159.00000     170.31578     170.17532     123.44234       0.43156     488.94937    3502.01074       6.14061   66988.57031     113.32483     224.42178     230.32730     338.01248     337.23724     113.58892       0.44470    4595.01270     875.65625     582.35168     865.40454     577.94434
    123.59640     159.00000     170.31578     170.17532     123.59503       0.43434     486.19794    3505.41943       6.19909   68650.04688     119.11540     224.04271     230.39815     337.10797     335.90771     113.06420       0.43724    4567.68848     868.08276     586.14722     860.01245     581.14594
    123.74880     159.00000     167.85840     170.17532     123.74747       0.43634     478.84653    3471.33643       6.17960   83612.40625     119.49203     223.68826     230.37323     337.37851     330.94022     113.69122       0.43121    4013.18555     861.49683     586.34937     857.92853     575.86060
    123.90120     159.00000     164.01192     167.60155     123.89965       0.43892     473.01566    3473.04004       6.25757   83654.01563     119.86924     223.55341     230.42070     336.72296     327.58188     113.17062       0.42542    4122.54834     863.67059     583.70428     868.19647     571.58789
    124.05360     159.00000     161.24512     168.88843     124.05143       0.44148     468.32053    3433.84473       6.39403   84914.11719     118.89079     223.60242     230.36887     333.78015     321.82660     110.18008       0.42208    4209.79688     862.91302     575.46368     845.49835     568.34589
    124.20600     159.00000     167.24405     168.88843     124.20840       0.44530     462.52039    3432.14063       6.47201   78746.35938     116.37740     223.87357     230.19330     329.12320     317.12701     105.25173       0.41920    4472.24219     820.73816     573.78326     808.90918     572.57605
    124.35840     159.00000     162.32924     165.02777     124.36317       0.44930     464.00134    3394.64966       6.58897  103406.84375     114.49213     224.41989     229.98724     325.03027     313.50006     100.61095       0.41851    4544.00684     796.72266     568.04980     794.80908     554.22833
    124.51080     159.00000     156.80011     160.52365     124.51233       0.45456     458.70349    3389.53687       6.78391   98484.15625     105.94585     225.04305     229.61824     319.07840     310.21393      94.03587       0.41840    4252.81787     800.88300     534.56036     800.52954     518.97827
    124.66320     159.00000     158.64316     160.52365     124.66238       0.45933     404.62918    3357.15820       6.88138   96261.17188      96.89699     225.73462     229.22421     315.39539     305.00113      89.66127       0.41820    4302.61670     803.38641     512.80634     798.72540     507.95609
    124.81560     159.00000     160.77380     159.88022     124.81885       0.46516     370.54138    3358.86230       6.90088  423983.21875      87.34555     226.36734     228.71584     311.83151     299.36343      85.46128       0.41890    4545.19287     803.40631     512.96991     799.14642     513.31763
    124.96800     159.00000     161.10054     160.52365     124.96971       0.47057     372.43912    3362.27026       6.90088  547748.37500      86.34032     227.02222     228.19077     307.96381     297.27820      80.94069       0.41882    4385.62891     804.15521     517.46515     799.93579     512.61786
    125.12040     159.00000     161.10054     157.94987     125.12026       0.47516     381.90903    3365.67896       6.86189   81583.78125      92.87542     227.52705     227.72081     301.71246     295.16333      74.18275       0.41747    4450.89063     803.37921     514.92072     801.00171     510.21017
    125.27280     159.00000     157.41446     157.94987     125.27622       0.47875     439.38733    3365.67896       6.86189   82470.02344     102.48991     227.66997     227.32256     299.36465     292.25854      71.69248       0.41727    4540.44824     805.08911     511.54233     803.51080     512.84119
    125.42520     159.00000     158.02879     157.94987     125.42800       0.48229     471.12729    3360.56665       6.84239   81684.10938     105.00323     228.11897     227.27274     297.27945     288.85022      69.16279       0.41533    4711.93750     805.92834     531.31573     803.80774     553.11548
    125.57760     159.00000     156.46281     157.94987     125.58000       0.48422     470.69699    3394.64966       6.66695   83718.03906     110.78471     228.68364     227.01021     295.16464     285.68457      66.47814       0.41343    4593.82666     805.34827     571.98566     811.18597     576.48645
    125.73000     156.00000     157.41446     157.94987     125.73316       0.48580     467.96722    3391.24097       6.54998   82636.07031     110.72155     229.15588     226.84315     292.25986     284.06702      63.10064       0.41213    4447.58643     830.33606     579.24347     853.30573     580.17297
    125.88240     156.00000     156.80011     157.94987     125.88158       0.48648     467.31027    3391.24097       6.43302   78192.21875     112.35533     229.64551     226.82513     288.85159     279.91403      59.20368       0.41052    4411.04736     875.90784     580.90271     884.28479     582.92059
