~Version Information
 VERS.                2.00:   CWLS log ASCII Standard -VERSION 2.00
 WRAP.                  NO:   One line per frame      
~Well Information Block
#MNEM.UNIT                   Data                        Description
#----.----   -----------------------------------------   -------------------------------
 STRT.M                                       26.9748 : Starting Depth
 STOP.M                                      187.9854 : Ending Depth
 STEP.M                                        0.0762 : Level Spacing
 NULL.                                      -999.2500 : Absent Value
 COMP.       SUNCOR ENERGY INC                        : Company
 WELL.       SUNCOR LEWIS 7-22-92-8                   : Well
 FLD .       UNDEFINED                                : Field
 LOC .       LSD 07-22-092-08W4                       : Location
 PROV.       ALBERTA                                  : Province
 CTRY.       CA                                       : Country
 SRVC.       Baker Hughes                             : Service Company
 DATE.       16-JAN-2016                              : Log Date
 UWI .       1AA072209208W400                         : Unique Well ID
 LIC .       0477502                                  : License Number
 LATI.DEG    57.0175 N                                : Latitude Coordinates
 LONG.DEG    -111.419 W                               : Longitude Coordinates
~Curve Information Block
#MNEM    .UNIT        API Codes     Curve Description
#--------.--------   LG--CV-CL--M   -------------------------------
 DEPT    .M           0 001  0  1 : Depth
 AZSTQH  .deg        99 995 99  1 : Azimuth of reference pad for STAR
 BKRGQH  .dim        99 995 99  1 : Bucker driver value
 DEVSTQH .deg        99 995 99  1 : Deviation for STAR
 DIP1QH  .raw        75 610  1  1 : Pad 1 average data of buttons 11, 12, 13, 14
 DIP2QH  .raw        75 610  1  1 : Pad 2 average data of buttons 11, 12, 13, 14
 DIP3QH  .raw        75 610  1  1 : Pad 3 average data of buttons 11, 12, 13, 14
 DIP4QH  .raw        75 610  1  1 : Pad 4 average data of buttons 11, 12, 13, 14
 DIP5QH  .raw        75 610  1  1 : Pad 5 average data of buttons 11, 12, 13, 14
 DIP6QH  .raw        75 610  1  1 : Pad 6 average data of buttons 11, 12, 13, 14
 GR      .gAPI       30 310  1  1 : Gamma ray
 PADFQH  .pct        94 995 99  1 : Pad force
 PADGQH  .dim        99 995 99  1 : Pad gain code
 RAD1QH  .mm         75 280 99  1 : Radius, tool axis to pad 1 face
 RAD2QH  .mm         75 280 99  1 : Radius, tool axis to pad 2 face
 RAD3QH  .mm         75 280 99  1 : Radius, tool axis to pad 3 face
 RAD4QH  .mm         75 280 99  1 : Radius, tool axis to pad 4 face
 RAD5QH  .mm         75 280 99  1 : Radius, tool axis to pad 5 face
 RAD6QH  .mm         75 280 99  1 : Radius, tool axis to pad 6 face
 RAZGSTQH.mG         99 995 99  1 : Raw Z-axis accelerometer shifted to STAR
 RBSTQH  .deg        99 995 99  1 : Relative bearing (relative to borehole high side) for STAR
 SPD     .m/min      99 636 99  1 : Speed
~Parameter Information Block
#MNEM.UNIT                     Value                    Description
#----.----   ----------------------------------------   -------------------------------
 HID1.       RESISTIVITY IMAGING LOG^T                : Header Identifer
 HID2.       GAMMA RAY LOG                            : Header Identifer
 FILE.       3953                                     : File Number
 CMT1.       UID                                      : Comment 1  
 CMT2.       1AA072209208W400                         : Comment 2  
 CMT3.       LICENSE                                  : Comment 3  
 CMT4.       0477502                                  : Comment 4  
 FL2 .       BH LOC. LSD  07                          : Field Location 2
 SECT.       22                                       : Section
 TOWN.       092                                      : Township
 RANG.       08W4                                     : Range
 OS1 .       ZDL-CN-GR-CAL                            : Other Services Line 1
 OS2 .       HDIL-GR-CAL, CVL                         : Other Services Line 2
 OS3 .       DAL-GR-CAL                               : Other Services Line 3
 OS4 .       COMPOSITE                                : Other Services Line 4
 PDAT.       G.L.                                     : Permanent Datum
 EPD .M      438.50                                   : Elevation Of Perm. Datum
 LMF .       K.B.                                     : Log Measured From
 APD .M      2.20                                     : Above Permanent Datum
 DMF .       KELLY BUSHING                            : Drilling Measured From
 EKB .M      440.70                                   : Elevation Of Kelly Bushing
 EGL .M      438.50                                   : Elevation Of Ground Level
 RUN .       1                                        : Run Number
 TRIP.       1                                        : Trip Number
 SON .       CA003953J                                : Service Order Number
 TDD .M      187.0                                    : Total Depth - Driller
 TDL .M      186.3                                    : Total Depth - Logger
 BLI .M      183.0                                    : Bottom Log Interval
 TLI .M      55.0                                     : Top Log Interval
 CSIZ.MM     177.8                                    : Casing Size
 CBDR.M      49.4                                     : Casing Bottom - Driller
 CBLO.M      49.4                                     : Casing Bottom - Logger
 BS  .MM     156.0                                    : Bit Size
 DFT .       WB (WATER BASE MUD)                      : Drilling Fluid Type
 DFD .G/L    1030.0                                   : Drilling Fluid Density
 DFV .S      79.0                                     : Drilling Fluid Viscosity
 DFPH.       7.0                                      : Drilling Fluid Ph
 DFL .ML     8.0                                      : Drilling Fluid Loss
 MSS .       F (FLOWLINE)                             : Mud Sample Source
 RMS .OHMM   1.2                                      : Resistivity Of Mud Sample
 MST .DEGC   25.0                                     : Mud Sample Temperature
 RMFS.OHMM   1.0                                      : Resistivity Of Mud Filtrate Sample
 MFST.DEGC   25.0                                     : Mud Filtrate Sample Temperature
 RMCS.OHMM   1.4                                      : Resistivity Of Mud Cake Sample
 MCST.DEGC   25.0                                     : Mud Cake Sample Temperature
 MFSS.       CALCULATED                               : Mud Filtrate Sample Source
 MCSS.       CALCULATED                               : Mud Cake Sample Source
 RMB .OHMM   2.0                                      : Mud Resistivity At Bht
 BHT .DEGC   7.0                                      : Bottom Hole Temperature
 TSC .       5.0 HOURS                                : Time Since Circulation
 MRT .DEGC   7.0                                      : Maximum Recorded Temperature
 LUN .       Z004250                                  : Logging Unit Number
 LUL .       LEDUC OH                                 : Logging Unit Location
 ENGI.       A.MALIK                                  : Engineer's Name
 WITN.       H.WILSON / P.ENE                         : Witness' Name
 TSTR.       /STAR/GR/                                : Title Service Mnemonic
 TSTG.       NA                                       : Title Service Mnemonic
 STUS.       FINAL                                    : Status
 LCNM.       BAKER ATLAS                              : Logging Company Name
 LCC .       150                                      : Logging Company Code
 OPMD.       OH.WIRE                                  : Operation Mode
 PANA.       A.MALIK                                  : Processing Analyst
 PCON.       BAKER ATLAS                              : Processing Contractor
 APIN.                                                : API Serial Number
 STAT.                                                : State Or Province
~Other information
LAT/LON  57.0175, -111.419                                                      
TIME STOPPED CIRCULATION  16-JAN-2016 0830AM                                    
STAR RUN WITH 0% PAD FORCE AND AUTOMATICALLY CONTROLLED GAINS                   
ANY STICK AND PULL AFFECTS LOG QUALITY                                          
RIG  ENCORE 402                                                                 
CREW  F.AJAGU, A.MALIK                                                          
#  Curve Data
~A   DEPT         AZSTQH       BKRGQH       DEVSTQH      DIP1QH       DIP2QH       DIP3QH       DIP4QH       DIP5QH       DIP6QH       GR           PADFQH       PADGQH       RAD1QH       RAD2QH       RAD3QH       RAD4QH       RAD5QH       RAD6QH       RAZGSTQH     RBSTQH       SPD       
# ...
     127.2540     183.4775      10.0000       0.2368     179.0000     237.0000     216.0000     363.0000     178.0000       5.0000      21.9129       1.2366       7.0000      78.1094      74.5027      76.2688      77.0000      82.0496      79.6697    1009.6937      88.7116       3.4156
     127.3302     183.1956      10.0000       0.2368     241.0000     206.0000     296.0000     270.0000     316.0000       2.0000      22.1983       1.2366       7.0000      77.8538      74.1243      76.0102      75.9743      82.0496      79.2933    1014.6031      88.7116       3.4142
     127.4064     182.3330      10.0000       0.2368     195.0000     169.0000     219.0000     192.0000     179.0000       5.0000      22.6583       1.2366       7.0000      76.8318      74.5027      76.2688      75.4615      81.9216      79.2933    1007.2390      88.7116       3.4132
     127.4826     181.7711      10.0000       0.2367     159.0000     214.0000     248.0000     264.0000     163.0000       5.0000      23.2246       1.2366       7.0000      76.8318      74.5027      76.3981      76.3590      82.4335      80.4224    1017.8760      88.7116       3.4138
     127.5588     182.1924      10.0000       0.2368     296.0000     230.0000     241.0000     179.0000     172.0000       4.0000      23.8438       1.2366       7.0000      77.3428      75.3857      76.0102      76.8718      82.9454      81.0496    1008.0573      88.7116       3.4177
     127.6350     182.4738      10.0000       0.2368     890.0000     286.0000     625.0000     161.0000     671.0000       5.0000      24.5061       1.1304       7.0000      76.8318      75.8902      76.6567      76.7436      83.4573      81.9278    1002.3297      88.7116       3.4254
     127.7112     182.6328      10.0000       0.2368     209.0000     365.0000     251.0000     634.0000     130.0000     352.0000      25.2173       1.1304       7.0000      77.5983      75.5118      76.2688      77.2564      83.4573      81.5514    1014.6031      88.7116       3.4359
     127.7874     182.3330      10.0000       0.2368     116.0000      90.0000     119.0000      98.0000     159.0000       1.0000      25.9414       1.2366       6.0000      77.2151      75.0072      76.3981      76.7436      83.0734      81.4260    1014.6031      88.7116       3.4471
     127.8636     182.6146      10.0000       0.2368     215.0000      66.0000     147.0000     104.0000     288.0000       2.0000      26.6079       1.2366       6.0000      76.9595      75.3857      76.6567      76.7436      83.5852      81.4260    1012.9667      88.7116       3.4567
     127.9398     184.1980      10.0000       0.2368     360.0000      91.0000     306.0000      80.0000     531.0000       0.0000      27.1044       1.2366       5.0000      79.5147      75.3857      76.6567      77.6410      84.7370      82.5550    1012.1484      88.7116       3.4629
     128.0160     185.4702      10.0000       0.2322     340.0000     205.0000     505.0000     172.0000     589.0000      37.0000      27.2780       1.2366       5.0000      80.4090      75.3857      76.6567      78.2820      84.6090      83.1823    1003.1479     100.0215       3.4656
     128.0922     186.3301      10.0000       0.2322    1004.0000     434.0000     563.0000     376.0000     197.0000     216.0000      27.0163       1.2366       5.0000      80.0257      75.3857      76.6567      78.5384      84.6090      83.1823    1010.5120     100.0215       3.4662
     128.1684     186.6134      10.0000       0.2322     486.0000     466.0000     338.0000     329.0000     590.0000     438.0000      26.3334       1.2366       5.0000      80.0257      75.3857      76.1395      78.5384      84.6090      82.8059    1008.8755     100.0215       3.4654
     128.2446     186.8968      10.0000       0.2322     352.0000     637.0000     352.0000     687.0000     318.0000     751.0000      25.3683       1.2366       7.0000      79.5147      74.6288      75.4930      78.1538      84.6090      82.5550    1014.6031     100.0215       3.4626
     128.3208     187.4641      10.0000       0.2322     323.0000     253.0000     239.0000     243.0000     282.0000       7.0000      24.3713       1.2366       7.0000      80.2812      74.3766      75.3637      78.0256      83.4573      81.5514    1007.2390     100.0215       3.4574
     128.3970     187.1804      10.0000       0.2322     515.0000     179.0000     468.0000     286.0000     647.0000       7.0000      23.5551       1.2366       7.0000      80.2812      74.1243      75.3637      78.1538      83.4573      81.4260    1012.1484     100.0215       3.4506
     128.4732     187.3289      10.0000       0.2786     217.0000     255.0000     152.0000     708.0000     286.0000      17.0000      23.0433       1.2366       7.0000      80.0257      75.8902      75.3637      78.5384      84.6090      81.9278    1015.4213     100.0215       3.4429
     128.5494     187.4704      10.0000       0.2786     294.0000     240.0000     187.0000     286.0000     245.0000      47.0000      22.8782       1.2366       7.0000      80.2812      75.8902      74.9758      79.0513      84.6090      82.6805    1013.7849     100.0215       3.4352
     128.6256     187.3222      10.0000       0.2786     214.0000      76.0000     343.0000     130.0000     186.0000       1.0000      22.9899       1.1304       6.0000      80.4090      76.0163      74.8465      78.5384      84.6090      82.6805    1008.8755     100.0215       3.4290
     128.7018     187.8951      10.0000       0.2786     259.0000     112.0000     148.0000     200.0000     708.0000       4.0000      23.1974       1.2366       6.0000      79.5147      75.8902      74.5879      78.6666      84.6090      82.6805    1017.8760     100.0215       3.4257
     128.7780     187.7535      10.0000       0.2786     233.0000     227.0000     156.0000     169.0000     336.0000      55.0000      23.2784       1.1304       6.0000      79.5147      75.8902      76.0102      79.0513      83.4573      82.5550    1022.7854     100.0215       3.4259
     128.8542     188.6036      10.0000       0.2786     426.0000     743.0000     824.0000     417.0000     796.0000      35.0000      23.0874       1.1304       7.0000      79.5147      75.8902      77.1739      79.0513      84.6090      82.3041    1010.5120     100.0215       3.4288
     128.9304     189.1706      10.0000       0.2786     229.0000     602.0000     137.0000     548.0000     283.0000     594.0000      22.5944       1.1304       7.0000      79.5147      75.8902      77.1739      79.0513      84.6090      82.3041    1007.2390     100.0215       3.4328
     129.0066     189.1706      10.0000       0.2786     348.0000     231.0000     272.0000     306.0000     313.0000       2.0000      21.9072       1.1304       7.0000      79.5147      75.8902      77.1739      78.6666      84.6090      82.3041    1004.7843     100.0215       3.4362
     129.0828     189.3124      10.0000       0.2786     422.0000     245.0000     331.0000     314.0000     318.0000      22.0000      21.2483       1.2366       7.0000      79.5147      75.8902      77.1739      79.1795      84.9929      82.3041    1009.6937     100.0215       3.4378
     129.1590     189.5960      10.0000       0.2786     658.0000     267.0000     321.0000     296.0000     710.0000       5.0000      20.8491       1.1304       7.0000      79.5147      75.8902      77.3032      79.1795      84.9929      82.8059    1010.5120     100.0215       3.4367
     129.2352     189.8797      10.0000       0.2786     737.0000     417.0000     373.0000     239.0000     318.0000     227.0000      20.8628       1.2366       7.0000      79.5147      76.0163      77.6911      78.9231      85.1209      82.6805    1006.4208     100.0215       3.4328
     129.3114     190.0215      10.0000       0.2786     457.0000     698.0000     340.0000     254.0000     190.0000      13.0000      21.3230       1.2366       7.0000      79.5147      75.8902      76.9153      78.9231      85.2488      82.5550    1007.2390     100.0215       3.4277
