~VERSION INFORMATION 
VERS.          2.0   :CWLS LOG ASCII STANDARD - VERSION 2.0
WRAP.          NO    :ONE LINE PER DEPTH STEP
PROD.  Schlumberger   :LAS Producer
PROG.  DLIS to ASCII 19C2-270                          :LAS Program name and version
CREA.        2014/02/23 09:08                          :LAS Creation date {YYYY/MM/DD hh:mm}
DLIS_CREA.  2014-Feb-23 08:51                          :DLIS Creation date and time {YYYY-MMM-DD hh:mm}
SOURCE.     1AA063409108W400_FMI_SONIC_REPEAT.dlis     :DLIS File Name
FILE-ID.     ConPr_R2L2Up_S008_FBST_DSLT_HGNS          :File Identification Number
#--------------------------------------------------
~WELL INFORMATION 
#MNEM.UNIT      DATA             DESCRIPTION
#---- ------ --------------   -----------------------------
STRT.M      88.69680        :START DEPTH
STOP.M      258.01320       :STOP DEPTH
STEP.M       0.15240        :STEP
NULL .          -999.25      :NULL VALUE
COMP.        SUNCOR ENERGY INC.                       :COMPANY
WELL.        SUNCOR LEWIS 6-34-91-8                   :WELL
FLD  .        LEWIS                                    :FIELD
LOC.        6-34-91-8W4                              :LOCATION
PROV .        ALBERTA                                  :PROVINCE
UWI.        1AA063409108W400                         :UNIQUE WELL ID
LIC  .        0464072                                  :LICENSE NUMBER
CTRY .        CA                                       :COUNTRY (WWW code)
DATE.        23-Feb-2014                              :LOG DATE {DD-MMM-YYYY}
SRVC .        Schlumberger                             :SERVICE COMPANY
LATI .DEG     56.934500 degrees                        :LATITUDE
LONG .DEG     -111.20540 degrees                       :LONGITUDE
GDAT .                                                 :GeoDetic Datum
SECT .        06-34                                    :Section
RANG .        08W4                                     :Range
TOWN .        091                                      :Township
#-----------------------------------------------------------------------------
~CURVE INFORMATION 
#MNEM.UNIT   API CODE                                  DESCRIPTION
#---- -----  --------                                  -----------------------
 DEPT.M         00 001 00 00             :Depth Index - Measured Depth
   BS.MM        61 280 07 00             :BIT SIZE {F14.5}
   C1.MM        42 280 06 00             :CALIPER 1 {F14.5}
   C2.MM        42 280 05 00             :CALIPER 2 {F14.5}
DEPTH.M         00 001 00 00             :DEPTH INDEX {F14.5}
DEVIM.DEG       00 630 00 00             :MEMORIZED DEVIATION {F14.5}
   DT.US/M      60 520 32 00             :DELTA-T (ALSO CALLED SLOWNESS OR INTERVAL TRANSIT TIME) {F14.5}
   EI.MA        00 000 00 00             :EMEX CURRENT {F14.5}
   EV.V         00 000 00 00             :EMEX VOLTAGE {F14.5}
 FBCR.OHMS      00 000 00 00             :CORRELATION RESISTANCE {F14.5}
   GR.GAPI      42 310 01 00             :GAMMA RAY {F14.5}
 HAZI.DEG       00 620 00 00             :HOLE AZIMUTH RELATIVE TO TRUE NORTH {F14.5}
HAZIM.DEG       00 620 00 00             :HOLE AZIMUTH RELATIVE TO TRUE NORTH {F14.5}
 P1AZ.DEG       00 630 00 00             :PAD 1 AZIMUTH IN HORIZONTAL PLANE (0 = TRUE NORTH) {F14.5}
P1NO_FBST.DEG   00 000 00 00             :PAD 1 AZIMUTH IN PLANE ORTHOGONAL TO TOOL AXIS (0 = TRUE NORTH), MEMORIZED TO FBST {F14.5}
   RB.DEG       00 631 00 00             :RELATIVE BEARING {F14.5}
 SDEV.DEG       00 000 00 00             :SONDE DEVIATION {F14.5}
 TENS.N         61 280 10 00             :CABLE TENSION {F14.5}
  TT1.US        60 520 32 01             :TRANSIT TIME 1 {F14.5}
  TT2.US        60 520 32 02             :TRANSIT TIME 2 {F14.5}
  TT3.US        60 520 32 03             :TRANSIT TIME 3 {F14.5}
  TT4.US        60 520 32 04             :TRANSIT TIME 4 {F14.5}
~PARAMETER INFORMATION 
#MNEM.UNIT    VALUE                      DESCRIPTION
#---- -----   --------------------       ------------------------
 CSGD.M       72.80000                   :Casing Bottom of Driller
 CSGL.M       73.20000                   :Logger Casing Shoe Depth
 CSGS.MM      177.80000                  :Current Casing Size
 CSGW.KG/M    25.30000                   :Casing Weight
 MUDD.K/M3    1090.00000                 :Drilling Fluid Density
  DFL.C3      6.00000                    :Drilling Fluid Loss
   PH.        10.00000                   :Drilling Fluid pH
  MUD.        Polymer                    :Drilling Fluid Type
 MUDV.S       108.00000                  :Drilling Fluid Viscosity
   GL.M       445.00000                  :Elevation of Ground Level
 EREF.M       449.00000                  :Elevation of Kelly Bushing
  ENG.        NICK POLLEY                :Engineer s Name
 DREF.        KB                         :Logging Measured From (Name of Logging Elevation Reference)
 BASE.        WINTER PROJECT             :LOGGING UNIT LOCATION
 FACT.        CP4P-00020                 :Service Order Number
  LIC.        0464072                    :API Well Number
 PROV.        ALBERTA                    :County or Parish
 UNIT.        3125                       :Logging Unit Number
 RMCT.DEGC    8.73000                    :Mudcake Sample Temperature
 RMFT.DEGC    8.73000                    :Mud Filtrate Sample Temperature
 TMAX.DEGC    12.28000                   :Maximum Recorded Temperature
 MUDS.        Flowline                   :Mud Sample Source
  RMT.DEGC    8.73000                    :Mud Sample Temperature
RANGE.        08W4                       :Range
  RMC.OHMM    1.18000                    :Resistivity of Mud Cake Sample
  RMF.OHMM    0.59200                    :Resistivity of Mud Filtrate Sample
   RM.OHMM    0.78900                    :Resistivity of Mud Sample
SECTION.      06-34                      :Section
 TIMC.        01 55 00                   :Time Circulation Stopped
 TIML.        07 55 00                   :Time Logger At Bottom
TOWNSHIP.     091                        :Township
  WIT.        JONATHAN FELL              :Witness s Name
  APD.M       4.00000                    :Elevation of Depth Reference (LMF) Above Permanent Datum
 APIN.        0464072                    :API Well Number
  BHT.DEGC    12.28000                   :Bottom Hole Temperature
  BLI.M       256.00000                  :Bottom Log Interval
   BS.MM      156.00000                  :Bit Size
   CN.        SUNCOR ENERGY INC.         :Company Name
 COUN.        ALBERTA                    :County or Parish
 LDAT.        23-Feb-2014                :Tools Above Rotary Table Date
  DCS.        23-Feb-2014                :Date Circulation Stopped
  DFL.C3      6.00000                    :Drilling Fluid Loss
 DLAB.        23-Feb-2014                :Date Logger At Bottom
  DMF.        KB                         :Drilling Measured From (Name of Drilling Elevation Reference)
  EDF.M       448.70001                  :Elevation of Drill Floor
  EGL.M       445.00000                  :Elevation of Ground Level
  EKB.M       449.00000                  :Elevation of Kelly Bushing
   FD.K/M3    1000.00000                 :Fluid Density
   FL.        6-34-91-8W4               :FIELD LOCATION
  FL1.        1AA063409108W400           :Field Location, Line 1
  FL2.                                   :Field Location, Line 2
   FN.        LEWIS                      :Field Name
 HID1.                                   :Header Identifier 1
 HID2.                                   :Header Identifier 2
 HIDE.        LEWIS                      :Header Identifier
 LATI.        56.934500 degrees          :Latitude
  LMF.        KB                         :Logging Measured From (Name of Logging Elevation Reference)
 LONG.        -111.20540 degrees         :Longitude
 MATR.        SAND                       :Rock Matrix for Neutron Porosity Corrections
 MCSS.        Calculated                 :Mudcake Sample Source
 MDEC.DEG     14.38033                   :Magnetic Field Declination
 MDEN.K/M3    2650.00000                 :Matrix Density for Density Porosity
 MRT1.DEGC    12.28000                   :Maximum Recorded Temperature 1
 MRT2.DEGC    -999.25000                 :Maximum Recorded Temperature 2
  NMT.        NOBARITE                   :HRDD Mud Type for Nuclear Devices
  OS1.                                   :Other Services Line 1
  OS2.                                   :Other Services Line 2
  OS3.                                   :Other Services Line 3
  OS4.                                   :Other Services Line 4
  OS5.                                   :Other Services Line 5
 PDAT.        GL                         :Permanent Datum
   R1.        THANK YOU FOR CHOOSING SCHLUMBERGER  :Remarks Line 1
   R2.        ALL TOOLS RAN AS PER TOOL SKETCH AND ALL PRESENTATIONS AS PER CLIENT REQUEST  :Remarks Line 2
   R3.        INDUCTION LOG – DESCENT #1 :Remarks Line 3
   R4.        NEUTRON / DENSITY LOG – DESCENT #1  :Remarks Line 4
  RMB.OHMM    0.70618                    :Resistivity of Mud at Bottom Hole Temperature
 RMFB.OHMM    0.52986                    :Resistivity of Mud Filtrate At Bottom Hole Temperature
  RUN.        ONE/2                      :Run Number
  SON.        CP4P-00020                 :SERVICE ORDER NUMBER
  TDD.M       256.00000                  :Driller Total Depth
  TDL.M       256.00000                  :Logger Total Depth
  TLI.M       75.00000                   :Top Log Interval
 UWID.        1AA063409108W400           :Unique Well Identifier
   WN.        SUNCOR LEWIS 6-34-91-8     :Well Name
  EPD.C3      445.000000                 :Elevation of Permanent Datum above Mean Sea Level
#-----------------------------------------------------------------------------
#
#      DEPT          BS            C1            C2            DEPTH         DEVIM         DT            EI            EV            FBCR          GR            HAZI          HAZIM         P1AZ        P1NO_FBST       RB            SDEV          TENS          TT1           TT2           TT3           TT4
#
#-----------------------------------------------------------------------------

~A       DEPT           BS           C1           C2        DEPTH        DEVIM           DT           EI           EV         FBCR           GR         HAZI        HAZIM         P1AZ    P1NO_FBST           RB         SDEV         TENS          TT1          TT2          TT3          TT4
# ...
    223.41840     156.00000     153.72836     152.80231     223.41934       0.29488     392.91153    2779.45142      11.46247  127256.89063      18.91446     200.43692     189.73906     301.45013     299.17255     101.01347       0.31424    4820.76025     725.91901     489.82986     726.43243     493.97623
    223.57080     156.00000     153.72836     152.80231     223.57185       0.29326     396.87497    2743.66431      11.52095  208893.96875      15.85115     199.62798     189.47781     301.13031     297.96719     101.50225       0.31270    4796.07275     727.65546     492.25171     729.55988     498.33984
    223.72320     156.00000     154.17105     151.51540     223.72334       0.29224     399.63470    2743.66431      11.54045  473721.40625      14.59436     198.83357     189.28378     299.69345     297.90540     100.86001       0.31175    4747.08643     732.77496     494.35959     734.66479     500.16602
    223.87560     156.00000     153.72836     152.80231     223.87529       0.29055     399.51599    2747.07275      11.48197  475266.09375      15.19920     197.96872     189.06265     299.17264     296.95865     101.20381       0.31080    4944.93994     736.08252     500.94843     738.69934     503.17059
    224.02800     156.00000     153.38354     152.80231     224.02689       0.28840     399.90756    2748.77637      11.59893  424515.75000      13.67528     197.03052     189.04637     297.96729     295.00104     100.93687       0.30962    4730.12793     737.24561     502.94952     740.66211     504.80051
    224.18040     156.00000     153.55595     152.80231     224.17891       0.28659     400.78531    2716.39746      11.79387  413812.21875      16.14964     196.13707     189.12921     297.90549     292.53784     101.76856       0.30924    4676.86035     740.03748     499.06848     741.41730     502.08325
    224.33280     156.00000     153.38354     152.80231     224.33151       0.28477     399.23865    2685.72314      11.96932  295680.46875      14.85354     195.28893     189.31659     296.95871     288.31796     101.66988       0.30777    4664.79443     741.47998     496.71164     741.18909     500.01910
    224.48520     156.00000     156.18576     152.80231     224.48253       0.28277     399.45590    2718.10205      11.93033  590542.43750      15.35618     194.33553     189.67743     295.00110     286.43823     100.66571       0.30595    4667.07422     736.65863     493.61996     737.19543     496.10632
    224.63760     156.00000     156.18576     152.80231     224.63362       0.28042     391.43082    2682.31470      11.73539  822025.37500      15.47393     193.10217     190.06046     290.63519     284.71411      97.53311       0.30398    4944.19824     735.85785     490.42157     738.00513     494.58932
    224.79000     156.00000     156.18576     152.80231     224.78967       0.27813     390.14941    2747.07275      11.40399  428680.31250      17.04492     192.36942     190.57794     287.04190     286.23712      94.67262       0.30133    4897.21387     732.70380     489.98022     730.94177     492.13419
    224.94240     156.00000     156.18576     152.80231     224.94557       0.27595     390.00616    2774.33862      11.28703  520904.25000      21.24733     191.57918     191.03793     285.49765     286.93936      93.91853       0.29805    4881.64551     724.73834     488.67093     726.07385     492.91016
    225.09480     156.00000     154.95706     152.15884     225.09619       0.27281     391.61957    2781.15552      11.22854  127024.02344      23.55670     190.93326     191.54350     285.03094     285.96124      94.09708       0.29547    4871.98877     725.37872     487.75388     727.62860     489.44122
    225.24720     156.00000     156.18576     152.80231     225.24672       0.27048     389.23248    2779.45142      11.20905  207520.64063      25.04897     190.52808     192.00867     286.82535     284.77057      96.29757       0.29404    4990.07080     725.88733     482.37027     726.67767     485.71106
    225.39960     156.00000     156.18576     152.80231     225.40181       0.26772     382.19586    2815.23877      11.05310  220818.70313      23.51694     190.31042     192.18903     286.56311     284.25397      96.25298       0.29289    4756.53906     724.98779     484.13205     725.34534     489.91873
    225.55200     156.00000     156.18576     152.80231     225.55203       0.26525     385.23447    2808.42163      10.97512  457072.93750      20.73632     190.28462     192.58092     285.30518     283.47989      95.02063       0.29269    4802.89307     722.45325     485.64212     722.73871     488.83868
    225.70440     156.00000     155.84695     152.80231     225.70328       0.26278     385.68085    2805.01367      10.85816  126272.52344      19.87249     190.40796     192.71233     284.97839     282.66122      94.57006       0.29331    4822.15039     724.29694     483.70795     727.44867     487.24377
    225.85680     156.00000     156.18576     151.51540     225.85565       0.25868     387.10217    2840.80103      10.72170  585952.18750      20.10849     190.61139     192.88531     284.25406     282.73300      93.64221       0.29448    4747.73535     727.49377     482.82742     729.78967     484.63333
    226.00920     156.00000     156.18576     152.80231     226.00871       0.25572     391.96716    2844.20898      10.46828  234896.14063      21.38087     190.73857     192.97983     283.48001     281.84668      92.74164       0.29550    4742.91650     731.53729     483.39191     733.77240     491.77490
    226.16160     156.00000     155.23109     151.51540     226.16197       0.25234     392.40442    2919.19141      10.23435  130699.92188      21.63212     190.85263     192.99297     282.66135     281.90918      91.80853       0.29672    4765.23145     733.96515     494.90775     733.32489     498.89075
    226.31400     156.00000     155.57140     151.51540     226.31351       0.24928     397.64868    2949.86621      10.09789  149014.93750      18.92216     190.77763     193.01953     282.73315     281.40900      91.95551       0.29788    4715.67090     730.20990     498.04764     732.87836     500.36176
    226.46640     156.00000     155.23109     150.87196     226.46576       0.24617     406.98566    2912.37500      10.11739   81291.82813      16.66001     190.59315     193.04947     281.85797     280.90640      91.26479       0.29900    4544.00684     734.97583     498.73825     736.13031     500.30246
    226.61880     156.00000     155.53905     150.87196     226.61736       0.24292     409.92117    2910.67065      10.13688   91904.96094      15.85886     190.33920     192.95354     281.82300     279.75726      91.48392       0.29861    4707.05273     734.54224     495.84772     736.26465     496.88004
    226.77120     156.00000     155.57140     150.22852     226.77437       0.24038     396.91312    2912.37500      10.19536  170595.20313      16.91923     190.18829     193.04250     281.00403     278.17822      90.81537       0.29790    4897.21387     743.91077     495.78906     744.34351     498.04324
    226.92360     156.00000     154.64989     147.01132     226.92635       0.23833     385.04379    2914.07910      10.17587  903848.87500      17.31985     189.95035     193.07408     280.54001     276.32233      90.58963       0.29655    4791.92090     765.22638     495.79358     767.58612     497.71805
    227.07600     156.00000     156.18576     150.87196     227.07822       0.23672     374.89975    2948.16211      10.11739  639397.93750      17.24131     189.73906     193.21262     278.89709     275.08966      89.15768       0.29488    4809.36182     767.67554     502.97729     764.54401     504.55338
    227.22840     156.00000     158.47676     155.37610     227.22945       0.23559     385.17285    2914.07910      10.21486  858032.68750      16.77002     189.47781     193.48608     277.53107     274.54111      88.05367       0.29326    4922.40234     760.50891     519.81110     752.29010     519.74109
