~VERSION INFORMATION 
VERS.          2.0   :CWLS LOG ASCII STANDARD - VERSION 2.0
WRAP.          NO    :ONE LINE PER DEPTH STEP
PROD.  Schlumberger   :LAS Producer
PROG.  DLIS to ASCII 19C2-270                          :LAS Program name and version
CREA.        2014/02/23 09:08                          :LAS Creation date {YYYY/MM/DD hh:mm}
DLIS_CREA.  2014-Feb-23 08:51                          :DLIS Creation date and time {YYYY-MMM-DD hh:mm}
SOURCE.     1AA063409108W400_FMI_SONIC_REPEAT.dlis     :DLIS File Name
FILE-ID.     ConPr_R2L2Up_S008_FBST_DSLT_HGNS          :File Identification Number
#--------------------------------------------------
~WELL INFORMATION 
#MNEM.UNIT      DATA             DESCRIPTION
#---- ------ --------------   -----------------------------
STRT.M      88.69680        :START DEPTH
STOP.M      258.01320       :STOP DEPTH
STEP.M       0.15240        :STEP
NULL .          -999.25      :NULL VALUE
COMP.        SUNCOR ENERGY INC.                       :COMPANY
WELL.        SUNCOR LEWIS 6-34-91-8                   :WELL
FLD  .        LEWIS                                    :FIELD
LOC.        6-34-91-8W4                              :LOCATION
PROV .        ALBERTA                                  :PROVINCE
UWI.        1AA063409108W400                         :UNIQUE WELL ID
LIC  .        0464072                                  :LICENSE NUMBER
CTRY .        CA                                       :COUNTRY (WWW code)
DATE.        23-Feb-2014                              :LOG DATE {DD-MMM-YYYY}
SRVC .        Schlumberger                             :SERVICE COMPANY
LATI .DEG     56.934500 degrees                        :LATITUDE
LONG .DEG     -111.20540 degrees                       :LONGITUDE
GDAT .                                                 :GeoDetic Datum
SECT .        06-34                                    :Section
RANG .        08W4                                     :Range
TOWN .        091                                      :Township
#-----------------------------------------------------------------------------
~CURVE INFORMATION 
#MNEM.UNIT   API CODE                                  DESCRIPTION
#---- -----  --------                                  -----------------------
 DEPT.M         00 001 00 00             :Depth Index - Measured Depth
   BS.MM        61 280 07 00             :BIT SIZE {F14.5}
   C1.MM        42 280 06 00             :CALIPER 1 {F14.5}
   C2.MM        42 280 05 00             :CALIPER 2 {F14.5}
DEPTH.M         00 001 00 00             :DEPTH INDEX {F14.5}
DEVIM.DEG       00 630 00 00             :MEMORIZED DEVIATION {F14.5}
   DT.US/M      60 520 32 00             :DELTA-T (ALSO CALLED SLOWNESS OR INTERVAL TRANSIT TIME) {F14.5}
   EI.MA        00 000 00 00             :EMEX CURRENT {F14.5}
   EV.V         00 000 00 00             :EMEX VOLTAGE {F14.5}
 FBCR.OHMS      00 000 00 00             :CORRELATION RESISTANCE {F14.5}
   GR.GAPI      42 310 01 00             :GAMMA RAY {F14.5}
 HAZI.DEG       00 620 00 00             :HOLE AZIMUTH RELATIVE TO TRUE NORTH {F14.5}
HAZIM.DEG       00 620 00 00             :HOLE AZIMUTH RELATIVE TO TRUE NORTH {F14.5}
 P1AZ.DEG       00 630 00 00             :PAD 1 AZIMUTH IN HORIZONTAL PLANE (0 = TRUE NORTH) {F14.5}
P1NO_FBST.DEG   00 000 00 00             :PAD 1 AZIMUTH IN PLANE ORTHOGONAL TO TOOL AXIS (0 = TRUE NORTH), MEMORIZED TO FBST {F14.5}
   RB.DEG       00 631 00 00             :RELATIVE BEARING {F14.5}
 SDEV.DEG       00 000 00 00             :SONDE DEVIATION {F14.5}
 TENS.N         61 280 10 00             :CABLE TENSION {F14.5}
  TT1.US        60 520 32 01             :TRANSIT TIME 1 {F14.5}
  TT2.US        60 520 32 02             :TRANSIT TIME 2 {F14.5}
  TT3.US        60 520 32 03             :TRANSIT TIME 3 {F14.5}
  TT4.US        60 520 32 04             :TRANSIT TIME 4 {F14.5}
~PARAMETER INFORMATION 
#MNEM.UNIT    VALUE                      DESCRIPTION
#---- -----   --------------------       ------------------------
 CSGD.M       72.80000                   :Casing Bottom of Driller
 CSGL.M       73.20000                   :Logger Casing Shoe Depth
 CSGS.MM      177.80000                  :Current Casing Size
 CSGW.KG/M    25.30000                   :Casing Weight
 MUDD.K/M3    1090.00000                 :Drilling Fluid Density
  DFL.C3      6.00000                    :Drilling Fluid Loss
   PH.        10.00000                   :Drilling Fluid pH
  MUD.        Polymer                    :Drilling Fluid Type
 MUDV.S       108.00000                  :Drilling Fluid Viscosity
   GL.M       445.00000                  :Elevation of Ground Level
 EREF.M       449.00000                  :Elevation of Kelly Bushing
  ENG.        NICK POLLEY                :Engineer s Name
 DREF.        KB                         :Logging Measured From (Name of Logging Elevation Reference)
 BASE.        WINTER PROJECT             :LOGGING UNIT LOCATION
 FACT.        CP4P-00020                 :Service Order Number
  LIC.        0464072                    :API Well Number
 PROV.        ALBERTA                    :County or Parish
 UNIT.        3125                       :Logging Unit Number
 RMCT.DEGC    8.73000                    :Mudcake Sample Temperature
 RMFT.DEGC    8.73000                    :Mud Filtrate Sample Temperature
 TMAX.DEGC    12.28000                   :Maximum Recorded Temperature
 MUDS.        Flowline                   :Mud Sample Source
  RMT.DEGC    8.73000                    :Mud Sample Temperature
RANGE.        08W4                       :Range
  RMC.OHMM    1.18000                    :Resistivity of Mud Cake Sample
  RMF.OHMM    0.59200                    :Resistivity of Mud Filtrate Sample
   RM.OHMM    0.78900                    :Resistivity of Mud Sample
SECTION.      06-34                      :Section
 TIMC.        01 55 00                   :Time Circulation Stopped
 TIML.        07 55 00                   :Time Logger At Bottom
TOWNSHIP.     091                        :Township
  WIT.        JONATHAN FELL              :Witness s Name
  APD.M       4.00000                    :Elevation of Depth Reference (LMF) Above Permanent Datum
 APIN.        0464072                    :API Well Number
  BHT.DEGC    12.28000                   :Bottom Hole Temperature
  BLI.M       256.00000                  :Bottom Log Interval
   BS.MM      156.00000                  :Bit Size
   CN.        SUNCOR ENERGY INC.         :Company Name
 COUN.        ALBERTA                    :County or Parish
 LDAT.        23-Feb-2014                :Tools Above Rotary Table Date
  DCS.        23-Feb-2014                :Date Circulation Stopped
  DFL.C3      6.00000                    :Drilling Fluid Loss
 DLAB.        23-Feb-2014                :Date Logger At Bottom
  DMF.        KB                         :Drilling Measured From (Name of Drilling Elevation Reference)
  EDF.M       448.70001                  :Elevation of Drill Floor
  EGL.M       445.00000                  :Elevation of Ground Level
  EKB.M       449.00000                  :Elevation of Kelly Bushing
   FD.K/M3    1000.00000                 :Fluid Density
   FL.        6-34-91-8W4               :FIELD LOCATION
  FL1.        1AA063409108W400           :Field Location, Line 1
  FL2.                                   :Field Location, Line 2
   FN.        LEWIS                      :Field Name
 HID1.                                   :Header Identifier 1
 HID2.                                   :Header Identifier 2
 HIDE.        LEWIS                      :Header Identifier
 LATI.        56.934500 degrees          :Latitude
  LMF.        KB                         :Logging Measured From (Name of Logging Elevation Reference)
 LONG.        -111.20540 degrees         :Longitude
 MATR.        SAND                       :Rock Matrix for Neutron Porosity Corrections
 MCSS.        Calculated                 :Mudcake Sample Source
 MDEC.DEG     14.38033                   :Magnetic Field Declination
 MDEN.K/M3    2650.00000                 :Matrix Density for Density Porosity
 MRT1.DEGC    12.28000                   :Maximum Recorded Temperature 1
 MRT2.DEGC    -999.25000                 :Maximum Recorded Temperature 2
  NMT.        NOBARITE                   :HRDD Mud Type for Nuclear Devices
  OS1.                                   :Other Services Line 1
  OS2.                                   :Other Services Line 2
  OS3.                                   :Other Services Line 3
  OS4.                                   :Other Services Line 4
  OS5.                                   :Other Services Line 5
 PDAT.        GL                         :Permanent Datum
   R1.        THANK YOU FOR CHOOSING SCHLUMBERGER  :Remarks Line 1
   R2.        ALL TOOLS RAN AS PER TOOL SKETCH AND ALL PRESENTATIONS AS PER CLIENT REQUEST  :Remarks Line 2
   R3.        INDUCTION LOG – DESCENT #1 :Remarks Line 3
   R4.        NEUTRON / DENSITY LOG – DESCENT #1  :Remarks Line 4
  RMB.OHMM    0.70618                    :Resistivity of Mud at Bottom Hole Temperature
 RMFB.OHMM    0.52986                    :Resistivity of Mud Filtrate At Bottom Hole Temperature
  RUN.        ONE/2                      :Run Number
  SON.        CP4P-00020                 :SERVICE ORDER NUMBER
  TDD.M       256.00000                  :Driller Total Depth
  TDL.M       256.00000                  :Logger Total Depth
  TLI.M       75.00000                   :Top Log Interval
 UWID.        1AA063409108W400           :Unique Well Identifier
   WN.        SUNCOR LEWIS 6-34-91-8     :Well Name
  EPD.C3      445.000000                 :Elevation of Permanent Datum above Mean Sea Level
#-----------------------------------------------------------------------------
#
#      DEPT          BS            C1            C2            DEPTH         DEVIM         DT            EI            EV            FBCR          GR            HAZI          HAZIM         P1AZ        P1NO_FBST       RB            SDEV          TENS          TT1           TT2           TT3           TT4
#
#-----------------------------------------------------------------------------

~A       DEPT           BS           C1           C2        DEPTH        DEVIM           DT           EI           EV         FBCR           GR         HAZI        HAZIM         P1AZ    P1NO_FBST           RB         SDEV         TENS          TT1          TT2          TT3          TT4
# ...
    132.28320     156.00000     161.10054     160.52365     132.28188       0.41048     505.69083    3600.85156       5.30237   51451.77344     111.85281     220.78833     222.24078       1.16289     353.34311     140.37587       0.50896    4565.95117     911.98804     604.19647     912.19324     606.07611
    132.43560     156.00000     161.10054     160.52365     132.43686       0.41125     509.48065    3633.23071       5.28287   50723.83594     110.97280     220.44040     222.80809     359.12195     348.78650     138.68086       0.50355    4422.92236     909.63977     604.38409     908.84991     605.86121
    132.58800     156.00000     159.70699     160.52365     132.59244       0.41229     509.98166    3626.41357       5.30237   47082.91016     112.22956     220.01512     223.33479     355.27359     345.56451     135.26009       0.49700    4599.16455     908.06384     604.11560     907.62463     605.15759
    132.74040     156.00000     161.71490     160.52365     132.74103       0.41266     506.26465    3624.70996       5.30237   47607.55078     108.83633     219.55896     223.82216     351.09903     343.02686     131.53975       0.49067    4474.59326     908.38770     602.43530     908.46722     604.69397
    132.89280     156.00000     161.10054     162.45399     132.89438       0.41328     500.82831    3624.70996       5.30237   53384.40625     110.21893     219.18170     224.15019     346.91595     340.35690     127.73628       0.48401    4481.30518     912.25079     602.10675     912.10797     603.62677
    133.04520     156.00000     160.93718     161.81055     133.05014       0.41498     499.46213    3628.11792       5.26338   56416.07422     110.59611     218.76482     224.43546     344.19479     340.57928     125.43038       0.47860    4585.22705     913.87671     600.15002     913.50684     601.80005
    133.19760     156.00000     161.10054     157.94987     133.20204       0.41665     501.75388    3667.31348       5.28287   47200.62891     110.84742     218.52271     224.70840     341.49219     338.16080     122.97176       0.47349    4527.10352     912.92395     602.70667     910.72205     602.86316
    133.35000     156.00000     158.64316     157.94987     133.35342       0.41845     506.57233    3600.85156       5.26338   46130.65234     108.83665     218.25708     224.93289     340.35571     334.34860     122.09821       0.46906    4469.27637     909.63544     602.76819     909.40515     603.08215
    133.50240     156.00000     158.64316     157.94987     133.50429       0.42085     508.88974    3640.04712       5.26338   43832.43750     108.60857     218.06639     225.02357     339.68872     327.46762     121.62502       0.46533    4467.79395     910.39453     602.93988     908.64648     603.28522
    133.65480     156.00000     160.48619     158.91504     133.65669       0.42329     507.19345    3640.04712       5.26338   46751.77734     110.74497     217.98865     225.07527     336.42242     323.78812     118.43562       0.46117    4483.51074     911.48560     604.07825     910.54578     604.18097
    133.80720     156.00000     161.10054     157.94987     133.80655       0.42544     505.98834    3640.04712       5.22439   50431.55078     111.87592     217.76834     225.09737     332.35052     318.71005     114.58007       0.45689    4578.70264     913.98798     603.58325     912.46448     602.82764
    133.95960     156.00000     159.87184     160.52365     133.95895       0.42663     503.53928    3667.31348       5.20490   48926.77734     106.80958     217.80553     224.99625     327.46790     313.33331     109.66309       0.45195    4575.44092     916.13330     603.51611     913.92126     603.33960
    134.11200     156.00000     161.10054     162.45399     134.11102       0.42777     506.62473    3629.82227       5.20490   47227.94922     105.42725     217.61502     224.85077     323.78851     309.55273     106.17229       0.44659    4798.44482     914.62640     604.24231     912.30865     603.45392
    134.26440     156.00000     163.08966     165.02777     134.26205       0.42842     507.91238    3665.60938       5.18540   43600.85156     107.39874     217.48772     224.60983     318.71057     306.65079     101.22092       0.44062    4619.62646     913.88849     605.50934     911.41492     605.09796
    134.41680     156.00000     160.93718     162.45399     134.41632       0.42847     507.92773    3629.82227       5.20490   44265.90625     112.56754     217.41701     224.34470     313.33398     302.25986      95.91599       0.43369    4599.75781     913.55487     603.86731     911.82935     604.60315
    134.56920     156.00000     161.10054     165.02777     134.56940       0.42774     507.34424    3628.11792       5.20490   50830.62109     114.70400     217.34978     223.91216     309.55347     300.83347      92.20464       0.42683    4729.34912     912.06323     604.07959     910.60248     604.46881
    134.72160     156.00000     165.70818     167.60155     134.72096       0.42678     506.02826    3662.20093       5.20490   51428.44141     108.32488     217.49063     223.51585     304.03815     297.42709      86.54617       0.42099    4611.61963     909.06244     602.82855     908.73645     605.34778
    134.87400     156.00000     161.40771     165.67120     134.87335       0.42538     504.45422    3628.11792       5.22439   49854.50781     108.95309     217.69267     223.01910     301.26974     292.51791      83.57458       0.41579    4701.17725     905.84796     600.87439     906.16943     602.88275
    135.02640     156.00000     165.40100     167.60155     135.02576       0.42366     501.45001    3628.11792       5.26338   50310.18359     105.81126     218.01424     222.54083     299.51843     288.08072      81.50408       0.41160    4619.33008     897.71283     598.90857     901.57947     601.20789
    135.17880     156.00000     161.10054     169.53188     135.17816       0.42169     499.83392    3624.70996       5.32186   53100.06250     109.84190     218.51700     222.10588     294.86163     284.37140      76.34341       0.40900    4463.34570     898.09290     596.25232     899.09424     598.53906
    135.33120     156.00000     161.10054     160.20193     135.33055       0.41992     494.08069    3595.73901       5.39984   59524.81641     100.66759     219.13800     221.66812     290.49481     282.05859      71.35622       0.40727    4687.23926     895.02161     591.88660     895.45538     593.49512
    135.48360     156.00000     159.25751     160.52365     135.48279       0.41918     487.15405    3590.62695       5.45832   56336.70703     101.72785     219.77211     221.43924     285.99384     278.21509      66.22281       0.40745    4447.62842     894.99261     593.24988     895.38312     592.10364
    135.63600     156.00000     156.18576     159.88022     135.63467       0.41827     484.76547    3588.92285       5.51680   70693.80469     100.97401     220.50433     221.33762     283.31979     270.89429      62.81622       0.40738    4501.60010     895.20892     590.89087     894.04834     589.13428
    135.78840     156.00000     156.49294     159.88022     135.78741       0.41946     484.09244    3594.03491       5.53630   61334.38672     104.99570     221.16187     221.37570     279.75928     269.17517      58.59772       0.40883    4605.39209     895.85852     590.61169     892.47522     590.27472
    135.94080     156.00000     158.64316     159.88022     135.94238       0.42192     489.30850    3597.44336       5.51680   57867.32031     105.56898     221.78642     221.43402     275.93619     266.94968      54.14936       0.40945    4756.53906     894.17426     590.72797     890.06091     589.80170
    136.09320     156.00000     158.64316     160.52365     136.09831       0.42562     496.12442    3599.14771       5.51680   58372.20703     106.82569     222.43091     221.60847     270.89575     265.50412      48.46615       0.41013    4820.09277     892.60614     589.90918     888.48340     592.30280
