~VERSION INFORMATION 
VERS.          2.0   :CWLS LOG ASCII STANDARD - VERSION 2.0
WRAP.          NO    :ONE LINE PER DEPTH STEP
PROD.  Schlumberger   :LAS Producer
PROG.  DLIS to ASCII 19C2-270                          :LAS Program name and version
CREA.        2014/02/23 09:08                          :LAS Creation date {YYYY/MM/DD hh:mm}
DLIS_CREA.  2014-Feb-23 08:51                          :DLIS Creation date and time {YYYY-MMM-DD hh:mm}
SOURCE.     1AA063409108W400_FMI_SONIC_MAIN.dlis       :DLIS File Name
FILE-ID.     ConPr_R2L3Up_S008_FBST_DSLT_HGNS          :File Identification Number
#--------------------------------------------------
~WELL INFORMATION 
#MNEM.UNIT      DATA             DESCRIPTION
#---- ------ --------------   -----------------------------
STRT.M      54.71160        :START DEPTH
STOP.M      257.70840       :STOP DEPTH
STEP.M       0.15240        :STEP
NULL .          -999.25      :NULL VALUE
COMP.        SUNCOR ENERGY INC.                       :COMPANY
WELL.        SUNCOR LEWIS 6-34-91-8                   :WELL
FLD  .        LEWIS                                    :FIELD
LOC.        6-34-91-8W4                              :LOCATION
PROV .        ALBERTA                                  :PROVINCE
UWI.        1AA063409108W400                         :UNIQUE WELL ID
LIC  .        0464072                                  :LICENSE NUMBER
CTRY .        CA                                       :COUNTRY (WWW code)
DATE.        23-Feb-2014                              :LOG DATE {DD-MMM-YYYY}
SRVC .        Schlumberger                             :SERVICE COMPANY
LATI .DEG     56.934500 degrees                        :LATITUDE
LONG .DEG     -111.20540 degrees                       :LONGITUDE
GDAT .                                                 :GeoDetic Datum
SECT .        06-34                                    :Section
RANG .        08W4                                     :Range
TOWN .        091                                      :Township
#-----------------------------------------------------------------------------
~CURVE INFORMATION 
#MNEM.UNIT   API CODE                                  DESCRIPTION
#---- -----  --------                                  -----------------------
 DEPT.M         00 001 00 00             :Depth Index - Measured Depth
   BS.MM        61 280 07 00             :BIT SIZE {F14.5}
   C1.MM        42 280 06 00             :CALIPER 1 {F14.5}
   C2.MM        42 280 05 00             :CALIPER 2 {F14.5}
DEPTH.M         00 001 00 00             :DEPTH INDEX {F14.5}
DEVIM.DEG       00 630 00 00             :MEMORIZED DEVIATION {F14.5}
   DT.US/M      60 520 32 00             :DELTA-T (ALSO CALLED SLOWNESS OR INTERVAL TRANSIT TIME) {F14.5}
   EI.MA        00 000 00 00             :EMEX CURRENT {F14.5}
   EV.V         00 000 00 00             :EMEX VOLTAGE {F14.5}
 FBCR.OHMS      00 000 00 00             :CORRELATION RESISTANCE {F14.5}
   GR.GAPI      42 310 01 00             :GAMMA RAY {F14.5}
 HAZI.DEG       00 620 00 00             :HOLE AZIMUTH RELATIVE TO TRUE NORTH {F14.5}
HAZIM.DEG       00 620 00 00             :HOLE AZIMUTH RELATIVE TO TRUE NORTH {F14.5}
 P1AZ.DEG       00 630 00 00             :PAD 1 AZIMUTH IN HORIZONTAL PLANE (0 = TRUE NORTH) {F14.5}
P1NO_FBST.DEG   00 000 00 00             :PAD 1 AZIMUTH IN PLANE ORTHOGONAL TO TOOL AXIS (0 = TRUE NORTH), MEMORIZED TO FBST {F14.5}
   RB.DEG       00 631 00 00             :RELATIVE BEARING {F14.5}
 SDEV.DEG       00 000 00 00             :SONDE DEVIATION {F14.5}
 TENS.N         61 280 10 00             :CABLE TENSION {F14.5}
  TT1.US        60 520 32 01             :TRANSIT TIME 1 {F14.5}
  TT2.US        60 520 32 02             :TRANSIT TIME 2 {F14.5}
  TT3.US        60 520 32 03             :TRANSIT TIME 3 {F14.5}
  TT4.US        60 520 32 04             :TRANSIT TIME 4 {F14.5}
~PARAMETER INFORMATION 
#MNEM.UNIT    VALUE                      DESCRIPTION
#---- -----   --------------------       ------------------------
 CSGD.M       72.80000                   :Casing Bottom of Driller
 CSGL.M       73.20000                   :Logger Casing Shoe Depth
 CSGS.MM      177.80000                  :Current Casing Size
 CSGW.KG/M    25.30000                   :Casing Weight
 MUDD.K/M3    1090.00000                 :Drilling Fluid Density
  DFL.C3      6.00000                    :Drilling Fluid Loss
   PH.        10.00000                   :Drilling Fluid pH
  MUD.        Polymer                    :Drilling Fluid Type
 MUDV.S       108.00000                  :Drilling Fluid Viscosity
   GL.M       445.00000                  :Elevation of Ground Level
 EREF.M       449.00000                  :Elevation of Kelly Bushing
  ENG.        NICK POLLEY                :Engineer s Name
 DREF.        KB                         :Logging Measured From (Name of Logging Elevation Reference)
 BASE.        WINTER PROJECT             :LOGGING UNIT LOCATION
 FACT.        CP4P-00020                 :Service Order Number
  LIC.        0464072                    :API Well Number
 PROV.        ALBERTA                    :County or Parish
 UNIT.        3125                       :Logging Unit Number
 RMCT.DEGC    8.73000                    :Mudcake Sample Temperature
 RMFT.DEGC    8.73000                    :Mud Filtrate Sample Temperature
 TMAX.DEGC    12.28000                   :Maximum Recorded Temperature
 MUDS.        Flowline                   :Mud Sample Source
  RMT.DEGC    8.73000                    :Mud Sample Temperature
RANGE.        08W4                       :Range
  RMC.OHMM    1.18000                    :Resistivity of Mud Cake Sample
  RMF.OHMM    0.59200                    :Resistivity of Mud Filtrate Sample
   RM.OHMM    0.78900                    :Resistivity of Mud Sample
SECTION.      06-34                      :Section
 TIMC.        01 55 00                   :Time Circulation Stopped
 TIML.        07 55 00                   :Time Logger At Bottom
TOWNSHIP.     091                        :Township
  WIT.        JONATHAN FELL              :Witness s Name
  APD.M       4.00000                    :Elevation of Depth Reference (LMF) Above Permanent Datum
 APIN.        0464072                    :API Well Number
  BHT.DEGC    12.28000                   :Bottom Hole Temperature
  BLI.M       256.00000                  :Bottom Log Interval
   BS.MM      156.00000                  :Bit Size
   CN.        SUNCOR ENERGY INC.         :Company Name
 COUN.        ALBERTA                    :County or Parish
 LDAT.        23-Feb-2014                :Tools Above Rotary Table Date
  DCS.        23-Feb-2014                :Date Circulation Stopped
  DFL.C3      6.00000                    :Drilling Fluid Loss
 DLAB.        23-Feb-2014                :Date Logger At Bottom
  DMF.        KB                         :Drilling Measured From (Name of Drilling Elevation Reference)
  EDF.M       448.70001                  :Elevation of Drill Floor
  EGL.M       445.00000                  :Elevation of Ground Level
  EKB.M       449.00000                  :Elevation of Kelly Bushing
   FD.K/M3    1000.00000                 :Fluid Density
   FL.        6-34-91-8W4               :FIELD LOCATION
  FL1.        1AA063409108W400           :Field Location, Line 1
  FL2.                                   :Field Location, Line 2
   FN.        LEWIS                      :Field Name
 HID1.                                   :Header Identifier 1
 HID2.                                   :Header Identifier 2
 HIDE.        LEWIS                      :Header Identifier
 LATI.        56.934500 degrees          :Latitude
  LMF.        KB                         :Logging Measured From (Name of Logging Elevation Reference)
 LONG.        -111.20540 degrees         :Longitude
 MATR.        SAND                       :Rock Matrix for Neutron Porosity Corrections
 MCSS.        Calculated                 :Mudcake Sample Source
 MDEC.DEG     14.38033                   :Magnetic Field Declination
 MDEN.K/M3    2650.00000                 :Matrix Density for Density Porosity
 MRT1.DEGC    12.28000                   :Maximum Recorded Temperature 1
 MRT2.DEGC    -999.25000                 :Maximum Recorded Temperature 2
  NMT.        NOBARITE                   :HRDD Mud Type for Nuclear Devices
  OS1.                                   :Other Services Line 1
  OS2.                                   :Other Services Line 2
  OS3.                                   :Other Services Line 3
  OS4.                                   :Other Services Line 4
  OS5.                                   :Other Services Line 5
 PDAT.        GL                         :Permanent Datum
   R1.        THANK YOU FOR CHOOSING SCHLUMBERGER  :Remarks Line 1
   R2.        ALL TOOLS RAN AS PER TOOL SKETCH AND ALL PRESENTATIONS AS PER CLIENT REQUEST  :Remarks Line 2
   R3.        INDUCTION LOG – DESCENT #1 :Remarks Line 3
   R4.        NEUTRON / DENSITY LOG – DESCENT #1  :Remarks Line 4
  RMB.OHMM    0.70618                    :Resistivity of Mud at Bottom Hole Temperature
 RMFB.OHMM    0.52986                    :Resistivity of Mud Filtrate At Bottom Hole Temperature
  RUN.        ONE/2                      :Run Number
  SON.        CP4P-00020                 :SERVICE ORDER NUMBER
  TDD.M       256.00000                  :Driller Total Depth
  TDL.M       256.00000                  :Logger Total Depth
  TLI.M       75.00000                   :Top Log Interval
 UWID.        1AA063409108W400           :Unique Well Identifier
   WN.        SUNCOR LEWIS 6-34-91-8     :Well Name
  EPD.C3      445.000000                 :Elevation of Permanent Datum above Mean Sea Level
#-----------------------------------------------------------------------------
#
#      DEPT          BS            C1            C2            DEPTH         DEVIM         DT            EI            EV            FBCR          GR            HAZI          HAZIM         P1AZ        P1NO_FBST       RB            SDEV          TENS          TT1           TT2           TT3           TT4
#
#-----------------------------------------------------------------------------

~A       DEPT           BS           C1           C2        DEPTH        DEVIM           DT           EI           EV         FBCR           GR         HAZI        HAZIM         P1AZ    P1NO_FBST           RB         SDEV         TENS          TT1          TT2          TT3          TT4
# ...
    213.20760     156.00000     154.34271     157.94987     213.20949       0.52321     413.33304    2954.97876      10.03941 1572228.62500      12.81886     204.20847     208.98560     123.38808     123.14415     279.18005       0.57184    4804.67236     742.43390     512.70471     741.31512     511.74734
    213.36000     156.00000     156.63145     157.94987     213.36172       0.52061     411.11212    2919.19141      10.27334 2048770.25000      11.18515     204.43689     208.99217     123.50711     122.77681     279.07034       0.57377    5001.87695     752.55487     512.85809     750.91937     509.58151
    213.51240     156.00000     156.80011     157.94987     213.51549       0.51868     408.11353    2854.43408      10.52676 2268503.50000      13.06139     204.61192     209.06995     123.34874     123.62209     278.73761       0.57507    5161.12354     756.87115     510.78864     755.59698     507.75076
    213.66480     156.00000     158.64316     160.52365     213.66687       0.51754     406.87708    2851.02539      10.52676 1880826.00000      13.94118     204.78445     209.15761     122.68320     123.00375     277.89905       0.57626    5018.48389     756.05396     511.28406     754.09454     506.96603
    213.81720     156.00000     158.64316     160.52365     213.81773       0.51692     401.79703    2845.91309      10.62423 1590533.87500      14.94664     204.95807     209.27882     123.29514     120.90671     278.33722       0.57693    4912.31934     757.78662     507.69318     757.50269     504.63129
    213.96960     156.00000     151.88531     157.30644     213.96777       0.51600     399.18237    2839.09644      10.56575  520229.18750      16.02388     205.07930     209.43044     123.42781     120.27107     278.34857       0.57689    5059.70410     759.78644     507.51495     760.18268     506.49582
    214.12200     156.00000     154.34271     157.30644     214.12183       0.51547     401.77130    2839.09644      10.33182  775101.25000      16.02389     205.23996     209.58820     123.00448     119.51381     277.76447       0.57648    4755.42725     765.50720     511.89651     766.61401     511.95804
    214.27440     156.00000     154.95706     157.30644     214.27867       0.51449     407.86459    2874.88379      10.11739  516838.50000      15.77246     205.41702     209.80209     120.90755     119.31437     275.49048       0.57570    4867.83740     775.78229     516.68457     775.70642     516.16443
    214.42680     156.00000     154.95706     157.30644     214.42870       0.51306     414.45120    2907.26245       9.84447  346965.65625      16.21230     205.56270     209.99471     120.27197     116.37030     274.70956       0.57408    4985.56689     780.60858     521.63214     778.23572     524.07599
    214.57920     156.00000     154.34271     157.30644     214.57669       0.51069     425.26276    2939.64136       9.43510  120737.32813      28.52846     205.79778     210.21121     119.51476     112.76210     273.71698       0.57222    4949.38770     783.08759     531.65021     782.02209     532.68713
    214.73160     156.00000     154.34271     155.37610     214.73158       0.50862     436.14621    3006.10303       9.18167  217623.31250      57.68531     206.03113     210.44243     119.31534     109.32690     273.28445       0.57010    4721.23145     787.49500     537.19165     789.15503     534.22876
    214.88400     156.00000     155.09334     156.98470     214.88843       0.50511     432.09042    3012.91968       9.00623   81626.31250      88.97863     206.32292     210.67061     116.37142     107.37851     270.04889       0.56796    4712.74268     798.17444     536.18475     799.83783     534.45898
    215.03640     156.00000     155.57140     157.94987     215.04083       0.50153     430.38354    3048.70703       8.71382  100106.39063     108.45875     206.62392     210.88785     112.76341     104.35192     266.13873       0.56587    5074.23486     812.85907     538.48438     810.85321     538.35474
    215.18880     156.00000     155.57140     157.94987     215.19324       0.49747     434.47571    3084.49414       8.51888  142626.00000     114.77846     206.99167     211.08133     109.32840     108.15559     262.33667       0.56359    5242.08105     809.05872     545.23145     804.21307     545.47968
    215.34120     156.00000     156.01636     157.94987     215.34360       0.49348     439.26178    3116.87280       8.47989   93324.61719     116.03528     207.36971     211.29295     107.38011     107.33832     260.01056       0.56156    4846.48584     800.57971     553.86658     799.17780     552.93842
    215.49360     156.00000     156.63145     157.94987     215.49448       0.48923     452.17661    3121.98560       8.49938   90363.38281     122.31954     207.74435     211.49985     104.35367     107.40601     256.60953       0.55932    5049.91797     801.54840     546.47906     799.72852     541.95526
    215.64600     156.00000     156.80011     157.94987     215.64536       0.48459     451.58167    3091.31079       8.57736   91226.50000     118.26467     208.03636     211.71309     108.15717     108.00262     260.12027       0.55654    4984.38086     797.89948     540.49518     795.77521     541.46503
    215.79840     156.00000     156.46281     157.94987     215.79776       0.48068     436.50488    3091.31079       8.65534  105103.74219     103.93777     208.34888     211.90599     107.33994     107.78400     258.99112       0.55332    4979.33936     791.41547     542.43701     790.64545     540.22540
    215.95080     156.00000     156.18576     157.62816     215.95015       0.47640     422.91000    3082.78979       8.71382  171562.06250      75.65986     208.54118     212.10452     107.40763     107.43005     258.86700       0.54965    4727.56982     790.94525     533.67694     791.24994     530.77887
    216.10320     156.00000     154.34271     155.37610     216.10069       0.47273     408.65573    3048.70703       8.92825  122416.42188      49.01380     208.68103     212.29773     108.00419     107.61420     259.32306       0.54544    4661.14307     788.64667     526.57880     785.47498     522.72308
    216.25560     156.00000     153.99940     152.80231     216.25310       0.46876     411.28406    3043.59448       9.08420  118616.32031      31.04197     208.75531     212.44994     107.78556     107.09379     259.02985       0.54076    4715.11475     777.28430     518.48260     773.62531     513.77991
    216.40800     156.00000     154.34271     152.80231     216.40515       0.46561     413.02194    3009.51172       9.24016  113748.34375      23.12443     208.80957     212.62669     107.43159     106.33257     258.62201       0.53632    4733.79736     770.04791     507.76205     766.67926     504.26254
    216.56040     156.00000     155.57140     155.37610     216.55739       0.46231     408.28482    2975.42847       9.31813  114214.10938      19.35417     208.81932     212.75795     107.61572     104.33582     258.79623       0.53191    4997.42871     760.82233     506.13007     755.27325     504.88693
    216.71280     156.00000     155.57140     155.37610     216.71422       0.45966     401.89514    2980.54102       9.43510  144243.81250      20.23394     208.87489     212.87672     107.09531     103.48277     258.22070       0.52821    5077.36719     751.04407     506.32672     748.12140     505.15567
    216.86520     156.00000     155.40126     155.37610     216.86929       0.45675     399.63776    2948.16211       9.51307  147426.14063      21.36506     208.88792     212.94588     106.33409     103.23516     257.44623       0.52464    4813.56885     748.59973     503.07916     746.52063     500.16022
    217.01760     156.00000     155.57140     155.37610     217.01950       0.45396     397.67294    2951.57080       9.55206  109963.00781      22.11914     209.00838     213.00929     104.33743     101.70832     255.32887       0.52204    4617.25391     745.47180     498.60825     742.37170     495.33893
