~Version Information
 VERS.                2.00:   CWLS log ASCII Standard -VERSION 2.00
 WRAP.                  NO:   One line per frame      
~Well Information Block
#MNEM.UNIT                   Data                        Description
#----.----   -----------------------------------------   -------------------------------
 STRT.M                                       26.9748 : Starting Depth
 STOP.M                                      187.9854 : Ending Depth
 STEP.M                                        0.0762 : Level Spacing
 NULL.                                      -999.2500 : Absent Value
 COMP.       SUNCOR ENERGY INC                        : Company
 WELL.       SUNCOR LEWIS 7-22-92-8                   : Well
 FLD .       UNDEFINED                                : Field
 LOC .       LSD 07-22-092-08W4                       : Location
 PROV.       ALBERTA                                  : Province
 CTRY.       CA                                       : Country
 SRVC.       Baker Hughes                             : Service Company
 DATE.       16-JAN-2016                              : Log Date
 UWI .       1AA072209208W400                         : Unique Well ID
 LIC .       0477502                                  : License Number
 LATI.DEG    57.0175 N                                : Latitude Coordinates
 LONG.DEG    -111.419 W                               : Longitude Coordinates
~Curve Information Block
#MNEM    .UNIT        API Codes     Curve Description
#--------.--------   LG--CV-CL--M   -------------------------------
 DEPT    .M           0 001  0  1 : Depth
 AZSTQH  .deg        99 995 99  1 : Azimuth of reference pad for STAR
 BKRGQH  .dim        99 995 99  1 : Bucker driver value
 DEVSTQH .deg        99 995 99  1 : Deviation for STAR
 DIP1QH  .raw        75 610  1  1 : Pad 1 average data of buttons 11, 12, 13, 14
 DIP2QH  .raw        75 610  1  1 : Pad 2 average data of buttons 11, 12, 13, 14
 DIP3QH  .raw        75 610  1  1 : Pad 3 average data of buttons 11, 12, 13, 14
 DIP4QH  .raw        75 610  1  1 : Pad 4 average data of buttons 11, 12, 13, 14
 DIP5QH  .raw        75 610  1  1 : Pad 5 average data of buttons 11, 12, 13, 14
 DIP6QH  .raw        75 610  1  1 : Pad 6 average data of buttons 11, 12, 13, 14
 GR      .gAPI       30 310  1  1 : Gamma ray
 PADFQH  .pct        94 995 99  1 : Pad force
 PADGQH  .dim        99 995 99  1 : Pad gain code
 RAD1QH  .mm         75 280 99  1 : Radius, tool axis to pad 1 face
 RAD2QH  .mm         75 280 99  1 : Radius, tool axis to pad 2 face
 RAD3QH  .mm         75 280 99  1 : Radius, tool axis to pad 3 face
 RAD4QH  .mm         75 280 99  1 : Radius, tool axis to pad 4 face
 RAD5QH  .mm         75 280 99  1 : Radius, tool axis to pad 5 face
 RAD6QH  .mm         75 280 99  1 : Radius, tool axis to pad 6 face
 RAZGSTQH.mG         99 995 99  1 : Raw Z-axis accelerometer shifted to STAR
 RBSTQH  .deg        99 995 99  1 : Relative bearing (relative to borehole high side) for STAR
 SPD     .m/min      99 636 99  1 : Speed
~Parameter Information Block
#MNEM.UNIT                     Value                    Description
#----.----   ----------------------------------------   -------------------------------
 HID1.       RESISTIVITY IMAGING LOG^T                : Header Identifer
 HID2.       GAMMA RAY LOG                            : Header Identifer
 FILE.       3953                                     : File Number
 CMT1.       UID                                      : Comment 1  
 CMT2.       1AA072209208W400                         : Comment 2  
 CMT3.       LICENSE                                  : Comment 3  
 CMT4.       0477502                                  : Comment 4  
 FL2 .       BH LOC. LSD  07                          : Field Location 2
 SECT.       22                                       : Section
 TOWN.       092                                      : Township
 RANG.       08W4                                     : Range
 OS1 .       ZDL-CN-GR-CAL                            : Other Services Line 1
 OS2 .       HDIL-GR-CAL, CVL                         : Other Services Line 2
 OS3 .       DAL-GR-CAL                               : Other Services Line 3
 OS4 .       COMPOSITE                                : Other Services Line 4
 PDAT.       G.L.                                     : Permanent Datum
 EPD .M      438.50                                   : Elevation Of Perm. Datum
 LMF .       K.B.                                     : Log Measured From
 APD .M      2.20                                     : Above Permanent Datum
 DMF .       KELLY BUSHING                            : Drilling Measured From
 EKB .M      440.70                                   : Elevation Of Kelly Bushing
 EGL .M      438.50                                   : Elevation Of Ground Level
 RUN .       1                                        : Run Number
 TRIP.       1                                        : Trip Number
 SON .       CA003953J                                : Service Order Number
 TDD .M      187.0                                    : Total Depth - Driller
 TDL .M      186.3                                    : Total Depth - Logger
 BLI .M      183.0                                    : Bottom Log Interval
 TLI .M      55.0                                     : Top Log Interval
 CSIZ.MM     177.8                                    : Casing Size
 CBDR.M      49.4                                     : Casing Bottom - Driller
 CBLO.M      49.4                                     : Casing Bottom - Logger
 BS  .MM     156.0                                    : Bit Size
 DFT .       WB (WATER BASE MUD)                      : Drilling Fluid Type
 DFD .G/L    1030.0                                   : Drilling Fluid Density
 DFV .S      79.0                                     : Drilling Fluid Viscosity
 DFPH.       7.0                                      : Drilling Fluid Ph
 DFL .ML     8.0                                      : Drilling Fluid Loss
 MSS .       F (FLOWLINE)                             : Mud Sample Source
 RMS .OHMM   1.2                                      : Resistivity Of Mud Sample
 MST .DEGC   25.0                                     : Mud Sample Temperature
 RMFS.OHMM   1.0                                      : Resistivity Of Mud Filtrate Sample
 MFST.DEGC   25.0                                     : Mud Filtrate Sample Temperature
 RMCS.OHMM   1.4                                      : Resistivity Of Mud Cake Sample
 MCST.DEGC   25.0                                     : Mud Cake Sample Temperature
 MFSS.       CALCULATED                               : Mud Filtrate Sample Source
 MCSS.       CALCULATED                               : Mud Cake Sample Source
 RMB .OHMM   2.0                                      : Mud Resistivity At Bht
 BHT .DEGC   7.0                                      : Bottom Hole Temperature
 TSC .       5.0 HOURS                                : Time Since Circulation
 MRT .DEGC   7.0                                      : Maximum Recorded Temperature
 LUN .       Z004250                                  : Logging Unit Number
 LUL .       LEDUC OH                                 : Logging Unit Location
 ENGI.       A.MALIK                                  : Engineer's Name
 WITN.       H.WILSON / P.ENE                         : Witness' Name
 TSTR.       /STAR/GR/                                : Title Service Mnemonic
 TSTG.       NA                                       : Title Service Mnemonic
 STUS.       FINAL                                    : Status
 LCNM.       BAKER ATLAS                              : Logging Company Name
 LCC .       150                                      : Logging Company Code
 OPMD.       OH.WIRE                                  : Operation Mode
 PANA.       A.MALIK                                  : Processing Analyst
 PCON.       BAKER ATLAS                              : Processing Contractor
 APIN.                                                : API Serial Number
 STAT.                                                : State Or Province
~Other information
LAT/LON  57.0175, -111.419                                                      
TIME STOPPED CIRCULATION  16-JAN-2016 0830AM                                    
STAR RUN WITH 0% PAD FORCE AND AUTOMATICALLY CONTROLLED GAINS                   
ANY STICK AND PULL AFFECTS LOG QUALITY                                          
RIG  ENCORE 402                                                                 
CREW  F.AJAGU, A.MALIK                                                          
#  Curve Data
~A   DEPT         AZSTQH       BKRGQH       DEVSTQH      DIP1QH       DIP2QH       DIP3QH       DIP4QH       DIP5QH       DIP6QH       GR           PADFQH       PADGQH       RAD1QH       RAD2QH       RAD3QH       RAD4QH       RAD5QH       RAD6QH       RAZGSTQH     RBSTQH       SPD       
# ...
     163.5252     179.7808      10.0000       0.4204     230.0000     199.0000     202.0000     195.0000     205.0000       7.0000      22.5807       1.2366       6.0000      82.9641      77.9083      76.1395      77.2564      84.6090      81.9278    1018.6942     106.3617       3.5199
     163.6014     179.7808      10.0000       0.4205     334.0000     178.0000     191.0000     289.0000     177.0000       5.0000      23.1395       1.2366       6.0000      82.0698      78.7913      76.0102      77.7692      84.6090      81.9278    1005.6026     106.3617       3.5228
     163.6776     180.2049      10.0000       0.4205     382.0000     232.0000     429.0000     197.0000     287.0000      64.0000      23.3037       1.2366       6.0000      82.5809      78.4129      76.2688      76.8718      84.6090      82.3041     999.0568     106.3617       3.5251
     163.7538     180.7951      10.0000       0.4205     405.0000     423.0000     332.0000     444.0000     309.0000      34.0000      23.1332       1.2366       7.0000      82.0698      79.6742      76.2688      78.1538      84.7370      83.0568    1008.8755     106.3617       3.5264
     163.8300     180.9369      10.0000       0.4205     289.0000     506.0000     217.0000     584.0000     287.0000     258.0000      22.7929       1.2366       7.0000      82.9641      79.6742      76.2688      78.1538      84.6090      86.0677    1012.1484     106.3617       3.5257
     163.9062     180.3465      10.0000       0.4204     406.0000     326.0000     247.0000     356.0000     277.0000       6.0000      22.4770       1.2366       7.0000      82.9641      77.9083      76.2688      76.4872      84.6090      84.1859    1014.6031     106.3617       3.5221
     163.9824     179.6138      10.0000       0.4205     357.0000     253.0000     301.0000     388.0000     245.0000       8.0000      22.3217       1.2366       7.0000      83.0919      77.9083      76.2688      76.8718      84.6090      83.9350    1009.6937     106.3617       3.5162
     164.0586     178.8807      10.0000       0.4206     607.0000     341.0000     373.0000     490.0000     536.0000      36.0000      22.4085       1.2366       7.0000      82.7086      77.9083      76.2688      77.2564      84.6090      84.9386    1013.7849     106.3617       3.5097
     164.1348     178.8807      10.0000       0.4206     367.0000     611.0000     290.0000     548.0000     616.0000      83.0000      22.7444       1.2366       7.0000      82.9641      77.9083      76.2688      76.3590      84.6090      84.6877    1015.4213     106.3617       3.5039
     164.2110     178.5989      10.0000       0.4205     388.0000     182.0000     333.0000     913.0000     292.0000     218.0000      23.1999       1.2366       7.0000      82.1976      77.9083      75.8809      76.3590      84.7370      84.8132    1016.2395     106.3617       3.4997
     164.2872     178.4293      10.0000       0.4205     538.0000     264.0000     386.0000     440.0000     413.0000       8.0000      23.5767       1.2366       7.0000      80.0257      77.9083      75.4930      76.8718      84.6090      81.0496    1008.0573     106.3617       3.4969
     164.3634     178.2884      10.0000       0.4205     285.0000     412.0000     315.0000     432.0000     233.0000      92.0000      23.6772       1.2366       7.0000      79.1314      77.9083      75.1051      75.9743      82.9454      79.0424    1008.0573     106.3617       3.4945
     164.4396     178.0070      10.0000       0.4204     470.0000     266.0000     385.0000     456.0000     245.0000      17.0000      23.3882       1.2366       7.0000      79.0037      77.9083      74.9758      75.3333      82.9454      77.5370    1030.1494     106.3617       3.4922
     164.5158     178.0070      10.0000       0.4206     333.0000     247.0000     243.0000     234.0000     266.0000      11.0000      22.7270       1.2366       7.0000      80.2812      77.9083      75.1051      76.1025      82.4335      81.6769    1008.8755     106.3617       3.4909
     164.5920     178.0070      10.0000       0.4206     345.0000     297.0000     348.0000     389.0000     372.0000      14.0000      21.8059       1.1304       7.0000      79.1314      77.9083      74.5879      76.3590      82.5615      81.9278    1001.5114     106.3617       3.4894
     164.6682     177.8665      10.0000       0.4205     453.0000     344.0000     419.0000     494.0000     258.0000      20.0000      20.7972       1.2366       7.0000      79.0037      77.9083      75.4930      76.1025      82.5615      79.7951    1011.3301     106.3617       3.4870
     164.7444     178.0070      10.0000       0.4203     189.0000     294.0000     255.0000     327.0000     174.0000      29.0000      19.8740       1.2366       7.0000      79.1314      77.5299      76.2688      75.9743      82.4335      80.6733    1010.5120     106.3617       3.4836
     164.8206     177.2428      10.0000       0.4205     213.0000     389.0000     201.0000     402.0000     238.0000      22.0000      19.1648       1.2366       7.0000      81.5588      77.9083      75.8809      77.3846      84.0971      82.6805    1002.3297     106.3617       3.4800
     164.8968     177.1024      10.0000       0.4205     341.0000     346.0000     387.0000     195.0000     294.0000       3.0000      18.7424       1.2366       7.0000      80.2812      78.0345      76.6567      77.2564      84.6090      82.0532    1007.2390     106.3617       3.4765
     164.9730     176.6490      10.0000       0.4205     301.0000     250.0000     262.0000     370.0000     325.0000       6.0000      18.6466       1.2366       7.0000      81.0478      78.2867      77.1739      77.3846      84.6090      81.9278    1011.3301     106.3617       3.4727
     165.0492     176.0551      10.0000       0.4180     479.0000     207.0000     227.0000     264.0000     462.0000      23.0000      18.9268       1.2366       7.0000      80.6645      78.2867      77.5619      77.2564      84.6090      81.9278    1011.3301     100.0215       3.4678
     165.1254     175.0438      10.0000       0.4179     450.0000     257.0000     254.0000     329.0000     265.0000      19.0000      19.6101       1.2366       7.0000      81.0478      78.4129      77.6911      77.2564      84.9929      81.9278    1004.7843     100.0215       3.4622
     165.2016     173.6807      10.0000       0.4179     397.0000     239.0000     296.0000     248.0000     267.0000       8.0000      20.6192       1.2366       7.0000      80.9200      78.2867      78.0791      77.2564      86.5285      81.9278    1003.9661     100.0215       3.4576
     165.2778     173.2257      10.0000       0.4179     323.0000     244.0000     421.0000     325.0000     307.0000       5.0000      21.7952       1.2366       7.0000      79.5147      78.9174      77.6911      78.5384      85.1209      83.1823    1007.2390     100.0215       3.4555
     165.3540     173.0880      10.0000       0.4179     213.0000     245.0000     169.0000     369.0000     281.0000       4.0000      22.9153       1.2366       7.0000      82.0698      78.7913      77.6911      78.1538      84.9929      83.9350    1012.9667     100.0215       3.4571
     165.4302     172.7705      10.0000       0.4180     255.0000     135.0000     275.0000     281.0000     236.0000       5.0000      23.7305       1.2366       7.0000      82.5809      78.7913      77.5619      78.1538      85.1209      85.6913    1003.9661     100.0215       3.4630
     165.5064     172.3152      10.0000       0.4180     259.0000     189.0000     252.0000     304.0000     276.0000       7.0000      24.0864       1.2366       7.0000      82.1976      78.7913      77.6911      77.7692      84.6090      85.8168    1012.1484     100.0215       3.4711
     165.5826     171.8598      10.0000       0.4179     344.0000     227.0000     335.0000     318.0000     379.0000       3.0000      23.9657       1.2366       7.0000      82.9641      78.4129      77.1739      78.5384      84.6090      84.9386    1008.0573     100.0215       3.4782
