~VERSION INFORMATION 
VERS.          2.0   :CWLS LOG ASCII STANDARD - VERSION 2.0
WRAP.          NO    :ONE LINE PER DEPTH STEP
PROD.  Schlumberger   :LAS Producer
PROG.  DLIS to ASCII 19C2-270                          :LAS Program name and version
CREA.        2014/02/23 09:08                          :LAS Creation date {YYYY/MM/DD hh:mm}
DLIS_CREA.  2014-Feb-23 08:51                          :DLIS Creation date and time {YYYY-MMM-DD hh:mm}
SOURCE.     1AA063409108W400_FMI_SONIC_MAIN.dlis       :DLIS File Name
FILE-ID.     ConPr_R2L3Up_S008_FBST_DSLT_HGNS          :File Identification Number
#--------------------------------------------------
~WELL INFORMATION 
#MNEM.UNIT      DATA             DESCRIPTION
#---- ------ --------------   -----------------------------
STRT.M      54.71160        :START DEPTH
STOP.M      257.70840       :STOP DEPTH
STEP.M       0.15240        :STEP
NULL .          -999.25      :NULL VALUE
COMP.        SUNCOR ENERGY INC.                       :COMPANY
WELL.        SUNCOR LEWIS 6-34-91-8                   :WELL
FLD  .        LEWIS                                    :FIELD
LOC.        6-34-91-8W4                              :LOCATION
PROV .        ALBERTA                                  :PROVINCE
UWI.        1AA063409108W400                         :UNIQUE WELL ID
LIC  .        0464072                                  :LICENSE NUMBER
CTRY .        CA                                       :COUNTRY (WWW code)
DATE.        23-Feb-2014                              :LOG DATE {DD-MMM-YYYY}
SRVC .        Schlumberger                             :SERVICE COMPANY
LATI .DEG     56.934500 degrees                        :LATITUDE
LONG .DEG     -111.20540 degrees                       :LONGITUDE
GDAT .                                                 :GeoDetic Datum
SECT .        06-34                                    :Section
RANG .        08W4                                     :Range
TOWN .        091                                      :Township
#-----------------------------------------------------------------------------
~CURVE INFORMATION 
#MNEM.UNIT   API CODE                                  DESCRIPTION
#---- -----  --------                                  -----------------------
 DEPT.M         00 001 00 00             :Depth Index - Measured Depth
   BS.MM        61 280 07 00             :BIT SIZE {F14.5}
   C1.MM        42 280 06 00             :CALIPER 1 {F14.5}
   C2.MM        42 280 05 00             :CALIPER 2 {F14.5}
DEPTH.M         00 001 00 00             :DEPTH INDEX {F14.5}
DEVIM.DEG       00 630 00 00             :MEMORIZED DEVIATION {F14.5}
   DT.US/M      60 520 32 00             :DELTA-T (ALSO CALLED SLOWNESS OR INTERVAL TRANSIT TIME) {F14.5}
   EI.MA        00 000 00 00             :EMEX CURRENT {F14.5}
   EV.V         00 000 00 00             :EMEX VOLTAGE {F14.5}
 FBCR.OHMS      00 000 00 00             :CORRELATION RESISTANCE {F14.5}
   GR.GAPI      42 310 01 00             :GAMMA RAY {F14.5}
 HAZI.DEG       00 620 00 00             :HOLE AZIMUTH RELATIVE TO TRUE NORTH {F14.5}
HAZIM.DEG       00 620 00 00             :HOLE AZIMUTH RELATIVE TO TRUE NORTH {F14.5}
 P1AZ.DEG       00 630 00 00             :PAD 1 AZIMUTH IN HORIZONTAL PLANE (0 = TRUE NORTH) {F14.5}
P1NO_FBST.DEG   00 000 00 00             :PAD 1 AZIMUTH IN PLANE ORTHOGONAL TO TOOL AXIS (0 = TRUE NORTH), MEMORIZED TO FBST {F14.5}
   RB.DEG       00 631 00 00             :RELATIVE BEARING {F14.5}
 SDEV.DEG       00 000 00 00             :SONDE DEVIATION {F14.5}
 TENS.N         61 280 10 00             :CABLE TENSION {F14.5}
  TT1.US        60 520 32 01             :TRANSIT TIME 1 {F14.5}
  TT2.US        60 520 32 02             :TRANSIT TIME 2 {F14.5}
  TT3.US        60 520 32 03             :TRANSIT TIME 3 {F14.5}
  TT4.US        60 520 32 04             :TRANSIT TIME 4 {F14.5}
~PARAMETER INFORMATION 
#MNEM.UNIT    VALUE                      DESCRIPTION
#---- -----   --------------------       ------------------------
 CSGD.M       72.80000                   :Casing Bottom of Driller
 CSGL.M       73.20000                   :Logger Casing Shoe Depth
 CSGS.MM      177.80000                  :Current Casing Size
 CSGW.KG/M    25.30000                   :Casing Weight
 MUDD.K/M3    1090.00000                 :Drilling Fluid Density
  DFL.C3      6.00000                    :Drilling Fluid Loss
   PH.        10.00000                   :Drilling Fluid pH
  MUD.        Polymer                    :Drilling Fluid Type
 MUDV.S       108.00000                  :Drilling Fluid Viscosity
   GL.M       445.00000                  :Elevation of Ground Level
 EREF.M       449.00000                  :Elevation of Kelly Bushing
  ENG.        NICK POLLEY                :Engineer s Name
 DREF.        KB                         :Logging Measured From (Name of Logging Elevation Reference)
 BASE.        WINTER PROJECT             :LOGGING UNIT LOCATION
 FACT.        CP4P-00020                 :Service Order Number
  LIC.        0464072                    :API Well Number
 PROV.        ALBERTA                    :County or Parish
 UNIT.        3125                       :Logging Unit Number
 RMCT.DEGC    8.73000                    :Mudcake Sample Temperature
 RMFT.DEGC    8.73000                    :Mud Filtrate Sample Temperature
 TMAX.DEGC    12.28000                   :Maximum Recorded Temperature
 MUDS.        Flowline                   :Mud Sample Source
  RMT.DEGC    8.73000                    :Mud Sample Temperature
RANGE.        08W4                       :Range
  RMC.OHMM    1.18000                    :Resistivity of Mud Cake Sample
  RMF.OHMM    0.59200                    :Resistivity of Mud Filtrate Sample
   RM.OHMM    0.78900                    :Resistivity of Mud Sample
SECTION.      06-34                      :Section
 TIMC.        01 55 00                   :Time Circulation Stopped
 TIML.        07 55 00                   :Time Logger At Bottom
TOWNSHIP.     091                        :Township
  WIT.        JONATHAN FELL              :Witness s Name
  APD.M       4.00000                    :Elevation of Depth Reference (LMF) Above Permanent Datum
 APIN.        0464072                    :API Well Number
  BHT.DEGC    12.28000                   :Bottom Hole Temperature
  BLI.M       256.00000                  :Bottom Log Interval
   BS.MM      156.00000                  :Bit Size
   CN.        SUNCOR ENERGY INC.         :Company Name
 COUN.        ALBERTA                    :County or Parish
 LDAT.        23-Feb-2014                :Tools Above Rotary Table Date
  DCS.        23-Feb-2014                :Date Circulation Stopped
  DFL.C3      6.00000                    :Drilling Fluid Loss
 DLAB.        23-Feb-2014                :Date Logger At Bottom
  DMF.        KB                         :Drilling Measured From (Name of Drilling Elevation Reference)
  EDF.M       448.70001                  :Elevation of Drill Floor
  EGL.M       445.00000                  :Elevation of Ground Level
  EKB.M       449.00000                  :Elevation of Kelly Bushing
   FD.K/M3    1000.00000                 :Fluid Density
   FL.        6-34-91-8W4               :FIELD LOCATION
  FL1.        1AA063409108W400           :Field Location, Line 1
  FL2.                                   :Field Location, Line 2
   FN.        LEWIS                      :Field Name
 HID1.                                   :Header Identifier 1
 HID2.                                   :Header Identifier 2
 HIDE.        LEWIS                      :Header Identifier
 LATI.        56.934500 degrees          :Latitude
  LMF.        KB                         :Logging Measured From (Name of Logging Elevation Reference)
 LONG.        -111.20540 degrees         :Longitude
 MATR.        SAND                       :Rock Matrix for Neutron Porosity Corrections
 MCSS.        Calculated                 :Mudcake Sample Source
 MDEC.DEG     14.38033                   :Magnetic Field Declination
 MDEN.K/M3    2650.00000                 :Matrix Density for Density Porosity
 MRT1.DEGC    12.28000                   :Maximum Recorded Temperature 1
 MRT2.DEGC    -999.25000                 :Maximum Recorded Temperature 2
  NMT.        NOBARITE                   :HRDD Mud Type for Nuclear Devices
  OS1.                                   :Other Services Line 1
  OS2.                                   :Other Services Line 2
  OS3.                                   :Other Services Line 3
  OS4.                                   :Other Services Line 4
  OS5.                                   :Other Services Line 5
 PDAT.        GL                         :Permanent Datum
   R1.        THANK YOU FOR CHOOSING SCHLUMBERGER  :Remarks Line 1
   R2.        ALL TOOLS RAN AS PER TOOL SKETCH AND ALL PRESENTATIONS AS PER CLIENT REQUEST  :Remarks Line 2
   R3.        INDUCTION LOG – DESCENT #1 :Remarks Line 3
   R4.        NEUTRON / DENSITY LOG – DESCENT #1  :Remarks Line 4
  RMB.OHMM    0.70618                    :Resistivity of Mud at Bottom Hole Temperature
 RMFB.OHMM    0.52986                    :Resistivity of Mud Filtrate At Bottom Hole Temperature
  RUN.        ONE/2                      :Run Number
  SON.        CP4P-00020                 :SERVICE ORDER NUMBER
  TDD.M       256.00000                  :Driller Total Depth
  TDL.M       256.00000                  :Logger Total Depth
  TLI.M       75.00000                   :Top Log Interval
 UWID.        1AA063409108W400           :Unique Well Identifier
   WN.        SUNCOR LEWIS 6-34-91-8     :Well Name
  EPD.C3      445.000000                 :Elevation of Permanent Datum above Mean Sea Level
#-----------------------------------------------------------------------------
#
#      DEPT          BS            C1            C2            DEPTH         DEVIM         DT            EI            EV            FBCR          GR            HAZI          HAZIM         P1AZ        P1NO_FBST       RB            SDEV          TENS          TT1           TT2           TT3           TT4
#
#-----------------------------------------------------------------------------

~A       DEPT           BS           C1           C2        DEPTH        DEVIM           DT           EI           EV         FBCR           GR         HAZI        HAZIM         P1AZ    P1NO_FBST           RB         SDEV         TENS          TT1          TT2          TT3          TT4
# ...
    133.95960     156.00000     163.23721     163.09743     133.96082       0.54061     502.89749    3631.52637       5.16591   44927.91016     103.18083     228.87979     224.63707     146.30331     134.44470     277.42191       0.50363    4485.58691     917.78223     606.83728     913.55823     603.65533
    134.11200     156.00000     163.23721     163.09743     134.11281       0.54016     505.48703    3629.82227       5.16591   46999.08594     105.06594     229.02623     224.34216     142.86887     130.36813     273.84479       0.50432    4447.90381     915.88672     606.47467     912.44916     604.51947
    134.26440     156.00000     163.55794     165.02777     134.26477       0.53925     507.01666    3592.33081       5.14642   45298.93750     103.44818     229.09651     224.03740     137.68367     127.55766     268.58575       0.50664    4529.17920     915.13940     607.76404     912.31421     604.81421
    134.41680     156.00000     162.32924     165.02777     134.41652       0.53727     507.23053    3631.52637       5.16591   47499.91016     104.07683     229.20572     223.66183     134.44600     123.77441     265.23944       0.50852    4538.45703     914.58392     607.85980     912.43182     604.61322
    134.56920     156.00000     167.39462     168.24498     134.56770       0.53463     507.13452    3600.85156       5.18540   46466.19531     108.59209     229.34990     223.18742     130.36961     122.10078     261.01932       0.51143    4511.68311     912.75800     607.58545     910.26202     606.00861
    134.72160     156.00000     168.00821     169.21016     134.72264       0.53143     505.07382    3604.26001       5.18540   47947.53906     110.08389     229.56087     222.80850     124.94344     117.86523     255.38235       0.51446    4463.64209     910.74188     606.00446     908.06396     605.10052
    134.87400     156.00000     166.01534     167.60155     134.87445       0.52735     503.17929    3636.63867       5.22439   50298.06250     113.78219     229.59991     222.29805     123.11125     114.37617     253.50998       0.51816    4628.37451     907.67743     603.77966     905.23383     602.19489
    135.02640     156.00000     168.01047     171.46220     135.02423       0.52305     500.33258    3605.96411       5.26338   49820.62500     110.90059     229.67447     221.84935     120.52068     109.90702     250.84616       0.52268    4426.27734     902.42169     601.70380     900.68262     600.30096
    135.17880     156.00000     160.77380     163.74088     135.17714       0.51938     497.40845    3600.85156       5.32186   56025.66406     108.76467     229.55202     221.39534     115.69270     106.45020     246.14005       0.52656    4510.49658     899.77209     600.50525     897.31671     597.11383
    135.33120     156.00000     161.10054     162.45399     135.33157       0.51624     491.46442    3604.26001       5.39984   54844.75391     109.84208     229.37259     220.95329     112.14496     101.96358     242.76920       0.53042    4539.85498     897.04132     596.84760     894.90778     592.75543
    135.48360     156.00000     158.64316     160.84537     135.48668       0.51448     485.62552    3565.06470       5.43883   64261.64063     107.70582     229.05469     220.63731     108.01120      99.05685     238.95383       0.53403    4363.70557     897.50421     595.18628     894.93469     590.03577
    135.63600     156.00000     156.93939     160.52365     135.64044       0.51414     484.27457    3568.47266       5.51680   70312.22656     105.94592     228.63617     220.37532     104.47672      96.61579     235.83762       0.53750    4496.26270     897.38171     592.91614     893.83875     588.64246
    135.78840     156.00000     158.31039     160.52365     135.79283       0.51544     483.95453    3565.06470       5.51680   61384.78516     103.52192     228.11574     220.22427     100.34467      94.59236     232.22867       0.53947    4506.64160     896.73505     593.64655     892.28979     589.53192
    135.94080     156.00000     159.70546     160.52365     135.94179       0.51854     489.96527    3566.76831       5.51680   60126.12891     101.26002     227.63330     220.18707      97.57121      92.00974     229.93610       0.54143    4541.95215     894.89319     593.87738     889.55457     590.57507
    136.09320     156.00000     160.77380     162.45399     136.09239       0.52128     494.96414    3563.36035       5.49731   51434.11719     101.63712     227.18719     220.13142      95.70991      90.86668     228.52165       0.54269    4613.39893     893.08099     595.02911     887.90863     593.49225
    136.24560     156.00000     160.77380     162.45399     136.24547       0.52478     495.65439    3565.06470       5.45832   46834.80469      99.66203     226.73026     220.09837      93.29076      89.65730     226.55887       0.54313    4524.13770     890.76056     597.79169     888.16797     594.02948
    136.39800     156.00000     161.10054     162.45399     136.39990       0.52856     494.81766    3566.76831       5.45832   54229.27344     104.31168     226.34828     220.09720      91.40972      87.87981     225.05949       0.54387    4568.62012     892.74817     597.44031     892.44855     593.58868
    136.55040     156.00000     161.10054     162.45399     136.55467       0.53106     489.40012    3604.26001       5.47781   55674.18750     104.81420     226.05518     219.97679      90.23163      85.87466     224.17601       0.54305    4516.72412     896.71454     595.71753     896.11035     592.70618
    136.70280     156.00000     160.93718     162.13225     136.70560       0.53331     485.89536    3568.47266       5.43883   62987.83203     105.17500     225.81186     219.87971      88.91124      84.48551     223.09679       0.54319    4500.64697     898.25745     594.47998     897.23303     591.89581
    136.85520     156.00000     161.10054     160.52365     136.85658       0.53454     487.44907    3599.14771       5.45832   67834.98438     103.28890     225.61592     219.71146      86.87737      80.46355     221.26152       0.54286    4516.72461     898.59235     594.57983     897.90509     593.27856
    137.00760     156.00000     160.77380     160.52365     137.00604       0.53549     490.41678    3561.65625       5.49731   50431.81250     105.04900     225.43256     219.56493      85.13718      76.64320     219.70378       0.54207    4469.50977     890.87415     595.37830     882.67523     594.78290
    137.16000     156.00000     160.77380     162.45399     137.15784       0.53778     491.71973    3559.95190       5.51680   46681.06250     104.81416     225.29546     219.55429      82.96848      73.53178     217.67159       0.54195    4475.20752     876.40222     596.11194     870.85999     596.91003
    137.31240     156.00000     162.02209     162.45399     137.31531       0.53608     489.68433    3529.27734       5.63377   51965.70313     105.42534     225.09924     219.43294      78.15734      69.64175     213.05679       0.54155    4541.93066     874.04315     593.80591     873.46997     586.16962
    137.46480     156.00000     163.55794     162.45399     137.46687       0.53780     480.47293    3530.98169       5.75073   66408.24219     100.77477     225.19102     219.57361      76.64561      67.76309     211.45268       0.53969    4607.72217     876.90796     580.67450     875.84900     575.32855
    137.61720     156.00000     163.55794     163.09743     137.61723       0.53757     470.29340    3536.09399       5.90668   68742.98438      97.91106     224.95737     219.76460      73.53412      66.85815     208.57732       0.53934    4611.32324     883.75085     577.22565     885.74927     575.89734
    137.76960     156.00000     154.95706     156.34126     137.77217       0.53826     474.49243    3502.01074       6.14061  107655.67188      89.25721     224.63120     219.98866      69.64398      66.83929     205.01257       0.53820    4823.65186     895.43011     578.32605     896.96747     577.12585
