~Version Information
 VERS.                2.00:   CWLS log ASCII Standard -VERSION 2.00
 WRAP.                  NO:   One line per frame      
~Well Information Block
#MNEM.UNIT                   Data                        Description
#----.----   -----------------------------------------   -------------------------------
 STRT.M                                       27.0000 : Starting Depth
 STOP.M                                      188.0000 : Ending Depth
 STEP.M                                        0.1000 : Level Spacing
 NULL.                                      -999.2500 : Absent Value
 COMP.       SUNCOR ENERGY INC                        : Company
 WELL.       SUNCOR LEWIS 7-22-92-8                   : Well
 FLD .       UNDEFINED                                : Field
 LOC .       LSD 07-22-092-08W4                       : Location
 PROV.       ALBERTA                                  : Province
 CTRY.       CA                                       : Country
 SRVC.       Baker Hughes                             : Service Company
 DATE.       16-JAN-2016                              : Log Date
 UWI .       1AA072209208W400                         : Unique Well ID
 LIC .       0477502                                  : License Number
~Curve Information Block
#MNEM    .UNIT        API Codes     Curve Description
#--------.--------   LG--CV-CL--M   -------------------------------
 DEPT    .M           0   1  0  1 : Depth
 AZSTQH  .deg        99 995 99  1 : Azimuth of reference pad for STAR
 BKRGQH  .dim        99 995 99  1 : Bucker driver value
 DEVSTQH .deg        99 995 99  1 : Deviation for STAR
 DIP1QH  .raw        75 610  1  1 : Pad 1 average data of buttons 11, 12, 13, 14
 DIP2QH  .raw        75 610  1  1 : Pad 2 average data of buttons 11, 12, 13, 14
 DIP3QH  .raw        75 610  1  1 : Pad 3 average data of buttons 11, 12, 13, 14
 DIP4QH  .raw        75 610  1  1 : Pad 4 average data of buttons 11, 12, 13, 14
 DIP5QH  .raw        75 610  1  1 : Pad 5 average data of buttons 11, 12, 13, 14
 DIP6QH  .raw        75 610  1  1 : Pad 6 average data of buttons 11, 12, 13, 14
 GR      .gAPI       30 310  1  1 : Gamma ray
 PADFQH  .pct        94 995 99  1 : Pad force
 PADGQH  .dim        99 995 99  1 : Pad gain code
 RAD1QH  .mm         75 280 99  1 : Radius, tool axis to pad 1 face
 RAD2QH  .mm         75 280 99  1 : Radius, tool axis to pad 2 face
 RAD3QH  .mm         75 280 99  1 : Radius, tool axis to pad 3 face
 RAD4QH  .mm         75 280 99  1 : Radius, tool axis to pad 4 face
 RAD5QH  .mm         75 280 99  1 : Radius, tool axis to pad 5 face
 RAD6QH  .mm         75 280 99  1 : Radius, tool axis to pad 6 face
 RAZGSTQH.mG         99 995 99  1 : Raw Z-axis accelerometer shifted to STAR
 RBSTQH  .deg        99 995 99  1 : Relative bearing (relative to borehole high side) for STAR
 SPD     .m/min      99 636 99  1 : Speed
~Parameter Information Block
#MNEM.UNIT                     Value                    Description
#----.----   ----------------------------------------   -------------------------------
 HID1.       RESISTIVITY IMAGING LOG^T                : Header Identifer
 HID2.       GAMMA RAY LOG                            : Header Identifer
 FILE.       3953                                     : File Number
 CMT1.       UID                                      : Comment 1  
 CMT2.       1AA072209208W400                         : Comment 2  
 CMT3.       LICENSE                                  : Comment 3  
 CMT4.       0477502                                  : Comment 4  
 FL2 .       BH LOC. LSD  07                          : Field Location 2
 SECT.       22                                       : Section
 TOWN.       092                                      : Township
 RANG.       08W4                                     : Range
 OS1 .       ZDL-CN-GR-CAL                            : Other Services Line 1
 OS2 .       HDIL-GR-CAL, CVL                         : Other Services Line 2
 OS3 .       DAL-GR-CAL                               : Other Services Line 3
 OS4 .       COMPOSITE                                : Other Services Line 4
 PDAT.       G.L.                                     : Permanent Datum
 EPD .M      438.50                                   : Elevation Of Perm. Datum
 LMF .       K.B.                                     : Log Measured From
 APD .M      2.20                                     : Above Permanent Datum
 DMF .       KELLY BUSHING                            : Drilling Measured From
 EKB .M      440.70                                   : Elevation Of Kelly Bushing
 EGL .M      438.50                                   : Elevation Of Ground Level
 RUN .       1                                        : Run Number
 TRIP.       1                                        : Trip Number
 SON .       CA003953J                                : Service Order Number
 TDD .M      187.0                                    : Total Depth - Driller
 TDL .M      186.3                                    : Total Depth - Logger
 BLI .M      183.0                                    : Bottom Log Interval
 TLI .M      55.0                                     : Top Log Interval
 CSIZ.MM     177.8                                    : Casing Size
 CBDR.M      49.4                                     : Casing Bottom - Driller
 CBLO.M      49.4                                     : Casing Bottom - Logger
 BS  .MM     156.0                                    : Bit Size
 DFT .       WB (WATER BASE MUD)                      : Drilling Fluid Type
 DFD .G/L    1030.0                                   : Drilling Fluid Density
 DFV .S      79.0                                     : Drilling Fluid Viscosity
 DFPH.       7.0                                      : Drilling Fluid Ph
 DFL .ML     8.0                                      : Drilling Fluid Loss
 MSS .       F (FLOWLINE)                             : Mud Sample Source
 RMS .OHMM   1.2                                      : Resistivity Of Mud Sample
 MST .DEGC   25.0                                     : Mud Sample Temperature
 RMFS.OHMM   1.0                                      : Resistivity Of Mud Filtrate Sample
 MFST.DEGC   25.0                                     : Mud Filtrate Sample Temperature
 RMCS.OHMM   1.4                                      : Resistivity Of Mud Cake Sample
 MCST.DEGC   25.0                                     : Mud Cake Sample Temperature
 MFSS.       CALCULATED                               : Mud Filtrate Sample Source
 MCSS.       CALCULATED                               : Mud Cake Sample Source
 RMB .OHMM   2.0                                      : Mud Resistivity At Bht
 BHT .DEGC   7.0                                      : Bottom Hole Temperature
 TSC .       5.0 HOURS                                : Time Since Circulation
 MRT .DEGC   7.0                                      : Maximum Recorded Temperature
 LUN .       Z004250                                  : Logging Unit Number
 LUL .       LEDUC OH                                 : Logging Unit Location
 ENGI.       A.MALIK                                  : Engineer's Name
 WITN.       H.WILSON / P.ENE                         : Witness' Name
 TSTR.       /STAR/GR/                                : Title Service Mnemonic
 TSTG.       NA                                       : Title Service Mnemonic
 STUS.       FINAL                                    : Status
 LCNM.       BAKER ATLAS                              : Logging Company Name
 LCC .       150                                      : Logging Company Code
 OPMD.       OH.WIRE                                  : Operation Mode
 PANA.       A.MALIK                                  : Processing Analyst
 PCON.       BAKER ATLAS                              : Processing Contractor
 APIN.                                                : API Serial Number
 STAT.                                                : State Or Province
~Other information
LAT/LON  57.0175, -111.419                                                      
TIME STOPPED CIRCULATION  16-JAN-2016 0830AM                                    
STAR RUN WITH 0% PAD FORCE AND AUTOMATICALLY CONTROLLED GAINS                   
ANY STICK AND PULL AFFECTS LOG QUALITY                                          
RIG  ENCORE 402                                                                 
CREW  F.AJAGU, A.MALIK                                                          
#  Curve Data
~A  DEPT        AZSTQH      BKRGQH      DEVSTQH     DIP1QH      DIP2QH      DIP3QH      DIP4QH      DIP5QH      DIP6QH      GR          PADFQH      PADGQH      RAD1QH      RAD2QH      RAD3QH      RAD4QH      RAD5QH      RAD6QH      RAZGSTQH    RBSTQH      SPD       
# ...
    182.0000     63.6495      9.0000      0.5190    446.5984    329.4173    438.0551    369.7401    278.8268    436.7953     49.7705      1.2366      3.0000     79.8980     75.8217     75.3637     76.8718     81.9801     81.6087   1011.7038    343.4564      3.5032
    182.1000     63.5318      9.0000      0.5190    443.0000    534.0000    596.0000    480.0000    427.0000    385.0000     50.3768      1.1304      3.0000     79.3869     74.5027     74.5879     75.0769     80.7699     80.9242   1012.1484    343.4564      3.5058
    182.2000     61.8643      9.0000      0.5189    216.0000    182.0000    273.0000    277.0000    532.0000    185.0000     50.1770      1.1304      3.0000     80.4090     74.5027     74.4586     74.1795     80.7699     81.3005   1010.5120    343.4564      3.5015
    182.3000     60.4225      9.0000      0.5412    283.0000    525.0000    458.0000    213.0000    463.0000    494.0000     48.9961      1.2366      3.0000     81.0478     76.2686     74.0707     73.2820     79.7462     80.5478   1009.6937    339.0577      3.4939
    182.4000     60.2159      9.0000      0.5190    284.0000    583.0000    226.0000    381.0000    243.0000    590.0000     47.0272      1.1304      3.0000     80.9200     76.2686     74.4586     73.2820     79.8741     81.0496   1007.2390    343.4564      3.4893
    182.5000     60.0092      8.0000      0.5189    158.0315    127.0630    128.4567    112.8504    131.6614    120.1811     44.8836      1.2366      3.0000     80.9200     76.3182     74.0707     72.8974     79.7462     81.4260   1010.2156    343.4564      3.4913
    182.6000     59.6905      8.0000      0.5191    146.0000     97.0000    125.0000    139.0000    144.0000     90.0000     43.7407      1.2366      3.0000     81.8143     77.5299     73.1656     72.0000     79.7462     81.5514   1009.6937    343.4564      3.5085
    182.7000     59.6905      7.0000      0.5191     72.0000     48.0000     61.0000     67.0000     70.0000     29.0000     44.0327      1.2366      3.0000     81.6866     76.3947     73.1656     71.4872     79.6182     81.4260   1009.6937    343.4564      3.5442
    182.8000     59.6905      6.0000      0.5415     34.0000     22.0000     28.0000     31.0000     32.5039      3.0000     45.5630      1.2366      3.0000     81.3667     76.3947     73.1656     71.4872     79.4902     81.3637   1009.6937    339.0577      3.5968
    182.9000     59.6905      5.0000      0.5191     18.0000     12.0000     15.0000     16.0000     17.0000      0.0000     47.7340      1.1304      3.0000     81.3033     76.3947     72.7777     71.4872     79.4902     81.1751   1009.6937    343.4564      3.6538
    183.0000     59.6905      4.0000      0.5191      9.0000      5.0000      7.0000      8.0000      9.0000      0.0000     49.8362      1.1304      3.0000     81.3033     76.3947     72.7777     71.4872     79.4902     81.1751   1009.6937    343.4564      3.6979
    183.1000     59.6905      4.0000      0.5191      9.0000      6.0000      7.0000      8.0000      9.0000      0.0000     51.6358      1.1304      3.0000     81.3033     76.3947     72.7777     71.4872     79.3623     81.1751   1009.6937    343.4564      3.7211
    183.2000     59.6905      3.0000      0.5191      4.0000      2.0000      3.0000      4.0000      4.0000      0.0000     53.1376      1.1304      3.0000     81.3033     76.3947     72.7777     71.4872     79.3623     81.1751   1009.6937    343.4564      3.7233
    183.3000     59.6905      2.0000      0.5191      2.0000      1.0000      1.0000      2.0000      2.0000      0.0000     54.6824      1.1304      3.0000     81.3033     76.3947     72.7777     71.4872     79.4902     81.1751   1009.6937    343.4564      3.7163
    183.4000     59.6905      1.0000      0.5191      0.0000      0.0000      0.0000      0.0000      0.0000      0.0000     56.7616      1.1304      3.0000     81.3033     76.3947     72.7777     71.4872     79.3623     81.1751   1009.6937    343.4564      3.7098
    183.5000     59.6905      1.0000      0.5191      0.0000      0.0000      0.0000      0.0000      0.0000      0.0000     59.7102      1.1304      3.0000     81.3033     76.3947     72.7777     71.4872     79.4902     81.1751   1009.6937    343.4564      3.7071
    183.6000     59.6905      0.0000      0.5191      0.0000      0.0000      0.0000      0.0000      0.0000      0.0000     63.3477      1.1304      3.0000     81.3033     76.3947     72.7777     71.4872     79.4902     81.1751   1009.6937    343.4564      3.7084
    183.7000     59.6905      9.0000      0.5191    295.0000    193.0000    249.0000    271.0000    287.0000    208.0000     67.0144      1.1304      3.0000     81.3033     76.3947     72.7777     71.4872     79.4902     81.1751   1009.6937    343.4564      3.7126
    183.8000     59.6905      9.0000      0.5191    295.0000    194.0000    250.0000    271.0000    287.0000    208.0000     70.0822      1.1304      3.0000     81.3033     76.3947     72.7777     71.4872     79.3623     81.1751   1009.6937    343.4564      3.7186
    183.9000   -999.2500   -999.2500   -999.2500   -999.2500   -999.2500   -999.2500   -999.2500   -999.2500   -999.2500     72.3354   -999.2500   -999.2500   -999.2500   -999.2500   -999.2500   -999.2500   -999.2500   -999.2500   -999.2500   -999.2500      3.7258
    184.0000   -999.2500   -999.2500   -999.2500   -999.2500   -999.2500   -999.2500   -999.2500   -999.2500   -999.2500     74.0519   -999.2500   -999.2500   -999.2500   -999.2500   -999.2500   -999.2500   -999.2500   -999.2500   -999.2500   -999.2500      3.7348
    184.1000   -999.2500   -999.2500   -999.2500   -999.2500   -999.2500   -999.2500   -999.2500   -999.2500   -999.2500     75.3881   -999.2500   -999.2500   -999.2500   -999.2500   -999.2500   -999.2500   -999.2500   -999.2500   -999.2500   -999.2500      3.7446
    184.2000   -999.2500   -999.2500   -999.2500   -999.2500   -999.2500   -999.2500   -999.2500   -999.2500   -999.2500     76.3165   -999.2500   -999.2500   -999.2500   -999.2500   -999.2500   -999.2500   -999.2500   -999.2500   -999.2500   -999.2500      3.7511
    184.3000   -999.2500   -999.2500   -999.2500   -999.2500   -999.2500   -999.2500   -999.2500   -999.2500   -999.2500     76.9852   -999.2500   -999.2500   -999.2500   -999.2500   -999.2500   -999.2500   -999.2500   -999.2500   -999.2500   -999.2500      3.7532
    184.4000   -999.2500   -999.2500   -999.2500   -999.2500   -999.2500   -999.2500   -999.2500   -999.2500   -999.2500     77.7754   -999.2500   -999.2500   -999.2500   -999.2500   -999.2500   -999.2500   -999.2500   -999.2500   -999.2500   -999.2500      3.7539
    184.5000   -999.2500   -999.2500   -999.2500   -999.2500   -999.2500   -999.2500   -999.2500   -999.2500   -999.2500     78.9913   -999.2500   -999.2500   -999.2500   -999.2500   -999.2500   -999.2500   -999.2500   -999.2500   -999.2500   -999.2500      3.7540
    184.6000   -999.2500   -999.2500   -999.2500   -999.2500   -999.2500   -999.2500   -999.2500   -999.2500   -999.2500     80.4651   -999.2500   -999.2500   -999.2500   -999.2500   -999.2500   -999.2500   -999.2500   -999.2500   -999.2500   -999.2500      3.7473
    184.7000   -999.2500   -999.2500   -999.2500   -999.2500   -999.2500   -999.2500   -999.2500   -999.2500   -999.2500     81.7315   -999.2500   -999.2500   -999.2500   -999.2500   -999.2500   -999.2500   -999.2500   -999.2500   -999.2500   -999.2500      3.7191
    184.8000   -999.2500   -999.2500   -999.2500   -999.2500   -999.2500   -999.2500   -999.2500   -999.2500   -999.2500     82.3183   -999.2500   -999.2500   -999.2500   -999.2500   -999.2500   -999.2500   -999.2500   -999.2500   -999.2500   -999.2500      3.6502
    184.9000   -999.2500   -999.2500   -999.2500   -999.2500   -999.2500   -999.2500   -999.2500   -999.2500   -999.2500     82.2134   -999.2500   -999.2500   -999.2500   -999.2500   -999.2500   -999.2500   -999.2500   -999.2500   -999.2500   -999.2500      3.5536
    185.0000   -999.2500   -999.2500   -999.2500   -999.2500   -999.2500   -999.2500   -999.2500   -999.2500   -999.2500     81.5726   -999.2500   -999.2500   -999.2500   -999.2500   -999.2500   -999.2500   -999.2500   -999.2500   -999.2500   -999.2500      3.4728
