~VERSION INFORMATION 
VERS.          2.0   :CWLS LOG ASCII STANDARD - VERSION 2.0
WRAP.          NO    :ONE LINE PER DEPTH STEP
PROD.  Schlumberger   :LAS Producer
PROG.  DLIS to ASCII 19C2-270                          :LAS Program name and version
CREA.        2014/02/23 09:08                          :LAS Creation date {YYYY/MM/DD hh:mm}
DLIS_CREA.  2014-Feb-23 08:51                          :DLIS Creation date and time {YYYY-MMM-DD hh:mm}
SOURCE.     1AA063409108W400_FMI_SONIC_REPEAT.dlis     :DLIS File Name
FILE-ID.     ConPr_R2L2Up_S008_FBST_DSLT_HGNS          :File Identification Number
#--------------------------------------------------
~WELL INFORMATION 
#MNEM.UNIT      DATA             DESCRIPTION
#---- ------ --------------   -----------------------------
STRT.M      88.69680        :START DEPTH
STOP.M      258.01320       :STOP DEPTH
STEP.M       0.15240        :STEP
NULL .          -999.25      :NULL VALUE
COMP.        SUNCOR ENERGY INC.                       :COMPANY
WELL.        SUNCOR LEWIS 6-34-91-8                   :WELL
FLD  .        LEWIS                                    :FIELD
LOC.        6-34-91-8W4                              :LOCATION
PROV .        ALBERTA                                  :PROVINCE
UWI.        1AA063409108W400                         :UNIQUE WELL ID
LIC  .        0464072                                  :LICENSE NUMBER
CTRY .        CA                                       :COUNTRY (WWW code)
DATE.        23-Feb-2014                              :LOG DATE {DD-MMM-YYYY}
SRVC .        Schlumberger                             :SERVICE COMPANY
LATI .DEG     56.934500 degrees                        :LATITUDE
LONG .DEG     -111.20540 degrees                       :LONGITUDE
GDAT .                                                 :GeoDetic Datum
SECT .        06-34                                    :Section
RANG .        08W4                                     :Range
TOWN .        091                                      :Township
#-----------------------------------------------------------------------------
~CURVE INFORMATION 
#MNEM.UNIT   API CODE                                  DESCRIPTION
#---- -----  --------                                  -----------------------
 DEPT.M         00 001 00 00             :Depth Index - Measured Depth
   BS.MM        61 280 07 00             :BIT SIZE {F14.5}
   C1.MM        42 280 06 00             :CALIPER 1 {F14.5}
   C2.MM        42 280 05 00             :CALIPER 2 {F14.5}
DEPTH.M         00 001 00 00             :DEPTH INDEX {F14.5}
DEVIM.DEG       00 630 00 00             :MEMORIZED DEVIATION {F14.5}
   DT.US/M      60 520 32 00             :DELTA-T (ALSO CALLED SLOWNESS OR INTERVAL TRANSIT TIME) {F14.5}
   EI.MA        00 000 00 00             :EMEX CURRENT {F14.5}
   EV.V         00 000 00 00             :EMEX VOLTAGE {F14.5}
 FBCR.OHMS      00 000 00 00             :CORRELATION RESISTANCE {F14.5}
   GR.GAPI      42 310 01 00             :GAMMA RAY {F14.5}
 HAZI.DEG       00 620 00 00             :HOLE AZIMUTH RELATIVE TO TRUE NORTH {F14.5}
HAZIM.DEG       00 620 00 00             :HOLE AZIMUTH RELATIVE TO TRUE NORTH {F14.5}
 P1AZ.DEG       00 630 00 00             :PAD 1 AZIMUTH IN HORIZONTAL PLANE (0 = TRUE NORTH) {F14.5}
P1NO_FBST.DEG   00 000 00 00             :PAD 1 AZIMUTH IN PLANE ORTHOGONAL TO TOOL AXIS (0 = TRUE NORTH), MEMORIZED TO FBST {F14.5}
   RB.DEG       00 631 00 00             :RELATIVE BEARING {F14.5}
 SDEV.DEG       00 000 00 00             :SONDE DEVIATION {F14.5}
 TENS.N         61 280 10 00             :CABLE TENSION {F14.5}
  TT1.US        60 520 32 01             :TRANSIT TIME 1 {F14.5}
  TT2.US        60 520 32 02             :TRANSIT TIME 2 {F14.5}
  TT3.US        60 520 32 03             :TRANSIT TIME 3 {F14.5}
  TT4.US        60 520 32 04             :TRANSIT TIME 4 {F14.5}
~PARAMETER INFORMATION 
#MNEM.UNIT    VALUE                      DESCRIPTION
#---- -----   --------------------       ------------------------
 CSGD.M       72.80000                   :Casing Bottom of Driller
 CSGL.M       73.20000                   :Logger Casing Shoe Depth
 CSGS.MM      177.80000                  :Current Casing Size
 CSGW.KG/M    25.30000                   :Casing Weight
 MUDD.K/M3    1090.00000                 :Drilling Fluid Density
  DFL.C3      6.00000                    :Drilling Fluid Loss
   PH.        10.00000                   :Drilling Fluid pH
  MUD.        Polymer                    :Drilling Fluid Type
 MUDV.S       108.00000                  :Drilling Fluid Viscosity
   GL.M       445.00000                  :Elevation of Ground Level
 EREF.M       449.00000                  :Elevation of Kelly Bushing
  ENG.        NICK POLLEY                :Engineer s Name
 DREF.        KB                         :Logging Measured From (Name of Logging Elevation Reference)
 BASE.        WINTER PROJECT             :LOGGING UNIT LOCATION
 FACT.        CP4P-00020                 :Service Order Number
  LIC.        0464072                    :API Well Number
 PROV.        ALBERTA                    :County or Parish
 UNIT.        3125                       :Logging Unit Number
 RMCT.DEGC    8.73000                    :Mudcake Sample Temperature
 RMFT.DEGC    8.73000                    :Mud Filtrate Sample Temperature
 TMAX.DEGC    12.28000                   :Maximum Recorded Temperature
 MUDS.        Flowline                   :Mud Sample Source
  RMT.DEGC    8.73000                    :Mud Sample Temperature
RANGE.        08W4                       :Range
  RMC.OHMM    1.18000                    :Resistivity of Mud Cake Sample
  RMF.OHMM    0.59200                    :Resistivity of Mud Filtrate Sample
   RM.OHMM    0.78900                    :Resistivity of Mud Sample
SECTION.      06-34                      :Section
 TIMC.        01 55 00                   :Time Circulation Stopped
 TIML.        07 55 00                   :Time Logger At Bottom
TOWNSHIP.     091                        :Township
  WIT.        JONATHAN FELL              :Witness s Name
  APD.M       4.00000                    :Elevation of Depth Reference (LMF) Above Permanent Datum
 APIN.        0464072                    :API Well Number
  BHT.DEGC    12.28000                   :Bottom Hole Temperature
  BLI.M       256.00000                  :Bottom Log Interval
   BS.MM      156.00000                  :Bit Size
   CN.        SUNCOR ENERGY INC.         :Company Name
 COUN.        ALBERTA                    :County or Parish
 LDAT.        23-Feb-2014                :Tools Above Rotary Table Date
  DCS.        23-Feb-2014                :Date Circulation Stopped
  DFL.C3      6.00000                    :Drilling Fluid Loss
 DLAB.        23-Feb-2014                :Date Logger At Bottom
  DMF.        KB                         :Drilling Measured From (Name of Drilling Elevation Reference)
  EDF.M       448.70001                  :Elevation of Drill Floor
  EGL.M       445.00000                  :Elevation of Ground Level
  EKB.M       449.00000                  :Elevation of Kelly Bushing
   FD.K/M3    1000.00000                 :Fluid Density
   FL.        6-34-91-8W4               :FIELD LOCATION
  FL1.        1AA063409108W400           :Field Location, Line 1
  FL2.                                   :Field Location, Line 2
   FN.        LEWIS                      :Field Name
 HID1.                                   :Header Identifier 1
 HID2.                                   :Header Identifier 2
 HIDE.        LEWIS                      :Header Identifier
 LATI.        56.934500 degrees          :Latitude
  LMF.        KB                         :Logging Measured From (Name of Logging Elevation Reference)
 LONG.        -111.20540 degrees         :Longitude
 MATR.        SAND                       :Rock Matrix for Neutron Porosity Corrections
 MCSS.        Calculated                 :Mudcake Sample Source
 MDEC.DEG     14.38033                   :Magnetic Field Declination
 MDEN.K/M3    2650.00000                 :Matrix Density for Density Porosity
 MRT1.DEGC    12.28000                   :Maximum Recorded Temperature 1
 MRT2.DEGC    -999.25000                 :Maximum Recorded Temperature 2
  NMT.        NOBARITE                   :HRDD Mud Type for Nuclear Devices
  OS1.                                   :Other Services Line 1
  OS2.                                   :Other Services Line 2
  OS3.                                   :Other Services Line 3
  OS4.                                   :Other Services Line 4
  OS5.                                   :Other Services Line 5
 PDAT.        GL                         :Permanent Datum
   R1.        THANK YOU FOR CHOOSING SCHLUMBERGER  :Remarks Line 1
   R2.        ALL TOOLS RAN AS PER TOOL SKETCH AND ALL PRESENTATIONS AS PER CLIENT REQUEST  :Remarks Line 2
   R3.        INDUCTION LOG – DESCENT #1 :Remarks Line 3
   R4.        NEUTRON / DENSITY LOG – DESCENT #1  :Remarks Line 4
  RMB.OHMM    0.70618                    :Resistivity of Mud at Bottom Hole Temperature
 RMFB.OHMM    0.52986                    :Resistivity of Mud Filtrate At Bottom Hole Temperature
  RUN.        ONE/2                      :Run Number
  SON.        CP4P-00020                 :SERVICE ORDER NUMBER
  TDD.M       256.00000                  :Driller Total Depth
  TDL.M       256.00000                  :Logger Total Depth
  TLI.M       75.00000                   :Top Log Interval
 UWID.        1AA063409108W400           :Unique Well Identifier
   WN.        SUNCOR LEWIS 6-34-91-8     :Well Name
  EPD.C3      445.000000                 :Elevation of Permanent Datum above Mean Sea Level
#-----------------------------------------------------------------------------
#
#      DEPT          BS            C1            C2            DEPTH         DEVIM         DT            EI            EV            FBCR          GR            HAZI          HAZIM         P1AZ        P1NO_FBST       RB            SDEV          TENS          TT1           TT2           TT3           TT4
#
#-----------------------------------------------------------------------------

~A       DEPT           BS           C1           C2        DEPTH        DEVIM           DT           EI           EV         FBCR           GR         HAZI        HAZIM         P1AZ    P1NO_FBST           RB         SDEV         TENS          TT1          TT2          TT3          TT4
# ...
    211.53120     156.00000     154.95706     152.80231     211.53259       0.55965     416.58893    3219.12183       8.24596  104945.57031      24.74464     199.99672     199.09546      44.00769      43.31170     204.01028       0.56863    4709.77734     792.06030     537.84283     789.20361     538.91669
    211.68360     156.00000     156.18576     151.51540     211.68359       0.55467     449.01685    3224.23462       8.24596  105720.67188      17.43962     199.93430     199.35991      42.99549      42.65657     203.05980       0.57100    4667.85254     782.21307     537.86353     778.23596     539.14581
    211.83600     156.00000     156.18576     151.51540     211.83485       0.54940     447.60751    3188.44751       8.24596  167796.75000      15.80580     199.80098     199.67168      43.62438      41.53867     203.82240       0.57250    4677.75000     770.73706     537.84045     768.74841     537.48364
    211.98840     156.00000     156.18576     150.22852     211.98680       0.54440     439.89697    3224.23462       8.24596  141841.98438      16.39299     199.73439     200.08658      42.93843      39.95246     203.20294       0.57385    4816.86816     763.47076     533.65741     762.19373     528.86932
    212.14080     156.00000     155.70918     149.58507     212.13965       0.53974     427.52072    3219.12183       8.42141  155655.43750      21.09810     199.60747     200.50909      42.32991      37.05759     202.72171       0.57522    4911.72656     759.61121     521.07599     760.82587     519.90918
    212.29320     156.00000     157.07866     152.80231     212.29160       0.53543     390.02698    3186.74316       8.57736  124043.90625      25.62249     199.38144     200.87544      40.77568      34.45459     201.39340       0.57620    4743.75049     759.10040     514.09833     759.91895     501.18552
    212.44560     156.00000     158.33598     154.08922     212.44394       0.53168     373.23004    3152.66016       8.73331  449758.53125      33.98790     199.15425     201.18501      38.84827      33.39286     199.69316       0.57767    5199.67480     759.08484     488.56104     760.88641     489.30414
    212.59800     156.00000     158.64316     155.37610     212.59641       0.52805     371.10510    3150.95581       8.96724  295008.31250      39.76904     198.83635     201.36285      35.32480      36.13480     196.48759       0.57942    5203.58545     760.84399     484.63007     755.76141     484.23920
    212.75040     156.00000     158.64316     155.37610     212.75182       0.52333     377.53818    3086.19824       9.22066  198531.23438      40.29523     198.50017     201.37309      33.66941      34.48347     195.16837       0.58159    5037.88916     743.09186     482.47406     743.20154     491.02853
    212.90280     156.00000     156.18576     152.80231     212.90334       0.52063     394.77344    3081.08569       9.45459  170644.51563      32.95103     198.17505     201.23271      33.39450      34.33691     195.21886       0.58364    4939.60205     740.51715     488.96823     741.63538     491.54367
    213.05520     156.00000     156.18576     155.37610     213.05504       0.51840     409.31540    2982.24512       9.84447  758892.93750      22.39410     197.89102     201.03804      36.13657      34.69288     198.24493       0.58619    5072.64063     742.22791     498.59702     743.69525     502.72705
    213.20760     156.00000     156.80011     155.37610     213.20679       0.51547     414.40546    2978.83643      10.07840  894961.50000      14.85352     197.64563     200.81126      34.48518      34.60810     196.83876       0.58851    5033.31104     741.68958     510.35266     742.21558     512.72046
    213.36000     156.00000     156.18576     157.30644     213.35760       0.51283     412.21112    2949.86621      10.29283 1746241.62500      11.46014     197.50688     200.59521      34.33863      33.91147     196.83101       0.59054    4991.73877     750.07562     513.62213     751.95209     513.35809
    213.51240     156.00000     156.18576     157.94987     213.51413       0.50888     412.75757    2917.48755      10.56575 2206102.50000      11.83713     197.71605     200.44070      34.77898      34.53021     197.06194       0.59238    5100.72021     754.89880     511.03186     755.30450     510.32166
    213.66480     156.00000     158.95032     157.94987     213.66652       0.50461     406.12991    2849.32153      10.70221 2226833.75000      12.19061     197.75468     200.36134      34.10493      33.98803     196.34932       0.59361    5079.57275     756.11414     510.39774     753.82141     510.12277
    213.81720     156.00000     161.10054     159.88022     213.82005       0.49913     404.32516    2883.40479      10.70221 2517125.50000      13.95015     197.80701     200.29306      34.06133      33.65303     196.25351       0.59437    4975.89209     755.23578     506.09052     754.97919     506.14523
    213.96960     156.00000     156.18576     154.08922     213.96997       0.49343     398.41910    2879.99609      10.76069  658225.62500      13.17253     197.87047     200.27373      34.54807      32.27038     196.67683       0.59382    5104.48242     758.57367     504.73553     757.71753     504.55066
    214.12200     156.00000     156.18576     155.37610     214.11977       0.48709     400.07144    2883.40479      10.60474  518977.21875      13.92660     198.02321     200.24190      33.89795      31.15336     195.87425       0.59309    4816.58984     762.43744     507.55176     761.29510     509.41199
    214.27440     156.00000     156.01636     155.37610     214.27487       0.48025     404.61609    2917.48755      10.31233  841683.81250      13.47884     198.15372     200.26958      33.02109      29.86802     194.86662       0.59100    4789.90088     772.58612     515.04138     770.31189     515.46991
    214.42680     156.00000     156.18576     155.37610     214.42683       0.47381     409.10428    2949.86621      10.11739 1103967.37500      14.88492     198.24504     200.21117      31.57145      27.34215     193.32581       0.58829    5149.85449     779.78949     518.84827     776.88727     517.45172
    214.57920     156.00000     156.18576     152.80231     214.57729       0.46723     420.66440    2985.65356       9.68852  148438.82813      23.08525     198.43053     200.20155      30.58376      23.39276     192.15253       0.58393    5052.62402     781.59625     527.49597     780.28699     527.22620
    214.73160     156.00000     156.18576     152.80231     214.73318       0.46101     434.02936    3016.32813       9.37661  242168.39063      48.16570     198.57797     200.17720      29.32535      20.22913     190.74689       0.57938    4929.18555     785.69690     535.59772     785.72644     534.01257
    214.88400     156.00000     156.18576     151.51540     214.88589       0.45533     436.43750    3052.11548       9.18167   75362.66406      79.45891     198.74522     200.22722      27.34346      17.58514     188.59752       0.57427    4893.93359     793.26233     535.66443     794.30096     533.62946
    215.03640     156.00000     156.18576     152.80231     215.03389       0.44988     428.75259    3084.49414       8.94775   84751.69531     102.67002     198.89288     200.28644      23.39385      15.19389     184.50055       0.56865    4947.90527     807.56818     535.88019     806.35199     538.69324
    215.18880     156.00000     156.01636     152.80231     215.18752       0.44501     433.00394    3118.57715       8.71382  127746.67188     113.35236     199.10286     200.49203      20.23004      16.35427     181.12701       0.56276    5345.09473     811.23096     541.38000     803.80212     544.67584
    215.34120     156.00000     156.18576     152.80231     215.34468       0.43861     436.34174    3156.06860       8.59685  104555.48438     114.23174     199.34970     200.76215      17.58590      16.42319     178.23672       0.55757    5010.08789     801.28918     549.70825     797.88062     551.54688
