~Version Information
 VERS.                2.00:   CWLS log ASCII Standard -VERSION 2.00
 WRAP.                  NO:   One line per frame      
~Well Information Block
#MNEM.UNIT                   Data                        Description
#----.----   -----------------------------------------   -------------------------------
 STRT.M                                       26.9748 : Starting Depth
 STOP.M                                      187.9854 : Ending Depth
 STEP.M                                        0.0762 : Level Spacing
 NULL.                                      -999.2500 : Absent Value
 COMP.       SUNCOR ENERGY INC                        : Company
 WELL.       SUNCOR LEWIS 7-22-92-8                   : Well
 FLD .       UNDEFINED                                : Field
 LOC .       LSD 07-22-092-08W4                       : Location
 PROV.       ALBERTA                                  : Province
 CTRY.       CA                                       : Country
 SRVC.       Baker Hughes                             : Service Company
 DATE.       16-JAN-2016                              : Log Date
 UWI .       1AA072209208W400                         : Unique Well ID
 LIC .       0477502                                  : License Number
 LATI.DEG    57.0175 N                                : Latitude Coordinates
 LONG.DEG    -111.419 W                               : Longitude Coordinates
~Curve Information Block
#MNEM    .UNIT        API Codes     Curve Description
#--------.--------   LG--CV-CL--M   -------------------------------
 DEPT    .M           0 001  0  1 : Depth
 AZSTQH  .deg        99 995 99  1 : Azimuth of reference pad for STAR
 BKRGQH  .dim        99 995 99  1 : Bucker driver value
 DEVSTQH .deg        99 995 99  1 : Deviation for STAR
 DIP1QH  .raw        75 610  1  1 : Pad 1 average data of buttons 11, 12, 13, 14
 DIP2QH  .raw        75 610  1  1 : Pad 2 average data of buttons 11, 12, 13, 14
 DIP3QH  .raw        75 610  1  1 : Pad 3 average data of buttons 11, 12, 13, 14
 DIP4QH  .raw        75 610  1  1 : Pad 4 average data of buttons 11, 12, 13, 14
 DIP5QH  .raw        75 610  1  1 : Pad 5 average data of buttons 11, 12, 13, 14
 DIP6QH  .raw        75 610  1  1 : Pad 6 average data of buttons 11, 12, 13, 14
 GR      .gAPI       30 310  1  1 : Gamma ray
 PADFQH  .pct        94 995 99  1 : Pad force
 PADGQH  .dim        99 995 99  1 : Pad gain code
 RAD1QH  .mm         75 280 99  1 : Radius, tool axis to pad 1 face
 RAD2QH  .mm         75 280 99  1 : Radius, tool axis to pad 2 face
 RAD3QH  .mm         75 280 99  1 : Radius, tool axis to pad 3 face
 RAD4QH  .mm         75 280 99  1 : Radius, tool axis to pad 4 face
 RAD5QH  .mm         75 280 99  1 : Radius, tool axis to pad 5 face
 RAD6QH  .mm         75 280 99  1 : Radius, tool axis to pad 6 face
 RAZGSTQH.mG         99 995 99  1 : Raw Z-axis accelerometer shifted to STAR
 RBSTQH  .deg        99 995 99  1 : Relative bearing (relative to borehole high side) for STAR
 SPD     .m/min      99 636 99  1 : Speed
~Parameter Information Block
#MNEM.UNIT                     Value                    Description
#----.----   ----------------------------------------   -------------------------------
 HID1.       RESISTIVITY IMAGING LOG^T                : Header Identifer
 HID2.       GAMMA RAY LOG                            : Header Identifer
 FILE.       3953                                     : File Number
 CMT1.       UID                                      : Comment 1  
 CMT2.       1AA072209208W400                         : Comment 2  
 CMT3.       LICENSE                                  : Comment 3  
 CMT4.       0477502                                  : Comment 4  
 FL2 .       BH LOC. LSD  07                          : Field Location 2
 SECT.       22                                       : Section
 TOWN.       092                                      : Township
 RANG.       08W4                                     : Range
 OS1 .       ZDL-CN-GR-CAL                            : Other Services Line 1
 OS2 .       HDIL-GR-CAL, CVL                         : Other Services Line 2
 OS3 .       DAL-GR-CAL                               : Other Services Line 3
 OS4 .       COMPOSITE                                : Other Services Line 4
 PDAT.       G.L.                                     : Permanent Datum
 EPD .M      438.50                                   : Elevation Of Perm. Datum
 LMF .       K.B.                                     : Log Measured From
 APD .M      2.20                                     : Above Permanent Datum
 DMF .       KELLY BUSHING                            : Drilling Measured From
 EKB .M      440.70                                   : Elevation Of Kelly Bushing
 EGL .M      438.50                                   : Elevation Of Ground Level
 RUN .       1                                        : Run Number
 TRIP.       1                                        : Trip Number
 SON .       CA003953J                                : Service Order Number
 TDD .M      187.0                                    : Total Depth - Driller
 TDL .M      186.3                                    : Total Depth - Logger
 BLI .M      183.0                                    : Bottom Log Interval
 TLI .M      55.0                                     : Top Log Interval
 CSIZ.MM     177.8                                    : Casing Size
 CBDR.M      49.4                                     : Casing Bottom - Driller
 CBLO.M      49.4                                     : Casing Bottom - Logger
 BS  .MM     156.0                                    : Bit Size
 DFT .       WB (WATER BASE MUD)                      : Drilling Fluid Type
 DFD .G/L    1030.0                                   : Drilling Fluid Density
 DFV .S      79.0                                     : Drilling Fluid Viscosity
 DFPH.       7.0                                      : Drilling Fluid Ph
 DFL .ML     8.0                                      : Drilling Fluid Loss
 MSS .       F (FLOWLINE)                             : Mud Sample Source
 RMS .OHMM   1.2                                      : Resistivity Of Mud Sample
 MST .DEGC   25.0                                     : Mud Sample Temperature
 RMFS.OHMM   1.0                                      : Resistivity Of Mud Filtrate Sample
 MFST.DEGC   25.0                                     : Mud Filtrate Sample Temperature
 RMCS.OHMM   1.4                                      : Resistivity Of Mud Cake Sample
 MCST.DEGC   25.0                                     : Mud Cake Sample Temperature
 MFSS.       CALCULATED                               : Mud Filtrate Sample Source
 MCSS.       CALCULATED                               : Mud Cake Sample Source
 RMB .OHMM   2.0                                      : Mud Resistivity At Bht
 BHT .DEGC   7.0                                      : Bottom Hole Temperature
 TSC .       5.0 HOURS                                : Time Since Circulation
 MRT .DEGC   7.0                                      : Maximum Recorded Temperature
 LUN .       Z004250                                  : Logging Unit Number
 LUL .       LEDUC OH                                 : Logging Unit Location
 ENGI.       A.MALIK                                  : Engineer's Name
 WITN.       H.WILSON / P.ENE                         : Witness' Name
 TSTR.       /STAR/GR/                                : Title Service Mnemonic
 TSTG.       NA                                       : Title Service Mnemonic
 STUS.       FINAL                                    : Status
 LCNM.       BAKER ATLAS                              : Logging Company Name
 LCC .       150                                      : Logging Company Code
 OPMD.       OH.WIRE                                  : Operation Mode
 PANA.       A.MALIK                                  : Processing Analyst
 PCON.       BAKER ATLAS                              : Processing Contractor
 APIN.                                                : API Serial Number
 STAT.                                                : State Or Province
~Other information
LAT/LON  57.0175, -111.419                                                      
TIME STOPPED CIRCULATION  16-JAN-2016 0830AM                                    
STAR RUN WITH 0% PAD FORCE AND AUTOMATICALLY CONTROLLED GAINS                   
ANY STICK AND PULL AFFECTS LOG QUALITY                                          
RIG  ENCORE 402                                                                 
CREW  F.AJAGU, A.MALIK                                                          
#  Curve Data
~A   DEPT         AZSTQH       BKRGQH       DEVSTQH      DIP1QH       DIP2QH       DIP3QH       DIP4QH       DIP5QH       DIP6QH       GR           PADFQH       PADGQH       RAD1QH       RAD2QH       RAD3QH       RAD4QH       RAD5QH       RAD6QH       RAZGSTQH     RBSTQH       SPD       
# ...
      88.8492      11.5811       6.0000       0.1468     253.0000     260.0000     228.0000     292.0000     210.0000     288.0000      97.0711       1.2366       3.0000      82.0698      77.9083      77.1739      77.0000      82.9454      82.3041    1011.3301     208.4564       3.4165
      88.9254      12.0062       6.0000       0.1469     204.0000     195.0000     220.0000     198.0000     267.0000     159.0000      96.0615       1.2366       3.0000      82.0698      77.9083      77.1739      77.0000      83.4573      82.3041    1006.4208     208.4564       3.4339
      89.0016      12.4310       6.0000       0.1469     274.0000     219.0000     236.0000     230.0000     269.0000     180.0000      95.4546       1.2366       3.0000      82.1976      77.9083      77.1739      77.0000      83.7132      82.3041    1009.6937     208.4564       3.4508
      89.0778      12.8556       6.0000       0.1468     229.0000     220.0000     260.0000     202.0000     209.0000     142.0000      95.1611       1.2366       3.0000      82.0698      77.9083      77.3032      77.0000      83.5852      82.3041    1009.6937     208.4564       3.4664
      89.1540      12.1478       6.0000       0.1469     257.0000     210.0000     193.0000     192.0000     234.0000     171.0000      95.0722       1.2366       3.0000      82.0698      77.9083      77.3032      77.0000      83.5852      82.3041    1008.0573     208.4564       3.4787
      89.2302      11.2977       6.0000       0.1468     252.0000     241.0000     231.0000     215.0000     278.0000     183.0000      95.1942       1.2366       3.0000      81.8143      77.9083      76.6567      77.0000      83.4573      82.3041    1008.0573     208.4564       3.4852
      89.3064      10.5887       6.0000       0.1468     260.0000     253.0000     247.0000     231.0000     248.0000     205.0000      95.6448       1.2366       3.0000      81.8143      77.9083      76.6567      77.0000      83.8412      82.3041    1010.5120     208.4564       3.4851
      89.3826       9.5960       6.0000       0.1468     271.0000     255.0000     250.0000     236.0000     256.0000     198.0000      96.4646       1.2366       3.0000      82.0698      77.9083      76.6567      77.0000      84.2251      82.1787    1010.5120     208.4564       3.4792
      89.4588       9.1706       6.0000       0.1469     329.0000     281.0000     306.0000     207.0000     266.0000     163.0000      97.4761       1.2366       3.0000      83.3474      77.9083      76.5274      76.8718      84.7370      82.1787    1010.5120     208.4564       3.4686
      89.5350       8.1784       6.0000       0.1468     350.0000     233.0000     317.0000     267.0000     323.0000     243.0000      98.3784       1.3429       3.0000      85.5193      77.5299      76.3981      77.0000      84.7370      81.9278    1008.0573     208.4564       3.4529
      89.6112       6.9045       6.0000       0.1468     342.0000     313.0000     312.0000     288.0000     325.0000     254.0000      98.8670       1.2366       3.0000      84.2417      77.5299      76.3981      77.0000      84.7370      81.9278    1008.8755     208.4564       3.4329
      89.6874       7.8951       6.0000       0.1468     341.0000     324.0000     363.0000     299.0000     359.0000     252.0000      98.6730       1.2366       3.0000      83.3474      76.3947      76.7860      76.8718      83.9691      82.0532    1009.6937     208.4564       3.4110
      89.7636      10.3051       6.0000       0.1469     362.0000     346.0000     294.0000     311.0000     356.0000     277.0000      97.6784       1.2366       3.0000      82.8364      76.3947      76.3981      76.8718      83.8412      82.3041    1008.8755     208.4564       3.3918
      89.8398      10.1633       6.0000       0.1468     282.0000     281.0000     271.0000     311.0000     304.0000     265.0000      95.9573       1.2366       3.0000      82.5809      76.2686      76.3981      76.8718      83.8412      82.3041    1012.1484     208.4564       3.3802
      89.9160       9.3124       6.0000       0.1468     288.0000     296.0000     278.0000     289.0000     279.0000     266.0000      93.7371       1.2366       3.0000      82.4531      76.3947      76.2688      76.8718      84.4810      82.0532    1009.6937     208.4564       3.3785
      89.9922      10.0215       6.0000       0.1468     267.0000     284.0000     282.0000     258.0000     250.0000     217.0000      91.4216       1.2366       3.0000      82.4531      75.8902      76.2688      76.4872      83.4573      81.9278    1008.8755     208.4564       3.3844
      90.0684       9.8797       6.0000       0.1468     293.0000     256.0000     231.0000     237.0000     240.0000     233.0000      89.5013       1.2366       3.0000      82.5809      75.8902      76.1395      76.4872      83.4573      81.9278    1008.8755     208.4564       3.3918
      90.1446       9.8797       6.0000       0.1468     204.0000     232.0000      98.0000     220.0000      84.0000     180.0000      88.4304       1.2366       3.0000      82.5809      76.0163      76.2688      76.3590      82.9454      81.9278    1008.8755     208.4564       3.3947
      90.2208      10.5901       6.0000       0.1468     209.0000     214.0000      72.0000     157.0000     253.0000     197.0000      88.4060       1.2366       3.0000      82.5809      76.0163      76.0102      76.3590      82.9454      81.9278    1008.0573     208.4564       3.3894
      90.2970      13.1540       6.0000       0.1468     199.0000      49.0000     196.0000      57.0000     199.0000      74.0000      89.3504       1.2366       3.0000      82.1976      75.8902      76.2688      76.4872      82.9454      81.9278    1011.3301     208.4564       3.3753
      90.3732      15.1515       6.0000       0.1468     211.0000     176.0000     152.0000     200.0000     191.0000     167.0000      90.9422       1.2366       3.0000      82.1976      75.8902      75.8809      76.3590      83.4573      81.9278    1007.2390     208.4564       3.3544
      90.4494      14.0058       6.0000       0.1468     253.0000     182.0000     214.0000     185.0000     214.0000     131.0000      92.7114       1.2366       3.0000      82.0698      75.5118      76.1395      76.3590      83.4573      81.9278    1008.8755     208.4564       3.3292
      90.5256      13.8640       6.0000       0.1469     428.0000     183.0000     399.0000     204.0000     408.0000     160.0000      94.1962       1.2366       3.0000      82.5809      75.5118      76.3981      76.3590      83.5852      81.9278    1011.3301     208.4564       3.3024
      90.6018      14.9974       6.0000       0.1469     456.0000     321.0000     523.0000     319.0000     419.0000     388.0000      95.1084       1.2366       3.0000      82.3253      75.5118      76.3981      77.1282      84.6090      81.9278    1010.5120     208.4564       3.2784
      90.6780      16.1420       6.0000       0.1468     535.0000     414.0000     599.0000     391.0000     482.0000     421.0000      95.4198       1.2366       3.0000      82.5809      75.5118      76.2688      77.7692      84.6090      81.9278    1008.0573     208.4564       3.2632
      90.7542      16.8643       6.0000       0.1469     496.0000     473.0000     628.0000     433.0000     475.0000     369.0000      95.2617       1.2366       3.0000      82.5809      75.5118      76.6567      78.1538      84.6090      82.0532    1008.0573     208.4564       3.2634
      90.8304      17.4284       6.0000       0.1469     536.0000     485.0000     539.0000     474.0000     491.0000     425.0000      94.8330       1.2366       3.0000      82.5809      75.5118      76.3981      78.1538      84.6090      81.9278    1010.5120     208.4564       3.2826
      90.9066      17.0054       6.0000       0.1468     521.0000     522.0000     493.0000     459.0000     431.0000     419.0000      94.3606       1.2366       3.0000      82.5809      75.5118      76.6567      78.1538      84.6090      81.9278    1009.6937     208.4564       3.3182
