~VERSION INFORMATION 
VERS.          2.0   :CWLS LOG ASCII STANDARD - VERSION 2.0
WRAP.          NO    :ONE LINE PER DEPTH STEP
PROD.  Schlumberger   :LAS Producer
PROG.  DLIS to ASCII 19C2-270                          :LAS Program name and version
CREA.        2014/02/23 09:08                          :LAS Creation date {YYYY/MM/DD hh:mm}
DLIS_CREA.  2014-Feb-23 08:51                          :DLIS Creation date and time {YYYY-MMM-DD hh:mm}
SOURCE.     1AA063409108W400_FMI_SONIC_REPEAT.dlis     :DLIS File Name
FILE-ID.     ConPr_R2L2Up_S008_FBST_DSLT_HGNS          :File Identification Number
#--------------------------------------------------
~WELL INFORMATION 
#MNEM.UNIT      DATA             DESCRIPTION
#---- ------ --------------   -----------------------------
STRT.M      88.69680        :START DEPTH
STOP.M      258.01320       :STOP DEPTH
STEP.M       0.15240        :STEP
NULL .          -999.25      :NULL VALUE
COMP.        SUNCOR ENERGY INC.                       :COMPANY
WELL.        SUNCOR LEWIS 6-34-91-8                   :WELL
FLD  .        LEWIS                                    :FIELD
LOC.        6-34-91-8W4                              :LOCATION
PROV .        ALBERTA                                  :PROVINCE
UWI.        1AA063409108W400                         :UNIQUE WELL ID
LIC  .        0464072                                  :LICENSE NUMBER
CTRY .        CA                                       :COUNTRY (WWW code)
DATE.        23-Feb-2014                              :LOG DATE {DD-MMM-YYYY}
SRVC .        Schlumberger                             :SERVICE COMPANY
LATI .DEG     56.934500 degrees                        :LATITUDE
LONG .DEG     -111.20540 degrees                       :LONGITUDE
GDAT .                                                 :GeoDetic Datum
SECT .        06-34                                    :Section
RANG .        08W4                                     :Range
TOWN .        091                                      :Township
#-----------------------------------------------------------------------------
~CURVE INFORMATION 
#MNEM.UNIT   API CODE                                  DESCRIPTION
#---- -----  --------                                  -----------------------
 DEPT.M         00 001 00 00             :Depth Index - Measured Depth
   BS.MM        61 280 07 00             :BIT SIZE {F14.5}
   C1.MM        42 280 06 00             :CALIPER 1 {F14.5}
   C2.MM        42 280 05 00             :CALIPER 2 {F14.5}
DEPTH.M         00 001 00 00             :DEPTH INDEX {F14.5}
DEVIM.DEG       00 630 00 00             :MEMORIZED DEVIATION {F14.5}
   DT.US/M      60 520 32 00             :DELTA-T (ALSO CALLED SLOWNESS OR INTERVAL TRANSIT TIME) {F14.5}
   EI.MA        00 000 00 00             :EMEX CURRENT {F14.5}
   EV.V         00 000 00 00             :EMEX VOLTAGE {F14.5}
 FBCR.OHMS      00 000 00 00             :CORRELATION RESISTANCE {F14.5}
   GR.GAPI      42 310 01 00             :GAMMA RAY {F14.5}
 HAZI.DEG       00 620 00 00             :HOLE AZIMUTH RELATIVE TO TRUE NORTH {F14.5}
HAZIM.DEG       00 620 00 00             :HOLE AZIMUTH RELATIVE TO TRUE NORTH {F14.5}
 P1AZ.DEG       00 630 00 00             :PAD 1 AZIMUTH IN HORIZONTAL PLANE (0 = TRUE NORTH) {F14.5}
P1NO_FBST.DEG   00 000 00 00             :PAD 1 AZIMUTH IN PLANE ORTHOGONAL TO TOOL AXIS (0 = TRUE NORTH), MEMORIZED TO FBST {F14.5}
   RB.DEG       00 631 00 00             :RELATIVE BEARING {F14.5}
 SDEV.DEG       00 000 00 00             :SONDE DEVIATION {F14.5}
 TENS.N         61 280 10 00             :CABLE TENSION {F14.5}
  TT1.US        60 520 32 01             :TRANSIT TIME 1 {F14.5}
  TT2.US        60 520 32 02             :TRANSIT TIME 2 {F14.5}
  TT3.US        60 520 32 03             :TRANSIT TIME 3 {F14.5}
  TT4.US        60 520 32 04             :TRANSIT TIME 4 {F14.5}
~PARAMETER INFORMATION 
#MNEM.UNIT    VALUE                      DESCRIPTION
#---- -----   --------------------       ------------------------
 CSGD.M       72.80000                   :Casing Bottom of Driller
 CSGL.M       73.20000                   :Logger Casing Shoe Depth
 CSGS.MM      177.80000                  :Current Casing Size
 CSGW.KG/M    25.30000                   :Casing Weight
 MUDD.K/M3    1090.00000                 :Drilling Fluid Density
  DFL.C3      6.00000                    :Drilling Fluid Loss
   PH.        10.00000                   :Drilling Fluid pH
  MUD.        Polymer                    :Drilling Fluid Type
 MUDV.S       108.00000                  :Drilling Fluid Viscosity
   GL.M       445.00000                  :Elevation of Ground Level
 EREF.M       449.00000                  :Elevation of Kelly Bushing
  ENG.        NICK POLLEY                :Engineer s Name
 DREF.        KB                         :Logging Measured From (Name of Logging Elevation Reference)
 BASE.        WINTER PROJECT             :LOGGING UNIT LOCATION
 FACT.        CP4P-00020                 :Service Order Number
  LIC.        0464072                    :API Well Number
 PROV.        ALBERTA                    :County or Parish
 UNIT.        3125                       :Logging Unit Number
 RMCT.DEGC    8.73000                    :Mudcake Sample Temperature
 RMFT.DEGC    8.73000                    :Mud Filtrate Sample Temperature
 TMAX.DEGC    12.28000                   :Maximum Recorded Temperature
 MUDS.        Flowline                   :Mud Sample Source
  RMT.DEGC    8.73000                    :Mud Sample Temperature
RANGE.        08W4                       :Range
  RMC.OHMM    1.18000                    :Resistivity of Mud Cake Sample
  RMF.OHMM    0.59200                    :Resistivity of Mud Filtrate Sample
   RM.OHMM    0.78900                    :Resistivity of Mud Sample
SECTION.      06-34                      :Section
 TIMC.        01 55 00                   :Time Circulation Stopped
 TIML.        07 55 00                   :Time Logger At Bottom
TOWNSHIP.     091                        :Township
  WIT.        JONATHAN FELL              :Witness s Name
  APD.M       4.00000                    :Elevation of Depth Reference (LMF) Above Permanent Datum
 APIN.        0464072                    :API Well Number
  BHT.DEGC    12.28000                   :Bottom Hole Temperature
  BLI.M       256.00000                  :Bottom Log Interval
   BS.MM      156.00000                  :Bit Size
   CN.        SUNCOR ENERGY INC.         :Company Name
 COUN.        ALBERTA                    :County or Parish
 LDAT.        23-Feb-2014                :Tools Above Rotary Table Date
  DCS.        23-Feb-2014                :Date Circulation Stopped
  DFL.C3      6.00000                    :Drilling Fluid Loss
 DLAB.        23-Feb-2014                :Date Logger At Bottom
  DMF.        KB                         :Drilling Measured From (Name of Drilling Elevation Reference)
  EDF.M       448.70001                  :Elevation of Drill Floor
  EGL.M       445.00000                  :Elevation of Ground Level
  EKB.M       449.00000                  :Elevation of Kelly Bushing
   FD.K/M3    1000.00000                 :Fluid Density
   FL.        6-34-91-8W4               :FIELD LOCATION
  FL1.        1AA063409108W400           :Field Location, Line 1
  FL2.                                   :Field Location, Line 2
   FN.        LEWIS                      :Field Name
 HID1.                                   :Header Identifier 1
 HID2.                                   :Header Identifier 2
 HIDE.        LEWIS                      :Header Identifier
 LATI.        56.934500 degrees          :Latitude
  LMF.        KB                         :Logging Measured From (Name of Logging Elevation Reference)
 LONG.        -111.20540 degrees         :Longitude
 MATR.        SAND                       :Rock Matrix for Neutron Porosity Corrections
 MCSS.        Calculated                 :Mudcake Sample Source
 MDEC.DEG     14.38033                   :Magnetic Field Declination
 MDEN.K/M3    2650.00000                 :Matrix Density for Density Porosity
 MRT1.DEGC    12.28000                   :Maximum Recorded Temperature 1
 MRT2.DEGC    -999.25000                 :Maximum Recorded Temperature 2
  NMT.        NOBARITE                   :HRDD Mud Type for Nuclear Devices
  OS1.                                   :Other Services Line 1
  OS2.                                   :Other Services Line 2
  OS3.                                   :Other Services Line 3
  OS4.                                   :Other Services Line 4
  OS5.                                   :Other Services Line 5
 PDAT.        GL                         :Permanent Datum
   R1.        THANK YOU FOR CHOOSING SCHLUMBERGER  :Remarks Line 1
   R2.        ALL TOOLS RAN AS PER TOOL SKETCH AND ALL PRESENTATIONS AS PER CLIENT REQUEST  :Remarks Line 2
   R3.        INDUCTION LOG – DESCENT #1 :Remarks Line 3
   R4.        NEUTRON / DENSITY LOG – DESCENT #1  :Remarks Line 4
  RMB.OHMM    0.70618                    :Resistivity of Mud at Bottom Hole Temperature
 RMFB.OHMM    0.52986                    :Resistivity of Mud Filtrate At Bottom Hole Temperature
  RUN.        ONE/2                      :Run Number
  SON.        CP4P-00020                 :SERVICE ORDER NUMBER
  TDD.M       256.00000                  :Driller Total Depth
  TDL.M       256.00000                  :Logger Total Depth
  TLI.M       75.00000                   :Top Log Interval
 UWID.        1AA063409108W400           :Unique Well Identifier
   WN.        SUNCOR LEWIS 6-34-91-8     :Well Name
  EPD.C3      445.000000                 :Elevation of Permanent Datum above Mean Sea Level
#-----------------------------------------------------------------------------
#
#      DEPT          BS            C1            C2            DEPTH         DEVIM         DT            EI            EV            FBCR          GR            HAZI          HAZIM         P1AZ        P1NO_FBST       RB            SDEV          TENS          TT1           TT2           TT3           TT4
#
#-----------------------------------------------------------------------------

~A       DEPT           BS           C1           C2        DEPTH        DEVIM           DT           EI           EV         FBCR           GR         HAZI        HAZIM         P1AZ    P1NO_FBST           RB         SDEV         TENS          TT1          TT2          TT3          TT4
# ...
    156.05760     156.00000     149.42792     150.22852     156.06017       0.41147     396.02295    2101.19946      15.80963  706700.43750      83.88998     223.73885     226.90869     270.71628     265.05472      46.97720       0.41082    5207.38477     735.71021     493.30487     737.47308     497.71225
    156.21000     156.00000     146.97052     150.22852     156.20901       0.40955     399.22556    2104.60791      15.75115  798717.81250      74.47188     223.59428     227.23814     268.71194     265.65100      45.11584       0.40899    5632.04199     734.97882     492.73865     735.62256     497.26224
    156.36240     156.00000     144.51311     147.33305     156.36319       0.40725     398.47693    2136.98682      15.67318 1051723.00000      63.41208     223.45992     227.61993     265.59399     264.45673      42.13292       0.40723    5060.12988     733.52130     494.35315     733.28937     499.62347
    156.51480     156.00000     145.74181     147.65475     156.51924       0.40544     396.77216    2130.17017      15.73166  569989.18750      61.64477     223.48505     228.07881     265.33591     261.49164      41.84862       0.40647    5076.31055     733.94452     494.00012     733.85663     496.66986
    156.66720     156.00000     149.42792     145.72443     156.67163       0.40353     394.16370    2130.17017      15.75115 1145387.37500      63.17630     223.65872     228.43071     265.35422     258.99329      41.69421       0.40552    5476.35400     735.63153     491.49411     736.48499     494.39499
    156.81960     156.00000     149.42792     145.40269     156.82251       0.40193     393.22101    2094.38281      15.71216  443951.93750      64.93581     223.96558     228.75984     263.00793     257.73279      39.03808       0.40523    6109.18750     738.61719     492.64075     740.12341     494.06476
    156.97200     156.00000     150.34944     145.72443     156.97372       0.40132     393.85620    2133.57861      15.65368 1555746.37500      66.82090     224.27130     228.94136     260.18243     255.76230      35.90984       0.40446    5973.66504     741.66437     492.10046     740.75751     493.50552
    157.12440     156.00000     151.27098     146.36787     157.12341       0.40005     394.55090    2128.46582      15.55621 1565467.50000      68.92587     224.60109     228.94119     258.24097     255.96674      33.63709       0.40347    6317.66113     741.22107     494.23853     740.19489     497.60635
    157.27680     156.00000     151.27098     148.94165     157.27345       0.39938     400.09402    2131.87427      15.45874  624542.62500      68.17193     224.97939     228.83130     256.67120     255.85822      31.69045       0.40205    5901.90039     741.30139     498.65469     740.07135     498.56982
    157.42920     156.00000     151.27098     150.55026     157.42712       0.39847     403.96338    2164.25317      15.53672  774839.81250      68.87890     225.31342     228.56480     255.78639     255.62424      30.47446       0.39977    5631.44873     742.13135     500.04370     742.20935     501.18579
    157.58160     156.00000     153.72836     151.51540     157.58147       0.39702     404.94012    2136.98682      15.41975  680685.87500      64.85735     225.52339     228.23404     255.91991     256.43414      30.39668       0.39785    5223.39844     743.69769     500.69104     742.72656     501.22375
    157.73400     156.00000     151.27098     150.22852     157.73335       0.39499     405.40146    2205.15259      15.06886 3027639.50000      62.46939     225.70364     227.91360     255.70316     255.67380      29.99712       0.39627    5317.40430     744.36353     502.35287     743.42059     502.92538
    157.88640     156.00000     148.19922     143.15063     157.88390       0.39352     407.04208    2234.12354      14.73746  439453.28125      62.70507     225.89627     227.65611     256.06201     254.00522      30.16698       0.39615    5106.26172     744.18420     501.80304     743.52185     503.71063
    158.03880     156.00000     145.43466     145.72443     158.03561       0.39095     403.96783    2268.20630      14.52303  640118.62500      67.68504     226.05125     227.50662     256.23013     252.11540      30.17949       0.39667    5219.24658     744.80908     503.18619     743.54004     503.76025
    158.19120     156.00000     146.97052     146.36787     158.18802       0.38971     399.29962    2300.58496      14.46455  241252.10938      80.62995     226.28436     227.64989     255.07939     251.39149      28.79500       0.39756    5392.13428     742.76831     498.95660     743.93719     499.84650
    158.34360     156.00000     149.42792     146.36787     158.34390       0.38911     397.57254    2263.09375      14.42556  280413.53125      87.11022     226.49994     227.97145     252.66620     245.60277      26.16386       0.40024    5832.73047     748.26196     499.07748     745.06873     498.35571
    158.49600     156.00000     146.97052     146.36787     158.49875       0.38854     393.69150    2292.06445      14.40607  284989.40625      95.20063     226.64966     228.41095     251.98322     244.14868      25.33288       0.40232    6232.55176     728.65692     498.19064     729.03406     498.35483
    158.64840     156.00000     148.81358     146.04616     158.64658       0.38807     393.27921    2290.36011      14.26961  358087.87500      96.22163     226.79111     228.85707     249.88348     247.06836      23.09237       0.40565    5821.83252     730.28809     496.34720     729.40503     493.40903
    158.80080     156.00000     149.42792     148.94162     158.80095       0.38855     402.79617    2300.58496      14.25011  361493.56250      97.16415     226.72610     229.16858     245.60397     249.97824      18.87890       0.40824    5484.93555     730.79462     480.52158     731.81781     483.53903
    158.95320     156.00000     153.11401     151.19368     158.95459       0.38941     385.07083    2305.69751      14.01619  427634.00000      90.13436     226.71466     229.27835     244.14984     251.53703      17.43636       0.41053    5767.56445     733.59424     487.28235     733.81848     487.64099
    159.10560     156.00000     151.27098     152.80231     159.10829       0.39192     383.38336    2375.56763      13.78226  677516.87500      88.13138     226.58473     229.07504     247.06958     252.41563      20.48442       0.41224    5758.50098     738.62286     489.75534     739.70239     490.39453
    159.25800     156.00000     150.04227     151.51540     159.26024       0.39510     385.35452    2407.94629      13.52884  245312.12500      81.84755     226.48851     228.67731     249.97955     251.85963      23.48951       0.41353    5212.42627     748.85400     496.05957     749.71155     496.28879
    159.41040     156.00000     150.65662     151.51540     159.40976       0.39966     386.18619    2436.91699      13.19744  296924.87500      77.01668     226.38722     228.08711     251.53835     249.35187      25.15032       0.41379    4886.81641     757.57892     501.16638     757.33661     500.25784
    159.56280     156.00000     151.27098     151.51540     159.56384       0.40519     410.29971    2431.80493      12.88553  212036.59375      74.77817     226.41292     227.47446     252.41699     247.33856      26.00411       0.41409    5210.94336     764.68274     498.50089     763.70801     502.71057
    159.71520     156.00000     151.09555     150.22852     159.71710       0.41085     417.14056    2498.26660      12.43717  263418.06250      87.22002     226.57379     226.89561     251.86096     244.62753      25.28736       0.41316    5684.82715     764.79681     513.75043     764.37219     518.68158
    159.86760     156.00000     151.27098     150.22852     159.86949       0.41612     427.29355    2564.72852      12.06679  271548.78125     102.53718     226.88451     226.41780     249.35313     243.39679      22.46927       0.41126    5237.03955     763.97925     519.89661     767.56787     528.30927
