~Version Information
 VERS.                2.00:   CWLS log ASCII Standard -VERSION 2.00
 WRAP.                  NO:   One line per frame      
~Well Information Block
#MNEM.UNIT                   Data                        Description
#----.----   -----------------------------------------   -------------------------------
 STRT.M                                       27.0000 : Starting Depth
 STOP.M                                      188.0000 : Ending Depth
 STEP.M                                        0.1000 : Level Spacing
 NULL.                                      -999.2500 : Absent Value
 COMP.       SUNCOR ENERGY INC                        : Company
 WELL.       SUNCOR LEWIS 7-22-92-8                   : Well
 FLD .       UNDEFINED                                : Field
 LOC .       LSD 07-22-092-08W4                       : Location
 PROV.       ALBERTA                                  : Province
 CTRY.       CA                                       : Country
 SRVC.       Baker Hughes                             : Service Company
 DATE.       16-JAN-2016                              : Log Date
 UWI .       1AA072209208W400                         : Unique Well ID
 LIC .       0477502                                  : License Number
~Curve Information Block
#MNEM    .UNIT        API Codes     Curve Description
#--------.--------   LG--CV-CL--M   -------------------------------
 DEPT    .M           0   1  0  1 : Depth
 AZSTQH  .deg        99 995 99  1 : Azimuth of reference pad for STAR
 BKRGQH  .dim        99 995 99  1 : Bucker driver value
 DEVSTQH .deg        99 995 99  1 : Deviation for STAR
 DIP1QH  .raw        75 610  1  1 : Pad 1 average data of buttons 11, 12, 13, 14
 DIP2QH  .raw        75 610  1  1 : Pad 2 average data of buttons 11, 12, 13, 14
 DIP3QH  .raw        75 610  1  1 : Pad 3 average data of buttons 11, 12, 13, 14
 DIP4QH  .raw        75 610  1  1 : Pad 4 average data of buttons 11, 12, 13, 14
 DIP5QH  .raw        75 610  1  1 : Pad 5 average data of buttons 11, 12, 13, 14
 DIP6QH  .raw        75 610  1  1 : Pad 6 average data of buttons 11, 12, 13, 14
 GR      .gAPI       30 310  1  1 : Gamma ray
 PADFQH  .pct        94 995 99  1 : Pad force
 PADGQH  .dim        99 995 99  1 : Pad gain code
 RAD1QH  .mm         75 280 99  1 : Radius, tool axis to pad 1 face
 RAD2QH  .mm         75 280 99  1 : Radius, tool axis to pad 2 face
 RAD3QH  .mm         75 280 99  1 : Radius, tool axis to pad 3 face
 RAD4QH  .mm         75 280 99  1 : Radius, tool axis to pad 4 face
 RAD5QH  .mm         75 280 99  1 : Radius, tool axis to pad 5 face
 RAD6QH  .mm         75 280 99  1 : Radius, tool axis to pad 6 face
 RAZGSTQH.mG         99 995 99  1 : Raw Z-axis accelerometer shifted to STAR
 RBSTQH  .deg        99 995 99  1 : Relative bearing (relative to borehole high side) for STAR
 SPD     .m/min      99 636 99  1 : Speed
~Parameter Information Block
#MNEM.UNIT                     Value                    Description
#----.----   ----------------------------------------   -------------------------------
 HID1.       RESISTIVITY IMAGING LOG^T                : Header Identifer
 HID2.       GAMMA RAY LOG                            : Header Identifer
 FILE.       3953                                     : File Number
 CMT1.       UID                                      : Comment 1  
 CMT2.       1AA072209208W400                         : Comment 2  
 CMT3.       LICENSE                                  : Comment 3  
 CMT4.       0477502                                  : Comment 4  
 FL2 .       BH LOC. LSD  07                          : Field Location 2
 SECT.       22                                       : Section
 TOWN.       092                                      : Township
 RANG.       08W4                                     : Range
 OS1 .       ZDL-CN-GR-CAL                            : Other Services Line 1
 OS2 .       HDIL-GR-CAL, CVL                         : Other Services Line 2
 OS3 .       DAL-GR-CAL                               : Other Services Line 3
 OS4 .       COMPOSITE                                : Other Services Line 4
 PDAT.       G.L.                                     : Permanent Datum
 EPD .M      438.50                                   : Elevation Of Perm. Datum
 LMF .       K.B.                                     : Log Measured From
 APD .M      2.20                                     : Above Permanent Datum
 DMF .       KELLY BUSHING                            : Drilling Measured From
 EKB .M      440.70                                   : Elevation Of Kelly Bushing
 EGL .M      438.50                                   : Elevation Of Ground Level
 RUN .       1                                        : Run Number
 TRIP.       1                                        : Trip Number
 SON .       CA003953J                                : Service Order Number
 TDD .M      187.0                                    : Total Depth - Driller
 TDL .M      186.3                                    : Total Depth - Logger
 BLI .M      183.0                                    : Bottom Log Interval
 TLI .M      55.0                                     : Top Log Interval
 CSIZ.MM     177.8                                    : Casing Size
 CBDR.M      49.4                                     : Casing Bottom - Driller
 CBLO.M      49.4                                     : Casing Bottom - Logger
 BS  .MM     156.0                                    : Bit Size
 DFT .       WB (WATER BASE MUD)                      : Drilling Fluid Type
 DFD .G/L    1030.0                                   : Drilling Fluid Density
 DFV .S      79.0                                     : Drilling Fluid Viscosity
 DFPH.       7.0                                      : Drilling Fluid Ph
 DFL .ML     8.0                                      : Drilling Fluid Loss
 MSS .       F (FLOWLINE)                             : Mud Sample Source
 RMS .OHMM   1.2                                      : Resistivity Of Mud Sample
 MST .DEGC   25.0                                     : Mud Sample Temperature
 RMFS.OHMM   1.0                                      : Resistivity Of Mud Filtrate Sample
 MFST.DEGC   25.0                                     : Mud Filtrate Sample Temperature
 RMCS.OHMM   1.4                                      : Resistivity Of Mud Cake Sample
 MCST.DEGC   25.0                                     : Mud Cake Sample Temperature
 MFSS.       CALCULATED                               : Mud Filtrate Sample Source
 MCSS.       CALCULATED                               : Mud Cake Sample Source
 RMB .OHMM   2.0                                      : Mud Resistivity At Bht
 BHT .DEGC   7.0                                      : Bottom Hole Temperature
 TSC .       5.0 HOURS                                : Time Since Circulation
 MRT .DEGC   7.0                                      : Maximum Recorded Temperature
 LUN .       Z004250                                  : Logging Unit Number
 LUL .       LEDUC OH                                 : Logging Unit Location
 ENGI.       A.MALIK                                  : Engineer's Name
 WITN.       H.WILSON / P.ENE                         : Witness' Name
 TSTR.       /STAR/GR/                                : Title Service Mnemonic
 TSTG.       NA                                       : Title Service Mnemonic
 STUS.       FINAL                                    : Status
 LCNM.       BAKER ATLAS                              : Logging Company Name
 LCC .       150                                      : Logging Company Code
 OPMD.       OH.WIRE                                  : Operation Mode
 PANA.       A.MALIK                                  : Processing Analyst
 PCON.       BAKER ATLAS                              : Processing Contractor
 APIN.                                                : API Serial Number
 STAT.                                                : State Or Province
~Other information
LAT/LON  57.0175, -111.419                                                      
TIME STOPPED CIRCULATION  16-JAN-2016 0830AM                                    
STAR RUN WITH 0% PAD FORCE AND AUTOMATICALLY CONTROLLED GAINS                   
ANY STICK AND PULL AFFECTS LOG QUALITY                                          
RIG  ENCORE 402                                                                 
CREW  F.AJAGU, A.MALIK                                                          
#  Curve Data
~A  DEPT        AZSTQH      BKRGQH      DEVSTQH     DIP1QH      DIP2QH      DIP3QH      DIP4QH      DIP5QH      DIP6QH      GR          PADFQH      PADGQH      RAD1QH      RAD2QH      RAD3QH      RAD4QH      RAD5QH      RAD6QH      RAZGSTQH    RBSTQH      SPD       
# ...
    135.5000    195.7039     10.0000      0.3283    551.9843    113.0866    808.8740    131.0236    366.8032      6.5433     26.5593      1.2366      5.0000     76.8318     74.5027     75.8219     77.2564     82.4920     80.1142   1010.9565    108.1516      3.3385
    135.6000    196.1420     10.0000      0.3284    127.0000    365.0000    119.0000    723.0000     87.0000     84.0000     29.5642      1.1304      4.0000     76.9595     75.0072     76.1395     77.6410     82.5615     79.6697   1015.4213    108.1516      3.3439
    135.7000    197.5692     10.0000      0.3284    256.0000    174.0000    533.0000    126.0000    213.0000     53.0000     31.7383      1.1304      4.0000     77.3428     75.0072     76.2688     77.3846     82.3055     79.6697   1005.6026    108.1516      3.3479
    135.8000    197.5692     10.0000      0.3380    215.5276    223.2677    160.0709    263.1653    101.0000    153.6693     32.6379      1.1906      3.0000     76.7040     75.0072     75.8809     77.2564     82.1776     79.4188   1010.1576    115.9669      3.3505
    135.9000    196.4244     10.0000      0.3284    204.0000    141.0000    174.0000     62.0000    244.0000    106.0000     32.2662      1.2366      3.0000     76.5763     74.5027     75.8809     77.2564     83.4573     79.1679   1012.1484    108.1516      3.3550
    136.0000    195.2802     10.0000      0.3284    819.0000    158.0000    395.0000    298.0000    588.0000    191.0000     30.9316      1.2366      3.0000     77.4706     75.0072     76.0102     78.1538     83.4573     79.1679   1006.4208    108.1516      3.3634
    136.1000    195.5627     10.0000      0.3283    222.0000    773.0000    484.0000    592.0000    235.0000   1020.0000     28.9365      1.2366      4.0000     77.7261     75.0072     76.2688     77.6410     83.4573     80.1715   1007.2390    108.1516      3.3726
    136.2000    195.7179     10.0000      0.3284    429.0000    575.0000    527.0000    693.0000    245.0000    166.0000     26.8122      1.2366      5.0000     77.5983     75.3857     75.6223     81.1025     83.4573     80.9242   1008.0573    108.1516      3.3792
    136.3000    195.2802     10.0000      0.3283    661.7638    942.5906    378.9213    926.0551    623.8504    380.6535     25.0498      1.1304      6.0000     78.1094     74.0717     75.2884     77.6945     83.4573     79.2410   1001.0347    108.1516      3.3833
    136.4000    194.0058     10.0000      0.3284    587.0000    312.0000    528.0000    478.0000    397.0000    170.0000     23.9107      1.2366      6.0000     78.1094     74.1243     74.9758     77.7692     84.2251     80.1715   1012.1484    108.1516      3.3868
    136.5000    193.4381     10.0000      0.3284    399.0000    320.0000    386.0000    733.0000    306.0000    195.0000     23.4626      1.2366      6.0000     78.6204     74.1243     74.9758     77.6410     83.4573     80.9242   1010.5120    108.1516      3.3910
    136.6000    193.8639     10.0000      0.3284    487.4961    795.4882    447.0866    415.6142    606.0551    180.0236     23.3308      1.2366      6.0000     78.7481     74.0647     75.4248     77.6410     83.9691     81.4260   1009.6937    108.1516      3.3944
    136.7000    193.8639     10.0000      0.3283    425.0000    286.0000    417.0000    560.0000    429.0000    213.0000     23.2291      1.2366      6.0000     78.6204     73.9982     74.9758     77.7692     84.6090     81.4260   1014.6031    108.1516      3.3971
    136.8000    194.4311     10.0000      0.3283    557.0000    349.0000    407.0000    579.0000    376.0000    135.0000     22.9646      1.2366      6.0000     79.0037     73.9982     75.2344     77.7692     83.4573     81.4260   1017.0578    108.1516      3.4043
    136.9000    197.0054     10.0000      0.3381    541.0000    336.0000    248.0000    349.0000    398.0000    179.0000     22.5618      1.1304      6.0000     78.6204     73.7459     74.9758     77.2564     83.4573     81.4260   1015.4213    115.9669      3.4171
    137.0000    199.2970     10.0000      0.3380    341.0000    416.0000    465.0000    476.0000    450.0000     85.0000     22.0302      1.1304      6.0000     78.1094     73.7459     74.9758     76.7436     83.3293     79.2933   1001.5114    115.9669      3.4283
    137.1000    201.1644     10.0000      0.3380    368.0000    880.0000    400.0000    419.0000    638.0000    427.0000     21.4151      1.1304      6.0000     78.1094     73.7459     74.8465     76.3590     82.5615     79.2933   1003.9661    115.9669      3.4296
    137.2000    201.0250     10.0000      0.3380    476.0000    413.0000    241.0000    607.0000    503.0000     83.0000     20.8580      1.2366      6.0000     78.1094     73.6198     74.5879     76.3590     82.4335     77.5370   1013.7849    115.9669      3.4213
    137.3000    199.8812     10.0000      0.3381    193.0000    232.0000    285.0000    498.0000    206.0000     53.0000     20.4337      1.2366      6.0000     78.1094     73.7459     75.3637     76.8718     82.9454     79.1679   1006.4208    115.9669      3.4109
    137.4000    199.8812     10.0000      0.3381    312.3780    319.6299    211.8346    213.5591    164.4409     76.6457     20.1362      1.1304      6.0000     77.7261     73.7459     75.6223     76.3590     82.5615     80.0460   1012.9667    115.9669      3.4082
    137.5000    198.5733     10.0000      0.3381    205.0000    304.0000    203.0000    262.0000    402.0000      6.0000     20.0409      1.2366      6.0000     77.9816     73.6198     75.6223     76.7436     82.5615     79.6697   1010.5120    115.9669      3.4164
    137.6000    197.2875     10.0000      0.3380    148.0000    227.0000    298.0000    186.0000    206.0000     40.0000     20.4028      1.2366      6.0000     77.3428     74.2504     75.4930     77.6410     83.4573     79.6697   1006.4208    115.9669      3.4290
    137.7000    197.5692     10.0000      0.3381    283.8110    253.6063    157.1969    176.6063    249.4173      3.2047     21.5347      1.1304      6.0000     76.9595     74.2504     75.4930     77.4876     83.4573     80.5478   1006.4208    115.9669      3.4389
    137.8000    198.5945     10.0000      0.3381    185.0000    153.0000    162.0000    212.0000    198.0000      3.0000     23.4890      1.2366      6.0000     77.9816     74.2504     75.7516     77.5128     83.4573     80.9242   1010.5120    115.9669      3.4451
    137.9000    200.1611     10.0000      0.3380    175.0000    128.0000    187.0000    248.0000    191.0000      7.0000     25.7254      1.2366      6.0000     78.1094     74.1243     75.8809     77.6410     83.4573     80.2969   1009.6937    115.9669      3.4490
    138.0000    199.0163     10.0000      0.3381    167.0000     97.0000    205.0000    124.0000    173.0000      0.0000     27.6297      1.2366      5.0000     78.1094     74.1243     75.7516     77.7692     84.3531     80.5478   1018.6942    115.9669      3.4496
    138.1000    199.8812     10.0000      0.3536    159.0000    182.0000    165.0000    199.0000    158.0000     36.0000     28.7730      1.2366      5.0000     76.9595     74.5027     75.3637     77.2564     84.3531     79.1679   1009.6937    123.2201      3.4417
    138.2000    199.4604     10.0000      0.3537    126.4488     69.4488     85.2047    102.4488     98.3071     41.0630     29.5076      1.2366      4.0000     76.4485     74.5027     74.9045     77.0000     84.6090     79.0424   1011.8649    123.2201      3.4244
    138.3000    197.5879     10.0000      0.3381     43.0000     48.0000     38.0000     44.0000     48.0000     12.0000     30.2940      1.1304      3.0000     77.3428     74.5027     75.1051     76.8718     84.0971     79.6697   1005.6026    115.9669      3.4033
    138.4000    198.1516      9.0000      0.3380    474.0000     16.0000    366.0000     24.0000    402.0000      0.0000     31.2829      1.2366      3.0000     76.4485     74.5027     75.3637     76.8718     83.4573     79.5442   1017.8760    115.9669      3.3898
    138.5000    198.1516      9.0000      0.3381    508.7244    389.7638    265.6772    382.9134    402.1181    437.5276     31.8945      1.2366      3.0000     77.6698     74.1243     75.3637     76.3590     82.9454     80.5478   1018.2368    115.9669      3.3900
