~Version Information
 VERS.                2.00:   CWLS log ASCII Standard -VERSION 2.00
 WRAP.                  NO:   One line per frame      
~Well Information Block
#MNEM.UNIT                   Data                        Description
#----.----   -----------------------------------------   -------------------------------
 STRT.M                                       27.0000 : Starting Depth
 STOP.M                                      188.0000 : Ending Depth
 STEP.M                                        0.1000 : Level Spacing
 NULL.                                      -999.2500 : Absent Value
 COMP.       SUNCOR ENERGY INC                        : Company
 WELL.       SUNCOR LEWIS 7-22-92-8                   : Well
 FLD .       UNDEFINED                                : Field
 LOC .       LSD 07-22-092-08W4                       : Location
 PROV.       ALBERTA                                  : Province
 CTRY.       CA                                       : Country
 SRVC.       Baker Hughes                             : Service Company
 DATE.       16-JAN-2016                              : Log Date
 UWI .       1AA072209208W400                         : Unique Well ID
 LIC .       0477502                                  : License Number
~Curve Information Block
#MNEM    .UNIT        API Codes     Curve Description
#--------.--------   LG--CV-CL--M   -------------------------------
 DEPT    .M           0   1  0  1 : Depth
 AZSTQH  .deg        99 995 99  1 : Azimuth of reference pad for STAR
 BKRGQH  .dim        99 995 99  1 : Bucker driver value
 DEVSTQH .deg        99 995 99  1 : Deviation for STAR
 DIP1QH  .raw        75 610  1  1 : Pad 1 average data of buttons 11, 12, 13, 14
 DIP2QH  .raw        75 610  1  1 : Pad 2 average data of buttons 11, 12, 13, 14
 DIP3QH  .raw        75 610  1  1 : Pad 3 average data of buttons 11, 12, 13, 14
 DIP4QH  .raw        75 610  1  1 : Pad 4 average data of buttons 11, 12, 13, 14
 DIP5QH  .raw        75 610  1  1 : Pad 5 average data of buttons 11, 12, 13, 14
 DIP6QH  .raw        75 610  1  1 : Pad 6 average data of buttons 11, 12, 13, 14
 GR      .gAPI       30 310  1  1 : Gamma ray
 PADFQH  .pct        94 995 99  1 : Pad force
 PADGQH  .dim        99 995 99  1 : Pad gain code
 RAD1QH  .mm         75 280 99  1 : Radius, tool axis to pad 1 face
 RAD2QH  .mm         75 280 99  1 : Radius, tool axis to pad 2 face
 RAD3QH  .mm         75 280 99  1 : Radius, tool axis to pad 3 face
 RAD4QH  .mm         75 280 99  1 : Radius, tool axis to pad 4 face
 RAD5QH  .mm         75 280 99  1 : Radius, tool axis to pad 5 face
 RAD6QH  .mm         75 280 99  1 : Radius, tool axis to pad 6 face
 RAZGSTQH.mG         99 995 99  1 : Raw Z-axis accelerometer shifted to STAR
 RBSTQH  .deg        99 995 99  1 : Relative bearing (relative to borehole high side) for STAR
 SPD     .m/min      99 636 99  1 : Speed
~Parameter Information Block
#MNEM.UNIT                     Value                    Description
#----.----   ----------------------------------------   -------------------------------
 HID1.       RESISTIVITY IMAGING LOG^T                : Header Identifer
 HID2.       GAMMA RAY LOG                            : Header Identifer
 FILE.       3953                                     : File Number
 CMT1.       UID                                      : Comment 1  
 CMT2.       1AA072209208W400                         : Comment 2  
 CMT3.       LICENSE                                  : Comment 3  
 CMT4.       0477502                                  : Comment 4  
 FL2 .       BH LOC. LSD  07                          : Field Location 2
 SECT.       22                                       : Section
 TOWN.       092                                      : Township
 RANG.       08W4                                     : Range
 OS1 .       ZDL-CN-GR-CAL                            : Other Services Line 1
 OS2 .       HDIL-GR-CAL, CVL                         : Other Services Line 2
 OS3 .       DAL-GR-CAL                               : Other Services Line 3
 OS4 .       COMPOSITE                                : Other Services Line 4
 PDAT.       G.L.                                     : Permanent Datum
 EPD .M      438.50                                   : Elevation Of Perm. Datum
 LMF .       K.B.                                     : Log Measured From
 APD .M      2.20                                     : Above Permanent Datum
 DMF .       KELLY BUSHING                            : Drilling Measured From
 EKB .M      440.70                                   : Elevation Of Kelly Bushing
 EGL .M      438.50                                   : Elevation Of Ground Level
 RUN .       1                                        : Run Number
 TRIP.       1                                        : Trip Number
 SON .       CA003953J                                : Service Order Number
 TDD .M      187.0                                    : Total Depth - Driller
 TDL .M      186.3                                    : Total Depth - Logger
 BLI .M      183.0                                    : Bottom Log Interval
 TLI .M      55.0                                     : Top Log Interval
 CSIZ.MM     177.8                                    : Casing Size
 CBDR.M      49.4                                     : Casing Bottom - Driller
 CBLO.M      49.4                                     : Casing Bottom - Logger
 BS  .MM     156.0                                    : Bit Size
 DFT .       WB (WATER BASE MUD)                      : Drilling Fluid Type
 DFD .G/L    1030.0                                   : Drilling Fluid Density
 DFV .S      79.0                                     : Drilling Fluid Viscosity
 DFPH.       7.0                                      : Drilling Fluid Ph
 DFL .ML     8.0                                      : Drilling Fluid Loss
 MSS .       F (FLOWLINE)                             : Mud Sample Source
 RMS .OHMM   1.2                                      : Resistivity Of Mud Sample
 MST .DEGC   25.0                                     : Mud Sample Temperature
 RMFS.OHMM   1.0                                      : Resistivity Of Mud Filtrate Sample
 MFST.DEGC   25.0                                     : Mud Filtrate Sample Temperature
 RMCS.OHMM   1.4                                      : Resistivity Of Mud Cake Sample
 MCST.DEGC   25.0                                     : Mud Cake Sample Temperature
 MFSS.       CALCULATED                               : Mud Filtrate Sample Source
 MCSS.       CALCULATED                               : Mud Cake Sample Source
 RMB .OHMM   2.0                                      : Mud Resistivity At Bht
 BHT .DEGC   7.0                                      : Bottom Hole Temperature
 TSC .       5.0 HOURS                                : Time Since Circulation
 MRT .DEGC   7.0                                      : Maximum Recorded Temperature
 LUN .       Z004250                                  : Logging Unit Number
 LUL .       LEDUC OH                                 : Logging Unit Location
 ENGI.       A.MALIK                                  : Engineer's Name
 WITN.       H.WILSON / P.ENE                         : Witness' Name
 TSTR.       /STAR/GR/                                : Title Service Mnemonic
 TSTG.       NA                                       : Title Service Mnemonic
 STUS.       FINAL                                    : Status
 LCNM.       BAKER ATLAS                              : Logging Company Name
 LCC .       150                                      : Logging Company Code
 OPMD.       OH.WIRE                                  : Operation Mode
 PANA.       A.MALIK                                  : Processing Analyst
 PCON.       BAKER ATLAS                              : Processing Contractor
 APIN.                                                : API Serial Number
 STAT.                                                : State Or Province
~Other information
LAT/LON  57.0175, -111.419                                                      
TIME STOPPED CIRCULATION  16-JAN-2016 0830AM                                    
STAR RUN WITH 0% PAD FORCE AND AUTOMATICALLY CONTROLLED GAINS                   
ANY STICK AND PULL AFFECTS LOG QUALITY                                          
RIG  ENCORE 402                                                                 
CREW  F.AJAGU, A.MALIK                                                          
#  Curve Data
~A  DEPT        AZSTQH      BKRGQH      DEVSTQH     DIP1QH      DIP2QH      DIP3QH      DIP4QH      DIP5QH      DIP6QH      GR          PADFQH      PADGQH      RAD1QH      RAD2QH      RAD3QH      RAD4QH      RAD5QH      RAD6QH      RAZGSTQH    RBSTQH      SPD       
# ...
    172.7000    142.9761      9.0000      0.3628     37.0000    958.0000     46.0000   1018.0000    100.0000    826.0000     37.0233      1.2366      3.0000     79.5147     74.8811     72.7777     73.2820     81.9216     80.5478   1012.1484     60.2159      3.4894
    172.8000    143.1805     10.0000      0.3627     99.9685     61.0394     27.0157    113.0630     68.4961     45.5354     34.4506      1.2366      3.0000     79.5147     74.8811     73.1014     75.9743     82.4970     82.4296   1007.6514     60.2159      3.4740
    172.9000    142.1591      9.0000      0.3626     19.0000     18.0000     16.0000     29.0000     18.0000      0.0000     33.1657      1.1304      3.0000     79.2592     74.8811     72.7777     76.3590     83.2013     82.6805   1008.0573     60.2159      3.4621
    173.0000    142.2562      8.0000      0.3627     40.0000      6.0000     27.0000      9.0000     22.0000      0.0000     33.6291      1.1304      3.0000     79.5147     75.0072     73.6828     76.3590     82.4335     83.0568   1017.8760     60.2159      3.4599
    173.1000    140.8266      7.0000      0.3627    197.5197     13.0000    176.6457     12.6063    140.6063      0.0000     34.7597      1.2366      3.0000     79.0037     75.0072     72.6993     75.9743     82.5615     81.3499   1007.7351     60.2159      3.4658
    173.2000    139.2906      7.0000      0.3939     15.0000    209.0000     11.0000    227.0000    252.0000    223.0000     35.6275      1.2366      3.0000     79.0037     75.0072     72.2605     75.4615     82.4335     80.5478   1014.6031     55.0215      3.4759
    173.3000    138.9750     10.0000      0.3940     90.0000    140.0000     90.0000    268.0000     90.0000    486.0000     35.7010      1.2366      4.0000     79.5147     74.8811     74.7172     76.3590     82.9454     81.9278   1008.0573     55.0215      3.4844
    173.4000    137.7314     10.0000      0.3940     52.0000     35.0000     55.0000     40.0000     35.0000      4.0000     35.3479      1.1304      3.0000     80.0257     75.0072     74.5879     77.2564     83.4573     82.6805   1010.5120     55.0215      3.4869
    173.5000    136.3997      9.0000      0.3627     95.0000     23.0000     44.0000     35.0000     42.0000      3.0000     34.8046      1.1304      3.0000     79.0037     75.0072     74.9758     76.4872     83.4573     82.5550   1003.9661     49.8271      3.4842
    173.6000    135.4752      9.0000      0.3627    110.6693    473.0236    150.1654     46.1102    201.5669    283.8583     33.9881      1.1789      3.0000     79.0037     75.0072     74.4586     76.3590     82.5615     82.3041   1010.9565     49.8271      3.4804
    173.7000    135.2738     10.0000      0.3627     41.0000    181.0000     36.0000    400.0000     38.0000    295.0000     32.8672      1.1304      3.0000     79.3869     75.0072     74.4586     75.9743     82.9454     81.9278   1003.1479     49.8271      3.4783
    173.8000    133.9120      9.0000      0.3994     27.0000     18.0000     21.0000     19.0000     27.0000      0.0000     31.5871      1.2366      3.0000     79.8980     75.0072     74.9758     76.3590     83.4573     82.6805   1013.7849     45.5592      3.4771
    173.9000    132.8696      9.0000      0.3995     58.0000     21.0000     25.5669     23.0000     45.0000      0.5669     30.3404      1.1304      3.0000     79.5147     75.0072     74.5879     76.3590     83.4573     82.8059   1012.2579     45.5592      3.4745
    174.0000    132.2263      8.0000      0.3995    268.0000     20.0000    224.0000     14.0000    240.0000      4.0000     29.2703      1.1304      3.0000     79.3869     75.0072     73.5535     75.5897     83.0734     81.8023   1013.7849     45.5592      3.4702
    174.1000    129.4974      8.0000      0.3995    309.0000    234.0000    136.0000    250.0000    241.0000    205.0000     28.6664      1.2366      3.0000     79.0037     75.0072     74.0707     74.5641     82.4335     82.1787   1001.5114     45.5592      3.4666
    174.2000    127.2339      8.0000      0.3744    288.0000    737.0000    306.0000    206.0000    356.0000    196.0000     29.5350      1.2366      3.0000     79.0037     75.0072     73.6828     74.6923     82.4335     81.8023   1013.7849     39.7664      3.4658
    174.3000    126.2628      8.0000      0.4153    407.0000    250.0000    341.0000    342.0000    376.0000    272.0000     33.6099      1.1304      3.0000     79.0037     74.5027     73.6828     74.5641     82.0496     81.8023   1015.4213     36.5865      3.4675
    174.4000    124.9684      8.0000      0.4154    371.5748    321.8347    363.4961    387.1575    337.0866    360.5827     41.3279      1.2366      3.0000     79.0037     74.6288     73.6828     74.5641     82.0496     81.8023   1010.6472     36.5865      3.4690
    174.5000    123.9987      8.0000      0.4153    407.0000    348.0000    387.0000    365.0000    287.0000    252.0000     51.8103      1.1304      3.0000     79.0037     75.0072     73.6828     74.8205     82.0496     81.4260    996.6021     36.5865      3.4688
    174.6000    122.3071      7.0000      0.3967    344.0000    163.0000     95.0000     47.0000     73.0000    120.0000     61.8161      1.2366      3.0000     78.1094     75.0072     73.6828     73.7949     82.0496     81.4260   1010.5120     30.5775      3.4685
    174.7000    121.5270      7.0000      0.3967    397.5827    334.4095    188.6693     84.0000    256.3307    329.1653     67.8516      1.1304      3.0000     78.1094     75.0072     74.0707     75.0769     82.5615     81.9871   1008.4889     30.5775      3.4704
    174.8000    120.7984      8.0000      0.3967    218.0000    798.0000    743.0000    148.0000     36.0000    362.0000     68.3460      1.2366      3.0000     78.1094     75.0072     73.2949     75.9743     82.0496     80.9242   1009.6937     30.5775      3.4739
    174.9000    123.6010      9.0000      0.4153    202.0000   1023.0000    618.0000    133.0000    221.0000     95.0000     63.8045      1.2366      3.0000     78.4926     74.8811     73.5535     74.6923     82.4335     81.9278   1009.6937     36.5865      3.4761
    175.0000    126.7810      9.0000      0.3744    193.0000    306.0000    329.0000    301.0000    187.0000    213.0000     58.6558      1.2366      3.0000     78.6204     75.3857     70.8381     75.5897     82.5615     80.1715   1012.9667     39.7664      3.4749
    175.1000    125.1609      9.0000      0.3743    292.0000    264.0000    282.0000    227.0000    230.0000    144.0000     56.7796      1.2366      3.0000     79.0037     75.3857     72.6484     75.9743     82.0496     79.2933   1000.6932     39.7664      3.4714
    175.2000    123.5431      8.0000      0.4154    120.0000    127.0000    140.0000     97.0000    111.0000    103.0000     61.5529      1.1304      3.0000     79.5147     75.3857     73.6828     75.0769     82.4335     81.4260   1016.2395     36.5865      3.4692
    175.3000    122.1729      7.0000      0.4154     65.0000     67.0000     95.0000     68.0000     70.0000     42.0000     72.1263      1.2366      3.0000     78.4926     75.3857     74.0707     74.1795     82.0496     81.4260   1010.5120     36.5865      3.4702
    175.4000    121.3921      6.0000      0.3967     45.0000     29.0000    168.0000     46.0000    169.0000      2.0000     85.0694      1.2366      3.0000     79.0037     75.0072     74.5879     74.6923     82.0496     81.4260   1014.6031     30.5775      3.4713
    175.5000    120.6115      6.0000      0.4154    213.3937     92.3228    176.4646    205.9055    201.4646     92.9055     95.4954      1.2366      3.0000     78.1094     75.0072     74.0707     75.5271     82.0496     79.6697   1005.5832     36.5865      3.4680
    175.6000    118.4564      6.0000      0.4405    231.0000    186.0000    169.0000    206.0000    181.0000    146.0000     98.9842      1.2366      3.0000     77.9816     75.0072     74.7172     75.0769     82.0496     79.2933   1008.0573     28.4564      3.4604
    175.7000    115.4292      6.0000      0.4405    101.0000    202.0000    167.0000    205.0000    125.0000    172.0000     95.0568      1.2366      3.0000     78.1094     75.0072     75.3637     74.9487     82.0496     79.2933   1008.0573     28.4564      3.4550
