~VERSION INFORMATION 
VERS.          2.0   :CWLS LOG ASCII STANDARD - VERSION 2.0
WRAP.          NO    :ONE LINE PER DEPTH STEP
PROD.  Schlumberger   :LAS Producer
PROG.  DLIS to ASCII 19C2-270                          :LAS Program name and version
CREA.        2014/02/23 09:08                          :LAS Creation date {YYYY/MM/DD hh:mm}
DLIS_CREA.  2014-Feb-23 08:51                          :DLIS Creation date and time {YYYY-MMM-DD hh:mm}
SOURCE.     1AA063409108W400_FMI_SONIC_MAIN.dlis       :DLIS File Name
FILE-ID.     ConPr_R2L3Up_S008_FBST_DSLT_HGNS          :File Identification Number
#--------------------------------------------------
~WELL INFORMATION 
#MNEM.UNIT      DATA             DESCRIPTION
#---- ------ --------------   -----------------------------
STRT.M      54.71160        :START DEPTH
STOP.M      257.70840       :STOP DEPTH
STEP.M       0.15240        :STEP
NULL .          -999.25      :NULL VALUE
COMP.        SUNCOR ENERGY INC.                       :COMPANY
WELL.        SUNCOR LEWIS 6-34-91-8                   :WELL
FLD  .        LEWIS                                    :FIELD
LOC.        6-34-91-8W4                              :LOCATION
PROV .        ALBERTA                                  :PROVINCE
UWI.        1AA063409108W400                         :UNIQUE WELL ID
LIC  .        0464072                                  :LICENSE NUMBER
CTRY .        CA                                       :COUNTRY (WWW code)
DATE.        23-Feb-2014                              :LOG DATE {DD-MMM-YYYY}
SRVC .        Schlumberger                             :SERVICE COMPANY
LATI .DEG     56.934500 degrees                        :LATITUDE
LONG .DEG     -111.20540 degrees                       :LONGITUDE
GDAT .                                                 :GeoDetic Datum
SECT .        06-34                                    :Section
RANG .        08W4                                     :Range
TOWN .        091                                      :Township
#-----------------------------------------------------------------------------
~CURVE INFORMATION 
#MNEM.UNIT   API CODE                                  DESCRIPTION
#---- -----  --------                                  -----------------------
 DEPT.M         00 001 00 00             :Depth Index - Measured Depth
   BS.MM        61 280 07 00             :BIT SIZE {F14.5}
   C1.MM        42 280 06 00             :CALIPER 1 {F14.5}
   C2.MM        42 280 05 00             :CALIPER 2 {F14.5}
DEPTH.M         00 001 00 00             :DEPTH INDEX {F14.5}
DEVIM.DEG       00 630 00 00             :MEMORIZED DEVIATION {F14.5}
   DT.US/M      60 520 32 00             :DELTA-T (ALSO CALLED SLOWNESS OR INTERVAL TRANSIT TIME) {F14.5}
   EI.MA        00 000 00 00             :EMEX CURRENT {F14.5}
   EV.V         00 000 00 00             :EMEX VOLTAGE {F14.5}
 FBCR.OHMS      00 000 00 00             :CORRELATION RESISTANCE {F14.5}
   GR.GAPI      42 310 01 00             :GAMMA RAY {F14.5}
 HAZI.DEG       00 620 00 00             :HOLE AZIMUTH RELATIVE TO TRUE NORTH {F14.5}
HAZIM.DEG       00 620 00 00             :HOLE AZIMUTH RELATIVE TO TRUE NORTH {F14.5}
 P1AZ.DEG       00 630 00 00             :PAD 1 AZIMUTH IN HORIZONTAL PLANE (0 = TRUE NORTH) {F14.5}
P1NO_FBST.DEG   00 000 00 00             :PAD 1 AZIMUTH IN PLANE ORTHOGONAL TO TOOL AXIS (0 = TRUE NORTH), MEMORIZED TO FBST {F14.5}
   RB.DEG       00 631 00 00             :RELATIVE BEARING {F14.5}
 SDEV.DEG       00 000 00 00             :SONDE DEVIATION {F14.5}
 TENS.N         61 280 10 00             :CABLE TENSION {F14.5}
  TT1.US        60 520 32 01             :TRANSIT TIME 1 {F14.5}
  TT2.US        60 520 32 02             :TRANSIT TIME 2 {F14.5}
  TT3.US        60 520 32 03             :TRANSIT TIME 3 {F14.5}
  TT4.US        60 520 32 04             :TRANSIT TIME 4 {F14.5}
~PARAMETER INFORMATION 
#MNEM.UNIT    VALUE                      DESCRIPTION
#---- -----   --------------------       ------------------------
 CSGD.M       72.80000                   :Casing Bottom of Driller
 CSGL.M       73.20000                   :Logger Casing Shoe Depth
 CSGS.MM      177.80000                  :Current Casing Size
 CSGW.KG/M    25.30000                   :Casing Weight
 MUDD.K/M3    1090.00000                 :Drilling Fluid Density
  DFL.C3      6.00000                    :Drilling Fluid Loss
   PH.        10.00000                   :Drilling Fluid pH
  MUD.        Polymer                    :Drilling Fluid Type
 MUDV.S       108.00000                  :Drilling Fluid Viscosity
   GL.M       445.00000                  :Elevation of Ground Level
 EREF.M       449.00000                  :Elevation of Kelly Bushing
  ENG.        NICK POLLEY                :Engineer s Name
 DREF.        KB                         :Logging Measured From (Name of Logging Elevation Reference)
 BASE.        WINTER PROJECT             :LOGGING UNIT LOCATION
 FACT.        CP4P-00020                 :Service Order Number
  LIC.        0464072                    :API Well Number
 PROV.        ALBERTA                    :County or Parish
 UNIT.        3125                       :Logging Unit Number
 RMCT.DEGC    8.73000                    :Mudcake Sample Temperature
 RMFT.DEGC    8.73000                    :Mud Filtrate Sample Temperature
 TMAX.DEGC    12.28000                   :Maximum Recorded Temperature
 MUDS.        Flowline                   :Mud Sample Source
  RMT.DEGC    8.73000                    :Mud Sample Temperature
RANGE.        08W4                       :Range
  RMC.OHMM    1.18000                    :Resistivity of Mud Cake Sample
  RMF.OHMM    0.59200                    :Resistivity of Mud Filtrate Sample
   RM.OHMM    0.78900                    :Resistivity of Mud Sample
SECTION.      06-34                      :Section
 TIMC.        01 55 00                   :Time Circulation Stopped
 TIML.        07 55 00                   :Time Logger At Bottom
TOWNSHIP.     091                        :Township
  WIT.        JONATHAN FELL              :Witness s Name
  APD.M       4.00000                    :Elevation of Depth Reference (LMF) Above Permanent Datum
 APIN.        0464072                    :API Well Number
  BHT.DEGC    12.28000                   :Bottom Hole Temperature
  BLI.M       256.00000                  :Bottom Log Interval
   BS.MM      156.00000                  :Bit Size
   CN.        SUNCOR ENERGY INC.         :Company Name
 COUN.        ALBERTA                    :County or Parish
 LDAT.        23-Feb-2014                :Tools Above Rotary Table Date
  DCS.        23-Feb-2014                :Date Circulation Stopped
  DFL.C3      6.00000                    :Drilling Fluid Loss
 DLAB.        23-Feb-2014                :Date Logger At Bottom
  DMF.        KB                         :Drilling Measured From (Name of Drilling Elevation Reference)
  EDF.M       448.70001                  :Elevation of Drill Floor
  EGL.M       445.00000                  :Elevation of Ground Level
  EKB.M       449.00000                  :Elevation of Kelly Bushing
   FD.K/M3    1000.00000                 :Fluid Density
   FL.        6-34-91-8W4               :FIELD LOCATION
  FL1.        1AA063409108W400           :Field Location, Line 1
  FL2.                                   :Field Location, Line 2
   FN.        LEWIS                      :Field Name
 HID1.                                   :Header Identifier 1
 HID2.                                   :Header Identifier 2
 HIDE.        LEWIS                      :Header Identifier
 LATI.        56.934500 degrees          :Latitude
  LMF.        KB                         :Logging Measured From (Name of Logging Elevation Reference)
 LONG.        -111.20540 degrees         :Longitude
 MATR.        SAND                       :Rock Matrix for Neutron Porosity Corrections
 MCSS.        Calculated                 :Mudcake Sample Source
 MDEC.DEG     14.38033                   :Magnetic Field Declination
 MDEN.K/M3    2650.00000                 :Matrix Density for Density Porosity
 MRT1.DEGC    12.28000                   :Maximum Recorded Temperature 1
 MRT2.DEGC    -999.25000                 :Maximum Recorded Temperature 2
  NMT.        NOBARITE                   :HRDD Mud Type for Nuclear Devices
  OS1.                                   :Other Services Line 1
  OS2.                                   :Other Services Line 2
  OS3.                                   :Other Services Line 3
  OS4.                                   :Other Services Line 4
  OS5.                                   :Other Services Line 5
 PDAT.        GL                         :Permanent Datum
   R1.        THANK YOU FOR CHOOSING SCHLUMBERGER  :Remarks Line 1
   R2.        ALL TOOLS RAN AS PER TOOL SKETCH AND ALL PRESENTATIONS AS PER CLIENT REQUEST  :Remarks Line 2
   R3.        INDUCTION LOG – DESCENT #1 :Remarks Line 3
   R4.        NEUTRON / DENSITY LOG – DESCENT #1  :Remarks Line 4
  RMB.OHMM    0.70618                    :Resistivity of Mud at Bottom Hole Temperature
 RMFB.OHMM    0.52986                    :Resistivity of Mud Filtrate At Bottom Hole Temperature
  RUN.        ONE/2                      :Run Number
  SON.        CP4P-00020                 :SERVICE ORDER NUMBER
  TDD.M       256.00000                  :Driller Total Depth
  TDL.M       256.00000                  :Logger Total Depth
  TLI.M       75.00000                   :Top Log Interval
 UWID.        1AA063409108W400           :Unique Well Identifier
   WN.        SUNCOR LEWIS 6-34-91-8     :Well Name
  EPD.C3      445.000000                 :Elevation of Permanent Datum above Mean Sea Level
#-----------------------------------------------------------------------------
#
#      DEPT          BS            C1            C2            DEPTH         DEVIM         DT            EI            EV            FBCR          GR            HAZI          HAZIM         P1AZ        P1NO_FBST       RB            SDEV          TENS          TT1           TT2           TT3           TT4
#
#-----------------------------------------------------------------------------

~A       DEPT           BS           C1           C2        DEPTH        DEVIM           DT           EI           EV         FBCR           GR         HAZI        HAZIM         P1AZ    P1NO_FBST           RB         SDEV         TENS          TT1          TT2          TT3          TT4
# ...
    185.47080     156.00000     149.42792     149.58507     185.47235       0.62450     406.84662    2401.12988      13.08047  534783.93750      56.68027     219.29463     218.63789     150.17090     156.78949     290.87656       0.55756    5467.75391     747.94794     504.03625     749.85089     500.32254
    185.62320     156.00000     148.81358     148.29820     185.62256       0.62318     402.99625    2471.00024      12.92452  191677.70313      68.11694     219.15953     218.53186     152.67729     158.99883     293.51898       0.55840    5030.64209     753.69995     503.96252     751.34241     499.80212
    185.77560     156.00000     149.42792     148.29820     185.77444       0.61912     400.80939    2476.11230      12.82705  204906.79688      76.78857     218.93330     218.44316     155.26764     160.48924     296.33493       0.55976    4950.57422     754.75604     504.18921     752.96008     501.92587
    185.92800     156.00000     146.78983     148.29820     185.92549       0.61396     399.82071    2505.08301      12.57363  222110.00000      73.89828     218.67104     218.39227     158.13057     161.96112     299.46130       0.56114    4831.06543     755.40222     506.56976     752.72119     502.86111
    186.08040     156.00000     147.58487     148.29820     186.08167       0.60465     408.06354    2503.37891      12.47616  262941.12500      60.70202     218.39081     218.28426     159.83432     163.26628     301.44440       0.56421    4942.25244     754.39557     505.69095     751.87091     502.14886
    186.23280     156.00000     147.58487     148.94162     186.23723       0.59834     412.67206    2535.75757      12.41768  117015.71875      51.52764     218.07323     218.26630     160.95731     162.16615     302.88596       0.56721    4926.85010     754.47351     508.15457     750.92169     503.46991
    186.38520     156.00000     148.19922     148.94162     186.38879       0.59468     413.36346    2506.78735      12.43717  237506.71875      46.87737     217.79778     218.30258     163.17186     162.07140     305.37582       0.57031    5047.24902     752.65161     509.77258     749.14948     504.84329
    186.53760     156.00000     148.19922     148.29820     186.53949       0.58826     410.83527    2542.57471      12.47616  206512.34375      54.54363     217.46872     218.22472     162.44600     162.08618     304.97873       0.57293    5177.43359     754.17841     512.10223     752.18689     506.40259
    186.69000     156.00000     149.42792     148.29820     186.69037       0.58306     407.36624    2545.98267      12.51515  231060.29688      56.17736     217.25983     218.15175     162.26553     160.97928     305.00580       0.57471    4923.88477     761.24805     511.78229     761.05066     505.36703
    186.84240     156.00000     147.40417     148.29820     186.84175       0.57956     404.75854    2508.49170      12.57363  185426.01563      60.70185     217.14792     218.03621     161.88773     161.64447     304.74268       0.57710    4837.58936     766.96106     505.71548     765.73230     502.67853
    186.99480     156.00000     146.78983     147.01132     186.99365       0.57884     405.38474    2539.16626      12.37869  204882.26563      62.96393     217.12834     217.92107     161.70695     160.06833     304.57901       0.57910    4881.77490     770.54120     507.75595     767.68341     509.37305
    187.14720     156.00000     146.97052     148.29820     187.14621       0.57954     412.97571    2537.46191      12.30071  287456.37500      61.94258     217.18860     217.69655     161.19148     156.39568     304.00385       0.58017    5155.48877     766.58502     511.38419     764.96356     512.60736
    187.29960     156.00000     146.97052     149.26337     187.29895       0.58094     416.94281    2540.87036      12.18375  115971.35938      53.45930     217.32436     217.58051     161.17636     151.41539     303.85345       0.58228    5215.98486     772.93512     515.19147     773.22009     516.77734
    187.45200     156.00000     146.97052     150.22852     187.45135       0.58469     418.54868    2545.98267      12.16426  165122.40625      45.16477     217.51183     217.44121     158.55464     150.14590     301.04401       0.58460    5462.71289     770.92090     514.33002     769.96832     515.68738
    187.60440     156.00000     146.78983     150.22852     187.60257       0.59218     422.21118    2581.77002      12.20324  176778.29688      45.30704     217.77420     217.45221     153.55388     150.10074     295.78149       0.58782    5328.08008     766.36639     521.82599     765.70276     526.04706
    187.75680     156.00000     145.12746     150.22852     187.75870       0.59474     428.54010    2547.68677      12.26173  232648.90625      50.64927     217.95847     217.43846     150.58502     149.88008     292.62680       0.59152    5348.98682     761.44891     522.70697     762.89789     522.70410
    187.90920     156.00000     145.12746     150.55026     187.91414       0.60226     421.10663    2547.68677      12.41768  179095.09375      51.02643     218.13792     217.55807     150.07315     148.91724     291.93542       0.59589    5061.77979     762.27643     515.30334     763.98462     513.87830
    188.06160     156.00000     144.14572     150.87196     188.06604       0.60622     416.86267    2510.19556      12.55414  808903.25000      43.23374     218.36765     217.62001     149.95377     147.64998     291.58655       0.60142    5446.99561     763.79993     509.60367     763.44232     511.18362
    188.21400     156.00000     145.12746     150.87196     188.21843       0.60865     410.80176    2513.60400      12.72958 3478640.25000      35.56656     218.50072     217.66891     149.68030     144.17332     291.18127       0.60654    5272.62549     760.43335     513.72510     755.64642     513.21808
    188.36640     156.00000     144.76158     150.87196     188.37083       0.61008     397.24689    2477.81665      12.90503  933576.81250      29.03135     218.60455     217.60863     148.25793     142.17683     289.65561       0.61170    5628.77979     758.07037     513.43939     756.30188     510.73297
    188.51880     156.00000     144.82028     150.87196     188.52188       0.61000     398.29471    2443.73364      13.17794  265768.65625      31.29359     218.70978     217.47705     146.12758     142.20024     287.42050       0.61728    5624.03516     760.23254     500.24005     757.85242     497.82452
    188.67120     156.00000     147.58487     151.51540     188.67343       0.60816     401.99359    2406.24268      13.35339 1966915.62500      31.41925     218.69740     217.28003     142.93747     143.51611     284.24109       0.62100    5807.30176     762.95770     501.03937     756.08832     499.09827
    188.82360     156.00000     149.42792     150.87196     188.82346       0.60564     404.97073    2402.83423      13.37288  504333.34375      31.16802     218.73006     217.05927     141.91151     146.20293     283.18201       0.62390    5706.47510     750.37677     501.23975     748.92352     499.54977
    188.97600     156.00000     151.27098     152.80231     188.97694       0.60240     404.16614    2401.12988      13.39238 2635765.00000      30.16260     218.65953     216.76611     142.75266     148.82027     284.09360       0.62546    5590.85889     751.72424     506.92230     748.66583     503.54062
    189.12840     156.00000     151.88531     152.80231     189.13232       0.59863     408.21545    2402.83423      13.37288 2113280.75000      31.41935     218.63789     216.52116     144.71809     152.54808     286.08130       0.62450    5415.56152     750.53650     507.39072     748.40375     505.01620
    189.28080     156.00000     151.88531     152.15884     189.28218       0.59432     410.75998    2406.24268      13.47036  458628.84375      31.16786     218.53186     216.25720     147.40614     154.68985     288.87445       0.62318    5381.45850     753.71564     508.76242     752.37909     505.28629
