~Version Information
VERS .            2.00                          : CWLS Log ASCII Standard - Version 2.00
WRAP .            NO                            : One line per depth step
#
~Well Information
#MNEM.UNIT        DATA                          : DESCRIPTION
#----.----        ----                          : -----------
STRT .M              0.0                        : Start
STOP .M            232.6                        : Stop
STEP .M              0.1                        : Step increment
NULL .            -999.250                      : Null value
COMP .            SUNCOR ENERGY INC.            : Company
WELL .            SUNCOR LEWIS 3-8-92-7         : Well
FLD  .            LEWIS                         : Field
PROV .            ALBERTA                       : Province
CTRY .            Canada                        : State / Country
LOC  .                                          : Location
LOC2 .            03-08-092-07W4                : Location 2
SRVC .            Weatherford                   : Service company
UWI  .            1AA030809207W400              : Unique Well ID
LIC  .            0486896                       : Licence Number
DATE .            25-Jan-2018                   : Logging Date
#
~Curve Information
#MNEM.UNIT        API CODES                     : CURVE DESCRIPTION
#----.----        ---------                     : -----------------
DEPT .M           00 001 00 00                  : Logged depth
GRGM .GAPI        30 310 01 00                  : MGS Gamma Ray
CGXT .DEGC        30 660 01 00                  : MCG External Temperature
IECX .MM          45 000 00 00                  : MIE Caliper X
IECY .MM          45 000 00 00                  : MIE Caliper Y
IRBR .DEG         00 000 00 00                  : Relative Bearing
ITLT .DEG         00 000 00 00                  : Borehole Tilt
IAP1 .DEG         00 000 00 00                  : Azimuth of Reference
IAZT .DEG         00 000 00 00                  : Borehole Azimuth (True)
DI26 .MM          70 280 02 00                  : Imager Diameter 2 - 6
DI48 .MM          70 280 02 00                  : Imager Diameter 4 - 8
BTM1 .MA          45 000 00 00                  : Imager Pad 1 Md. Current
BTM3 .MA          45 000 00 00                  : Imager Pad 3 Md. Current
BTM5 .MA          45 000 00 00                  : Imager Pad 5 Md. Current
BTM7 .MA          45 000 00 00                  : Imager Pad 7 Md. Current
BIT  .MM          70 282 00 00                  : Bit size
#
~Parameter Information
#MNEM.UNIT        VALUE                         : DESCRIPTION
#----.----        -----                         : -----------
RNID .            MAIN PASS                     : Run ID
SON  .            8310-204072557                : Job Number
DREF .            KB                            : Depth reference
EREF .M               478.600                   : Elevation of depth reference
GL   .M               477.400                   : Ground elevation
DDRF .            KB @1.2m                      : Drilling Depth Reference
RUN  .                  1                       : Run number
TDD  .M               230.000                   : TD (driller)
TDL  .M               230.100                   : TD (logger)
BS   .MM              159.000                   : Bit size
TIMC .            09-Jan-18 13:45:00.000        : Time circulation ended
TIML .            09-Jan-18 18:45:00.000        : Time logger at bottom
UNIT .              14265                       : Equipment ID
BASE .            LLD                           : Equipment base location
ENG  .            ELLIOT KANE                   : Recording engineer
WIT  .            CLARK HUBER                   : Witnessed by
CSGT .            SURFACE                       : Casing type
CSGS .MM              177.800                   : Casing size
CSGW .KG/M             25.299                   : Casing weight
CSGD .M                88.300                   : Casing bottom (driller)
CSGL .M                88.300                   : Casing bottom (logger)
CSUP .M                 0.000                   : Casing Stick Up GL
MUD  .            POLYMER                       : Mud type
MUDS .            N/A                           : Mud sample source
MUDD .K/M3           1050.000                   : Mud density
MUDV .SEC/L            42.000                   : Mud viscosity
PH   .                  7.000                   : Mud pH
FL   .ML/30MIN          8.000                   : Mud fluid loss rate
RM   .OHMM              4.450                   : Mud resistivity
RMT  .DEGC              9.800                   : Mud sample temperature
RMF  .OHMM        -999999.000                   : Mud filtrate resistivity
RMFT .DEGC        -999999.000                   : Mud filtrate sample temperature
RMC  .OHMM        -999999.000                   : Mud cake resistivity
RMCT .DEGC        -999999.000                   : Mud cake sample temperature
RMBT .OHMM              4.650                   : Mud Resistivity at BHT
BHT  .DEGC              9.000                   : Bottom Hole Temperature
TMAX .DEGC              9.000                   : Max recorded temperature
#
~Other Information
---------------------------------------------------------------------------------------
1)  Run 1: MCB, SHA, MCG, MIM, MIE, MFE, MDM, MRD, MTD, HFS; Run in Combination
      Run 2: MCB, SHA, MCG, MTC, MGS, ISC, MDN, MPD, SKJ, MFE, MAI ; Run in Combination
2) Hardware: MDN: One Dual Neutron Bowspring
                         MAI: Two 12.7 mm standoffs with Bottom Hole Finder Assembly
                         MCG: One 6-leaf centralizer
                         MIE: Two 6-leaf centralizers
                         MSD: Two 6-leaf centralizers                            
3) Total Hole Volume from TD to Surface Casing = 2.7 CuM
4) Hole Volume calculated with Micro Imager calipers
5) Logging requested from KB @ 478.6 m.
6) Tool zero requested from KB. 
7) Magnetic Declanation: 13.39  EAST
8) Easting: 494056.00 ; Northing: 6313159.00
.
---------------------------------------------------------------------------------------
#
#          DEPT           GRGM           CGXT           IECX           IECY           IRBR           ITLT           IAP1           IAZT           DI26           DI48           BTM1           BTM3           BTM5           BTM7            BIT
#
~ASCII Log Data
# ...
          139.4      84.926064       8.258997     168.115784     165.088959     140.514664       0.512891      91.990692     145.437164     169.542297     161.394119       0.141461       0.155695       0.161890       0.155183     159.000000
          139.5      84.892960       8.289041     167.274597     163.508606     141.623520       0.469316      94.042618     144.753906     168.014801     161.784775       0.145609       0.087754       0.154517       0.161787     159.000000
          139.6      83.130951       8.238104     166.744064     163.385849     145.910461       0.472699      94.163368     140.468933     167.336258     161.365143       0.151292       0.146223       0.187028       0.167880     159.000000
          139.7      81.374001       8.232620     166.696274     163.135239     146.808990       0.479833      94.221573     139.583298     168.634796     162.093048       0.132553       0.160046       0.169467       0.205767     159.000000
          139.8      80.235970       8.251636     165.764267     163.135239     148.025558       0.467044      94.451042     138.619949     167.240265     162.760010       0.144329       0.120931       0.148117       0.153544     159.000000
          139.9      81.125023       8.258162     165.859863     162.506165     148.119904       0.473690      94.590225     138.639252     166.796509     162.107605       0.091876       0.107619       0.137775       0.124310     159.000000
          140.0      82.042961       8.224096     165.730804     162.045868     149.175018       0.486566      94.456947     137.375000     167.050034     162.923538       0.126051       0.159739       0.141257       0.137980     159.000000
          140.1      84.198158       8.258252     164.731888     161.324722     147.343857       0.452772      94.360672     139.277466     166.319489     158.298218       0.135983       0.111664       0.126870       0.142127     159.000000
          140.2      85.670998       8.228448     165.195511     161.324722     147.982529       0.440863      94.467072     138.780746     166.772781     158.768051       0.116016       0.102883       0.137673       0.129379     159.000000
          140.3      85.823776       8.265584     168.149246     163.431885     142.745911       0.471458      94.133835     143.681381     167.852753     164.391357       0.097175       0.116323       0.134652       0.114377     159.000000
          140.4      84.598198       8.235153     170.089722     165.973770     143.533279       0.463770      94.295502     143.072678     167.543945     168.473145       0.133116       0.105008       0.135471       0.140796     159.000000
          140.5      83.651161       8.225497     170.605911     166.311325     140.932220       0.470071      94.653618     146.084244     167.783417     169.606888       0.114838       0.157231       0.130249       0.125590     159.000000
          140.6      83.354912       8.256673     171.131653     167.855881     142.067139       0.474515      94.656242     144.905624     169.806305     170.506042       0.101987       0.097661       0.099888       0.103600     159.000000
          140.7      84.067497       8.225855     173.143829     166.746048     138.802505       0.480378      94.737511     148.323135     167.954376     170.087799       0.093053       0.104855       0.093284       0.103856     159.000000
          140.8      84.500557       8.234856     170.295242     163.800125     130.824066       0.503952      93.331100     156.468140     164.742401     163.426132       0.105366       0.132604       0.121955       0.123542     159.000000
          140.9      84.622894       8.202100     165.181168     159.580688     129.998505       0.568812      93.263779     157.226654     163.250977     160.404388       0.070961       0.099709       0.107158       0.098301     159.000000
          141.0      83.923019       8.289189     160.033630     158.169098     124.236694       0.592551      93.098625     162.823364     162.394287     156.334259       0.068555       0.062897       0.080817       0.058238     159.000000
          141.1      83.662354       8.219387     160.258270     157.887802     124.091774       0.601466      93.071968     162.941666     161.257828     157.694489       0.061285       0.050277       0.073419       0.057342     159.000000
          141.2      83.838722       8.245228     162.155731     160.700760     118.978912       0.595368      93.213989     168.196381     162.430786     161.637634       0.076951       0.099248       0.095895       0.014035     159.000000
          141.3      85.174828       8.196587     167.795563     163.298904     121.715492       0.587870      93.559570     165.805435     164.201706     159.531281       0.067608       0.090929       0.088445       0.088369     159.000000
          141.4      88.265297       8.268267     168.631973     165.293549     120.677086       0.545120      94.325150     167.609207     166.639465     162.486938       0.117757       0.124156       0.121852       0.132502     159.000000
          141.5      91.740799       8.258699     168.598511     167.150085     128.369888       0.496096      95.386421     159.703110     167.396484     164.602509       0.120316       0.139260       0.142127       0.141769     159.000000
          141.6      93.487671       8.244781     166.820541     165.994232     131.179001       0.462798      95.077301     156.574142     165.927078     161.357880       0.123235       0.129737       0.120265       0.126511     159.000000
          141.7      93.095589       8.240251     165.520508     165.400955     134.832764       0.443509      94.881760     152.667862     164.913116     161.408936       0.104087       0.110179       0.101501       0.103703     159.000000
          141.8      92.469643       8.246301     164.397324     162.797684     134.045731       0.424751      94.999107     153.651886     164.549911     160.658630       0.104163       0.115145       0.111203       0.117193     159.000000
          141.9      90.259476       8.254288     163.503555     160.624039     135.138748       0.455292      95.410431     152.859482     163.820923     160.893875       0.093949       0.098071       0.094615       0.110998     159.000000
          142.0      87.411385       8.221652     161.864182     160.245575     134.161041       0.434041      95.449478     153.968552     161.436905     162.292389       0.091441       0.099299       0.092004       0.096484     159.000000
          142.1      84.657768       8.240578     159.804214     159.503983     137.311020       0.476178      95.692749     150.849213     159.133514     160.445190       0.078897       0.087805       0.096279       0.095434     159.000000
          142.2      83.134026       8.288980     157.543518     157.514450     136.050430       0.484237      96.175224     152.618622     158.357025     159.831772       0.064613       0.067582       0.065457       0.093847     159.000000
          142.3      80.803055       8.227583     156.167007     157.212708     140.971313       0.515674      95.377388     148.367218     155.430664     157.217834       0.065560       0.063870       0.079818       0.096765     159.000000
          142.4      79.794411       8.227612     159.082520     159.371002     141.715530       0.586482      96.090431     148.336349     158.841125     157.056274       0.029977       0.043992       0.036121       0.036389     159.000000
          142.5      79.544868       8.171610     159.608261     159.810852     144.988708       0.621467      96.442078     145.414948     159.993683     159.537155       0.020326       0.019411       0.023411       0.020883     159.000000
          142.6      81.456985       8.226838     159.656052     159.836411     147.747696       0.644018      96.313080     142.527023     161.914932     158.563354       0.029362       0.031833       0.038450       0.041304     159.000000
          142.7      82.340302       8.253662     161.610870     158.424835     147.625580       0.693303      96.618752     142.955078     163.059082     157.717621       0.096688       0.063153       0.098378       0.090826     159.000000
