~Version Information
VERS .            2.00                          : CWLS Log ASCII Standard - Version 2.00
WRAP .            NO                            : One line per depth step
#
~Well Information
#MNEM.UNIT        DATA                          : DESCRIPTION
#----.----        ----                          : -----------
STRT .M              0.0                        : Start
STOP .M            232.6                        : Stop
STEP .M              0.1                        : Step increment
NULL .            -999.250                      : Null value
COMP .            SUNCOR ENERGY INC.            : Company
WELL .            SUNCOR LEWIS 3-8-92-7         : Well
FLD  .            LEWIS                         : Field
PROV .            ALBERTA                       : Province
CTRY .            Canada                        : State / Country
LOC  .                                          : Location
LOC2 .            03-08-092-07W4                : Location 2
SRVC .            Weatherford                   : Service company
UWI  .            1AA030809207W400              : Unique Well ID
LIC  .            0486896                       : Licence Number
DATE .            25-Jan-2018                   : Logging Date
#
~Curve Information
#MNEM.UNIT        API CODES                     : CURVE DESCRIPTION
#----.----        ---------                     : -----------------
DEPT .M           00 001 00 00                  : Logged depth
GRGM .GAPI        30 310 01 00                  : MGS Gamma Ray
CGXT .DEGC        30 660 01 00                  : MCG External Temperature
IECX .MM          45 000 00 00                  : MIE Caliper X
IECY .MM          45 000 00 00                  : MIE Caliper Y
IRBR .DEG         00 000 00 00                  : Relative Bearing
ITLT .DEG         00 000 00 00                  : Borehole Tilt
IAP1 .DEG         00 000 00 00                  : Azimuth of Reference
IAZT .DEG         00 000 00 00                  : Borehole Azimuth (True)
DI26 .MM          70 280 02 00                  : Imager Diameter 2 - 6
DI48 .MM          70 280 02 00                  : Imager Diameter 4 - 8
BTM1 .MA          45 000 00 00                  : Imager Pad 1 Md. Current
BTM3 .MA          45 000 00 00                  : Imager Pad 3 Md. Current
BTM5 .MA          45 000 00 00                  : Imager Pad 5 Md. Current
BTM7 .MA          45 000 00 00                  : Imager Pad 7 Md. Current
BIT  .MM          70 282 00 00                  : Bit size
#
~Parameter Information
#MNEM.UNIT        VALUE                         : DESCRIPTION
#----.----        -----                         : -----------
RNID .            MAIN PASS                     : Run ID
SON  .            8310-204072557                : Job Number
DREF .            KB                            : Depth reference
EREF .M               478.600                   : Elevation of depth reference
GL   .M               477.400                   : Ground elevation
DDRF .            KB @1.2m                      : Drilling Depth Reference
RUN  .                  1                       : Run number
TDD  .M               230.000                   : TD (driller)
TDL  .M               230.100                   : TD (logger)
BS   .MM              159.000                   : Bit size
TIMC .            09-Jan-18 13:45:00.000        : Time circulation ended
TIML .            09-Jan-18 18:45:00.000        : Time logger at bottom
UNIT .              14265                       : Equipment ID
BASE .            LLD                           : Equipment base location
ENG  .            ELLIOT KANE                   : Recording engineer
WIT  .            CLARK HUBER                   : Witnessed by
CSGT .            SURFACE                       : Casing type
CSGS .MM              177.800                   : Casing size
CSGW .KG/M             25.299                   : Casing weight
CSGD .M                88.300                   : Casing bottom (driller)
CSGL .M                88.300                   : Casing bottom (logger)
CSUP .M                 0.000                   : Casing Stick Up GL
MUD  .            POLYMER                       : Mud type
MUDS .            N/A                           : Mud sample source
MUDD .K/M3           1050.000                   : Mud density
MUDV .SEC/L            42.000                   : Mud viscosity
PH   .                  7.000                   : Mud pH
FL   .ML/30MIN          8.000                   : Mud fluid loss rate
RM   .OHMM              4.450                   : Mud resistivity
RMT  .DEGC              9.800                   : Mud sample temperature
RMF  .OHMM        -999999.000                   : Mud filtrate resistivity
RMFT .DEGC        -999999.000                   : Mud filtrate sample temperature
RMC  .OHMM        -999999.000                   : Mud cake resistivity
RMCT .DEGC        -999999.000                   : Mud cake sample temperature
RMBT .OHMM              4.650                   : Mud Resistivity at BHT
BHT  .DEGC              9.000                   : Bottom Hole Temperature
TMAX .DEGC              9.000                   : Max recorded temperature
#
~Other Information
---------------------------------------------------------------------------------------
1)  Run 1: MCB, SHA, MCG, MIM, MIE, MFE, MDM, MRD, MTD, HFS; Run in Combination
      Run 2: MCB, SHA, MCG, MTC, MGS, ISC, MDN, MPD, SKJ, MFE, MAI ; Run in Combination
2) Hardware: MDN: One Dual Neutron Bowspring
                         MAI: Two 12.7 mm standoffs with Bottom Hole Finder Assembly
                         MCG: One 6-leaf centralizer
                         MIE: Two 6-leaf centralizers
                         MSD: Two 6-leaf centralizers                            
3) Total Hole Volume from TD to Surface Casing = 2.7 CuM
4) Hole Volume calculated with Micro Imager calipers
5) Logging requested from KB @ 478.6 m.
6) Tool zero requested from KB. 
7) Magnetic Declanation: 13.39  EAST
8) Easting: 494056.00 ; Northing: 6313159.00
.
---------------------------------------------------------------------------------------
#
#          DEPT           GRGM           CGXT           IECX           IECY           IRBR           ITLT           IAP1           IAZT           DI26           DI48           BTM1           BTM3           BTM5           BTM7            BIT
#
~ASCII Log Data
# ...
          129.2      99.447357       8.194053     165.826401     165.983994     142.273468       0.472592      90.906158     140.856979     164.457825     165.789429       0.072804       0.021977       0.079358       0.080919     159.000000
          129.3      99.098679       8.161864     165.396240     165.579956     146.619217       0.489691      90.590599     136.026077     164.120056     165.482483       0.071627       0.102704       0.090775       0.082353     159.000000
          129.4      97.677689       8.210416     165.200287     164.536606     145.924988       0.472718      90.656540     136.868576     162.634216     165.093903       0.078103       0.043980       0.088625       0.087293     159.000000
          129.5      96.824600       8.224603     162.906113     164.347366     145.216156       0.521243      88.857178     137.602142     158.841980     165.159332       0.065150       0.060312       0.081636       0.079793     159.000000
          129.6      96.113914       8.155605     162.041031     162.373184     145.191223       0.534262      89.094383     137.864334     163.074432     163.968933       0.077003       0.081687       0.085194       0.090314     159.000000
          129.7      95.876625       8.188747     166.462067     161.912888     145.307831       0.560757      89.550697     138.204147     163.203705     163.000183       0.079332       0.098020       0.099043       0.095229     159.000000
          129.8      95.223679       8.196884     166.428619     161.923111     145.095566       0.593269      89.619408     138.485291     161.492828     162.518158       0.076721       0.077566       0.084734       0.081150     159.000000
          129.9      95.806358       8.193994     166.428619     161.785019     141.014236       0.606951      89.815491     142.762817     161.260803     161.791107       0.087473       0.109821       0.092618       0.095562     159.000000
          130.0      97.378677       8.202011     165.974564     160.976944     137.453796       0.661326      89.599541     146.107651     161.773376     161.980560       0.086449       0.097533       0.095792       0.106032     159.000000
          130.1      99.922363       8.214499     165.448822     163.094330     135.447372       0.650560      90.000610     148.515076     161.126953     160.287476       0.091748       0.111920       0.107312       0.115453     159.000000
          130.2     101.419930       8.221205     165.401016     163.104553     131.980148       0.650977      90.752937     152.734634     160.915222     160.987274       0.097738       0.114633       0.119907       0.107363     159.000000
          130.3     103.075043       8.176796     165.386688     162.997147     129.136246       0.614415      90.335365     155.160721     162.816818     161.037567       0.098608       0.122876       0.110230       0.127228     159.000000
          130.4     102.731125       8.193785     166.758408     162.997147     128.921951       0.546525      90.441902     155.481216     163.482361     161.137695       0.093949       0.117193       0.119088       0.117040     159.000000
          130.5     101.734451       8.185708     166.548111     163.002274     131.596451       0.491755      93.141151     154.061462     164.225983     160.078354       0.089290       0.125897       0.124003       0.084836     159.000000
          130.6      99.692940       8.202070     165.749924     163.114792     132.571167       0.475678      92.997421     152.954666     167.010010     161.391663       0.074340       0.094487       0.090340       0.087652     159.000000
          130.7      98.477394       8.237300     165.071243     166.388031     139.547089       0.475293      92.146851     144.913315     168.257706     161.484528       0.060209       0.066993       0.052760       0.070603     159.000000
          130.8      96.024292       8.171968     164.502472     166.321548     142.142578       0.453678      91.874687     142.048462     167.821701     163.893158       0.069835       0.074699       0.078462       0.075415     159.000000
          130.9      94.836861       8.186930     164.057983     165.656677     151.175583       0.437064      91.935944     132.950500     164.231384     165.531769       0.073009       0.085655       0.079102       0.088036     159.000000
          131.0      94.769356       8.159569     165.501389     163.856384     158.867722       0.463763      91.902756     124.987236     163.545639     167.533173       0.072779       0.091952       0.080740       0.086218     159.000000
          131.1      97.129135       8.222308     165.783386     163.769440     158.632202       0.470101      92.054375     125.353615     162.260040     167.623199       0.080894       0.082788       0.089085       0.085655     159.000000
          131.2      98.626434       8.157929     167.561356     163.769440     156.717392       0.458177      92.119896     127.414063     161.641693     167.793610       0.087293       0.103242       0.099223       0.092464     159.000000
          131.3     100.308731       8.158078     168.436005     165.012253     158.629211       0.435297      91.950089     125.403770     162.162491     168.725372       0.098685       0.115862       0.109104       0.117552     159.000000
          131.4     100.549789       8.198672     168.727554     165.380493     154.678726       0.445394      92.034958     129.454117     163.137024     170.890686       0.104957       0.129583       0.137980       0.120726     159.000000
          131.5      99.635956       8.207137     168.727554     165.211716     158.606110       0.443067      92.199036     125.643250     164.517075     169.498642       0.099351       0.120060       0.135318       0.113456     159.000000
          131.6      95.670006       8.140614     168.044098     165.068512     158.344818       0.448598      92.221794     125.909225     165.355652     168.622055       0.091261       0.103984       0.088906       0.115657     159.000000
          131.7      92.800865       8.206541     167.159882     164.838364     155.308731       0.435635      91.922302     128.740540     167.390030     169.230103       0.078666       0.093744       0.043724       0.080868     159.000000
          131.8      90.730209       8.133638     166.591125     163.702942     150.092194       0.427944      91.846146     134.000092     163.538696     162.858841       0.083710       0.084145       0.087140       0.090493     159.000000
          131.9      91.781136       8.236495     164.593292     166.101624     144.831161       0.434416      91.485023     138.973450     164.139969     163.424271       0.044069       0.097968       0.035493       0.037221     159.000000
          132.0      92.766960       8.198822     165.749924     168.638397     144.307999       0.445196      91.580757     139.569229     170.295258     171.560608       0.071908       0.074161       0.077668       0.074366     159.000000
          132.1      94.574532       8.148184     168.751465     171.410431     137.449097       0.447400      91.291405     146.282806     170.489624     172.299835       0.055883       0.066123       0.054910       0.066174     159.000000
          132.2      95.675011       8.195275     168.913956     169.216339     135.668015       0.441843      90.771667     147.595871     172.099792     171.674072       0.086935       0.111971       0.099965       0.063793     159.000000
          132.3      96.125206       8.230563     172.598969     170.249451     135.249466       0.459117      90.900574     148.102493     173.168854     175.820465       0.141922       0.149960       0.132860       0.133526     159.000000
          132.4      95.730156       8.187615     174.252670     176.693665     138.300110       0.492643      91.359718     145.329697     172.844055     178.091339       0.111715       0.128047       0.119804       0.134089     159.000000
          132.5      96.101585       8.156886     170.156631     176.836884     134.829651       0.513926      89.432823     148.564331     169.633728     168.730209       0.114070       0.134754       0.131068       0.142332     159.000000
