~Version Information
VERS .            2.00                          : CWLS Log ASCII Standard - Version 2.00
WRAP .            NO                            : One line per depth step
#
~Well Information
#MNEM.UNIT        DATA                          : DESCRIPTION
#----.----        ----                          : -----------
STRT .M              0.0                        : Start
STOP .M            232.6                        : Stop
STEP .M              0.1                        : Step increment
NULL .            -999.250                      : Null value
COMP .            SUNCOR ENERGY INC.            : Company
WELL .            SUNCOR LEWIS 3-8-92-7         : Well
FLD  .            LEWIS                         : Field
PROV .            ALBERTA                       : Province
CTRY .            Canada                        : State / Country
LOC  .                                          : Location
LOC2 .            03-08-092-07W4                : Location 2
SRVC .            Weatherford                   : Service company
UWI  .            1AA030809207W400              : Unique Well ID
LIC  .            0486896                       : Licence Number
DATE .            25-Jan-2018                   : Logging Date
#
~Curve Information
#MNEM.UNIT        API CODES                     : CURVE DESCRIPTION
#----.----        ---------                     : -----------------
DEPT .M           00 001 00 00                  : Logged depth
GRGM .GAPI        30 310 01 00                  : MGS Gamma Ray
CGXT .DEGC        30 660 01 00                  : MCG External Temperature
IECX .MM          45 000 00 00                  : MIE Caliper X
IECY .MM          45 000 00 00                  : MIE Caliper Y
IRBR .DEG         00 000 00 00                  : Relative Bearing
ITLT .DEG         00 000 00 00                  : Borehole Tilt
IAP1 .DEG         00 000 00 00                  : Azimuth of Reference
IAZT .DEG         00 000 00 00                  : Borehole Azimuth (True)
DI26 .MM          70 280 02 00                  : Imager Diameter 2 - 6
DI48 .MM          70 280 02 00                  : Imager Diameter 4 - 8
BTM1 .MA          45 000 00 00                  : Imager Pad 1 Md. Current
BTM3 .MA          45 000 00 00                  : Imager Pad 3 Md. Current
BTM5 .MA          45 000 00 00                  : Imager Pad 5 Md. Current
BTM7 .MA          45 000 00 00                  : Imager Pad 7 Md. Current
BIT  .MM          70 282 00 00                  : Bit size
#
~Parameter Information
#MNEM.UNIT        VALUE                         : DESCRIPTION
#----.----        -----                         : -----------
RNID .            MAIN PASS                     : Run ID
SON  .            8310-204072557                : Job Number
DREF .            KB                            : Depth reference
EREF .M               478.600                   : Elevation of depth reference
GL   .M               477.400                   : Ground elevation
DDRF .            KB @1.2m                      : Drilling Depth Reference
RUN  .                  1                       : Run number
TDD  .M               230.000                   : TD (driller)
TDL  .M               230.100                   : TD (logger)
BS   .MM              159.000                   : Bit size
TIMC .            09-Jan-18 13:45:00.000        : Time circulation ended
TIML .            09-Jan-18 18:45:00.000        : Time logger at bottom
UNIT .              14265                       : Equipment ID
BASE .            LLD                           : Equipment base location
ENG  .            ELLIOT KANE                   : Recording engineer
WIT  .            CLARK HUBER                   : Witnessed by
CSGT .            SURFACE                       : Casing type
CSGS .MM              177.800                   : Casing size
CSGW .KG/M             25.299                   : Casing weight
CSGD .M                88.300                   : Casing bottom (driller)
CSGL .M                88.300                   : Casing bottom (logger)
CSUP .M                 0.000                   : Casing Stick Up GL
MUD  .            POLYMER                       : Mud type
MUDS .            N/A                           : Mud sample source
MUDD .K/M3           1050.000                   : Mud density
MUDV .SEC/L            42.000                   : Mud viscosity
PH   .                  7.000                   : Mud pH
FL   .ML/30MIN          8.000                   : Mud fluid loss rate
RM   .OHMM              4.450                   : Mud resistivity
RMT  .DEGC              9.800                   : Mud sample temperature
RMF  .OHMM        -999999.000                   : Mud filtrate resistivity
RMFT .DEGC        -999999.000                   : Mud filtrate sample temperature
RMC  .OHMM        -999999.000                   : Mud cake resistivity
RMCT .DEGC        -999999.000                   : Mud cake sample temperature
RMBT .OHMM              4.650                   : Mud Resistivity at BHT
BHT  .DEGC              9.000                   : Bottom Hole Temperature
TMAX .DEGC              9.000                   : Max recorded temperature
#
~Other Information
---------------------------------------------------------------------------------------
1)  Run 1: MCB, SHA, MCG, MIM, MIE, MFE, MDM, MRD, MTD, HFS; Run in Combination
      Run 2: MCB, SHA, MCG, MTC, MGS, ISC, MDN, MPD, SKJ, MFE, MAI ; Run in Combination
2) Hardware: MDN: One Dual Neutron Bowspring
                         MAI: Two 12.7 mm standoffs with Bottom Hole Finder Assembly
                         MCG: One 6-leaf centralizer
                         MIE: Two 6-leaf centralizers
                         MSD: Two 6-leaf centralizers                            
3) Total Hole Volume from TD to Surface Casing = 2.7 CuM
4) Hole Volume calculated with Micro Imager calipers
5) Logging requested from KB @ 478.6 m.
6) Tool zero requested from KB. 
7) Magnetic Declanation: 13.39  EAST
8) Easting: 494056.00 ; Northing: 6313159.00
.
---------------------------------------------------------------------------------------
#
#          DEPT           GRGM           CGXT           IECX           IECY           IRBR           ITLT           IAP1           IAZT           DI26           DI48           BTM1           BTM3           BTM5           BTM7            BIT
#
~ASCII Log Data
# ...
          197.2      30.740362       8.344150     160.525925     160.828629      91.611931       0.522827      76.820099     179.168243     157.345398     158.731079       0.000480       0.000358       0.000447       0.000774     159.000000
          197.3      31.336098       8.389750     157.992783     161.457703      90.311768       0.545944      77.549240     181.197495     160.351822     158.234253       0.000624       0.000398       0.000440       0.000758     159.000000
          197.4      31.793301       8.370407     155.722519     162.255554      90.010132       0.515456      77.660278     181.610153     159.110748     158.747040       0.000418       0.000392       0.000396       0.000317     159.000000
          197.5      31.852552       8.405845     153.566956     162.373184      88.306023       0.513340      77.102081     182.755997     160.983185     159.663055       0.000648       0.000369       0.000602       0.000681     159.000000
          197.6      31.156708       8.423698     157.089462     162.506165      87.394371       0.533725      76.975555     183.541061     161.802505     161.290573       0.000443       0.000443       0.000406       0.000388     159.000000
          197.7      30.064142       8.369334     159.660828     162.511276      89.486740       0.517938      76.887016     181.360245     162.470428     162.309448       0.000534       0.000535       0.000548       0.000641     159.000000
          197.8      29.343893       8.346385     159.923706     162.516388      89.412277       0.516396      77.039818     181.587524     162.511719     162.257202       0.000611       0.000707       0.000612       0.000746     159.000000
          197.9      28.769976       8.316609     159.722961     162.444794      90.218918       0.535035      77.118294     180.859390     162.149536     161.778946       0.000466       0.000462       0.000432       0.000387     159.000000
          198.0      27.935127       8.419943     159.068176     162.122574      89.494675       0.524731      76.934746     181.400055     161.950211     160.631195       0.000387       0.000371       0.000375       0.000393     159.000000
          198.1      27.791563       8.343464     159.120743     162.618683      89.967514       0.518250      77.073105     181.065582     162.142365     161.266693       0.000478       0.000452       0.000446       0.000419     159.000000
          198.2      27.935499       8.337891     158.905670     162.628906      89.608383       0.526038      77.414688     181.766281     162.314087     160.937103       0.000526       0.000462       0.000528       0.000970     159.000000
          198.3      28.393162       8.386919     159.536560     162.669830      93.089409       0.518768      77.858795     178.729523     162.212952     160.976273       0.000365       0.000413       0.000386       0.000310     159.000000
          198.4      27.994560       8.412193     161.720795     163.171051      91.849159       0.546259      77.801254     179.912186     162.118011     160.866791       0.000310       0.000356       0.000288       0.000335     159.000000
          198.5      28.030972       8.391896     161.720795     163.222183      90.237305       0.511111      77.975670     181.698380     162.506195     161.534210       0.000421       0.000247       0.000266       0.000373     159.000000
          198.6      27.973570       8.385727     161.486603     163.140350      92.783806       0.528675      77.670906     178.847214     161.964294     161.818329       0.000374       0.000337       0.000259       0.000278     159.000000
          198.7      28.101336       8.416158     162.394714     163.038071      90.288826       0.522130      77.582817     181.254013     162.075958     161.756500       0.000539       0.000285       0.000281       0.000290     159.000000
          198.8      27.835018       8.412521     162.614563     163.022720      93.533508       0.517335      77.311943     177.738571     162.454605     162.026001       0.000319       0.000278       0.000273       0.000312     159.000000
          198.9      28.087137       8.349752     163.102081     162.715851      92.436447       0.523357      77.013969     178.537628     162.022781     161.693878       0.000227       0.000302       0.000240       0.000246     159.000000
          199.0      29.810783       8.372166     163.039948     162.455017      87.960518       0.511422      77.042862     183.042252     161.179749     160.824219       0.000428       0.000302       0.000254       0.000203     159.000000
          199.1      32.671650       8.363642     150.990799     160.757019      90.082733       0.526127      76.783600     180.660873     157.798309     157.426544       0.000265       0.000433       0.000268       0.000175     159.000000
          199.2      36.769432       8.339947     146.110931     155.110657      84.067116       0.507087      76.989067     186.881714     156.248260     155.401978       0.000309       0.001046       0.000420       0.000207     159.000000
          199.3      41.421757       8.302333     145.245834     154.568527      85.104393       0.492170      77.007881     185.539978     155.188782     154.812149       0.001247       0.005781       0.005342       0.000587     159.000000
          199.4      48.224117       8.377769     144.648392     154.998138      87.597359       0.496678      76.544960     182.463776     154.720291     154.468536       0.003571       0.008694       0.003467       0.024089     159.000000
          199.5      56.033855       8.351481     144.203903     154.998138      85.665253       0.509126      75.803589     184.098175     154.420990     153.063904       0.004553       0.006136       0.006041       0.004630     159.000000
          199.6      64.109077       8.348620     144.199127     155.013489      82.396561       0.490705      76.221107     187.538559     154.560791     150.870773       0.009203       0.017094       0.005369       0.004507     159.000000
          199.7      70.739670       8.382031     144.180008     155.003250      86.709335       0.512907      75.992744     183.243271     154.705643     148.315613       0.007126       0.013171       0.010345       0.009805     159.000000
          199.8      76.200676       8.364923     144.963852     155.218063      87.026024       0.495995      76.556168     183.069611     154.796661     148.591400       0.009075       0.011196       0.008867       0.011443     159.000000
          199.9      79.736664       8.365608     147.047714     155.223175      85.552643       0.483183      76.697258     184.757462     151.906158     148.977203       0.008147       0.010937       0.004717       0.008016     159.000000
          200.0      81.533722       8.355296     147.062042     153.862732      86.020752       0.468624      76.635414     184.218262     151.038940     148.013901       0.007936       0.006937       0.005769       0.008313     159.000000
          200.1      81.115578       8.331691     148.075302     152.809158      87.937927       0.480407      76.618477     182.200302     150.509903     148.035004       0.008054       0.009417       0.009641       0.005694     159.000000
          200.2      80.061195       8.318696     150.828308     153.029068      93.821663       0.474691      76.742340     176.230453     150.757904     148.596985       0.011440       0.008109       0.015020       0.015398     159.000000
          200.3      78.359100       8.341109     150.785294     153.341049      90.759598       0.497064      77.102264     179.754639     149.993439     148.891296       0.007811       0.007872       0.008630       0.011404     159.000000
          200.4      76.859604       8.334850     152.553711     151.714661      92.171333       0.501230      76.997391     178.786133     150.609833     147.562637       0.007165       0.010444       0.009072       0.008131     159.000000
          200.5      74.984039       8.314971     155.588699     151.182755      92.382103       0.517574      77.016998     178.595001     149.779541     146.261978       0.007289       0.003973       0.004334       0.006072     159.000000
