~Version Information
VERS .            2.00                          : CWLS Log ASCII Standard - Version 2.00
WRAP .            NO                            : One line per depth step
#
~Well Information
#MNEM.UNIT        DATA                          : DESCRIPTION
#----.----        ----                          : -----------
STRT .M            171.9                        : Start
STOP .M            232.6                        : Stop
STEP .M              0.1                        : Step increment
NULL .            -999.250                      : Null value
COMP .            SUNCOR ENERGY INC.            : Company
WELL .            SUNCOR LEWIS 3-8-92-7         : Well
FLD  .            LEWIS                         : Field
PROV .            ALBERTA                       : Province
CTRY .            Canada                        : State / Country
LOC  .                                          : Location
LOC2 .            03-08-092-07W4                : Location 2
SRVC .            Weatherford                   : Service company
UWI  .            1AA140509207W400              : Unique Well ID
LIC  .            0486895                       : Licence Number
DATE .            25-Jan-2018                   : Logging Date
#
~Curve Information
#MNEM.UNIT        API CODES                     : CURVE DESCRIPTION
#----.----        ---------                     : -----------------
DEPT .M           00 001 00 00                  : Logged depth
CGXT .DEGC        30 660 01 00                  : MCG External Temperature
GRGM .GAPI        30 310 01 00                  : MGS Gamma Ray
IECX .MM          45 000 00 00                  : MIE Caliper X
IECY .MM          45 000 00 00                  : MIE Caliper Y
IRBR .DEG         00 000 00 00                  : Relative Bearing
ITLT .DEG         00 000 00 00                  : Borehole Tilt
IAP1 .DEG         00 000 00 00                  : Azimuth of Reference
IAZT .DEG         00 000 00 00                  : Borehole Azimuth (True)
DI26 .MM          70 280 02 00                  : Imager Diameter 2 - 6
DI48 .MM          70 280 02 00                  : Imager Diameter 4 - 8
BTM1 .MA          45 000 00 00                  : Imager Pad 1 Md. Current
BTM3 .MA          45 000 00 00                  : Imager Pad 3 Md. Current
BTM5 .MA          45 000 00 00                  : Imager Pad 5 Md. Current
BTM7 .MA          45 000 00 00                  : Imager Pad 7 Md. Current
BIT  .MM          70 282 00 00                  : Bit size
#
~Parameter Information
#MNEM.UNIT        VALUE                         : DESCRIPTION
#----.----        -----                         : -----------
RNID .            MAIN PASS                     : Run ID
SON  .            8310-204072557                : Job Number
DREF .            KB                            : Depth reference
EREF .M               478.600                   : Elevation of depth reference
GL   .M               477.400                   : Ground elevation
DDRF .            KB @1.2m                      : Drilling Depth Reference
RUN  .                  1                       : Run number
TDD  .M               230.000                   : TD (driller)
TDL  .M               230.100                   : TD (logger)
BS   .MM              159.000                   : Bit size
TIMC .            09-Jan-18 13:45:00.000        : Time circulation ended
TIML .            09-Jan-18 18:45:00.000        : Time logger at bottom
UNIT .              14265                       : Equipment ID
BASE .            LLD                           : Equipment base location
ENG  .            ELLIOT KANE                   : Recording engineer
WIT  .            CLARK HUBER                   : Witnessed by
CSGT .            SURFACE                       : Casing type
CSGS .MM              177.800                   : Casing size
CSGW .KG/M             25.299                   : Casing weight
CSGD .M                88.300                   : Casing bottom (driller)
CSGL .M                88.300                   : Casing bottom (logger)
CSUP .M                 0.000                   : Casing Stick Up GL
MUD  .            POLYMER                       : Mud type
MUDS .            N/A                           : Mud sample source
MUDD .K/M3           1050.000                   : Mud density
MUDV .SEC/L            42.000                   : Mud viscosity
PH   .                  7.000                   : Mud pH
FL   .ML/30MIN          8.000                   : Mud fluid loss rate
RM   .OHMM              4.450                   : Mud resistivity
RMT  .DEGC              9.800                   : Mud sample temperature
RMF  .OHMM        -999999.000                   : Mud filtrate resistivity
RMFT .DEGC        -999999.000                   : Mud filtrate sample temperature
RMC  .OHMM        -999999.000                   : Mud cake resistivity
RMCT .DEGC        -999999.000                   : Mud cake sample temperature
RMBT .OHMM              4.650                   : Mud Resistivity at BHT
BHT  .DEGC              9.000                   : Bottom Hole Temperature
TMAX .DEGC              9.000                   : Max recorded temperature
#
~Other Information
---------------------------------------------------------------------------------------
1)  Run 1: MCB, SHA, MCG, MIM, MIE, MFE, MDM, MRD, MTD, HFS; Run in Combination
      Run 2: MCB, SHA, MCG, MTC, MGS, ISC, MDN, MPD, SKJ, MFE, MAI ; Run in Combination
2) Hardware: MDN: One Dual Neutron Bowspring
                         MAI: Two 12.7 mm standoffs with Bottom Hole Finder Assembly
                         MCG: One 6-leaf centralizer
                         MIE: Two 6-leaf centralizers
                         MSD: Two 6-leaf centralizers                            
3) Total Hole Volume from TD to Surface Casing = 2.2 CuM
4) Hole Volume calculated with Micro Imager calipers
5) Logging requested from KB @ 478.6 m.
6) Tool zero requested from KB. 
7) Magnetic Declanation: 13.39  EAST
8) Easting: 494056.00 ; Northing: 6313159.00
.
---------------------------------------------------------------------------------------
#
#          DEPT           CGXT           GRGM           IECX           IECY           IRBR           ITLT           IAP1           IAZT           DI26           DI48           BTM1           BTM3           BTM5           BTM7            BIT
#
~ASCII Log Data
# ...
          219.5    -999.250000      71.299530     158.967804     155.801117      57.853008       0.343317      81.682098     218.441513     157.241470     157.636887       0.013209       0.012304       0.015251       0.011420     159.000000
          219.6    -999.250000      70.389580     155.440521     155.013489      60.438171       0.357188      81.600800     215.729141     157.161118     156.548248       0.064843       0.002026       0.000295       0.001402     159.000000
          219.7    -999.250000    -999.250000     155.416626     153.300140      58.615398       0.375329      81.170166     217.191574     158.677505     157.074829       0.018265       0.014393       0.011516       0.014886     159.000000
          219.8    -999.250000    -999.250000     155.168091     152.783585      59.769550       0.385953      80.884285     215.727737     155.487259     157.748016       0.018239       0.015065       0.013059       0.016518     159.000000
          219.9    -999.250000    -999.250000     154.900436     152.251678      57.422886       0.384637      80.852570     218.108368     155.141510     157.460144       0.021875       0.013280       0.013798       0.017305     159.000000
          220.0    -999.250000    -999.250000     154.843094     152.036865      60.228455       0.378189      80.849655     215.207260     154.882339     157.184509       0.022163       0.013510       0.014348       0.017977     159.000000
          220.1    -999.250000    -999.250000     154.828751     152.011292      58.618176       0.383102      80.848129     216.871277     154.783310     157.089035       0.022163       0.013516       0.014329       0.018035     159.000000
          220.2    -999.250000    -999.250000     154.823975     152.011292      58.375828       0.377023      80.844780     217.105820     154.765289     157.074585       0.021587       0.013568       0.014374       0.017971     159.000000
          220.3    -999.250000    -999.250000     154.828751     151.995956      60.723709       0.390441      80.832153     214.700058     154.774261     157.080414       0.021619       0.013574       0.014342       0.017990     159.000000
          220.4    -999.250000    -999.250000     154.819199     151.985718      57.431324       0.378215      80.846230     218.080887     154.765198     157.082993       0.021612       0.013612       0.014336       0.017996     159.000000
          220.5    -999.250000    -999.250000     154.814407     151.975494      59.183216       0.377889      80.832588     216.264618     154.762238     157.086243       0.022156       0.013619       0.014316       0.018028     159.000000
          220.6    -999.250000    -999.250000     154.809631     151.965271      58.763290       0.389371      80.858955     216.744217     154.759094     157.083221       0.021561       0.013708       0.014342       0.017990     159.000000
          220.7    -999.250000    -999.250000     154.804855     151.944809      60.226658       0.378195      80.842216     215.202072     154.749908     157.066193       0.021548       0.013760       0.014342       0.017990     159.000000
          220.8    -999.250000    -999.250000     154.800079     151.919235      59.009872       0.382442      80.835228     216.454086     154.747070     157.069000       0.021561       0.013856       0.014348       0.017990     159.000000
          220.9    -999.250000    -999.250000     154.795288     151.878326      59.018429       0.382302      80.832199     216.442123     154.744019     157.058014       0.022169       0.013913       0.014291       0.018022     159.000000
          221.0    -999.250000    -999.250000     154.785736     151.873215      58.541180       0.384436      80.827675     216.932541     154.746765     157.051971       0.022169       0.013984       0.014284       0.018028     159.000000
          221.1    -999.250000    -999.250000     154.785736     151.857864      57.617527       0.385031      80.887825     217.945053     154.737701     157.058014       0.021561       0.014092       0.014323       0.017964     159.000000
          221.2    -999.250000    -999.250000    -999.250000    -999.250000      59.222141       0.377011      80.841782     216.233078     154.734650     157.049164       0.000000       0.000000       0.000000       0.000000     159.000000
          221.3    -999.250000    -999.250000    -999.250000    -999.250000    -999.250000    -999.250000    -999.250000    -999.250000    -999.250000    -999.250000       0.000000       0.000000       0.000000       0.000000     159.000000
          221.4    -999.250000    -999.250000    -999.250000    -999.250000    -999.250000    -999.250000    -999.250000    -999.250000    -999.250000    -999.250000       0.000000       0.000000       0.000000       0.000000     159.000000
          221.5    -999.250000    -999.250000    -999.250000    -999.250000    -999.250000    -999.250000    -999.250000    -999.250000    -999.250000    -999.250000       0.000000       0.000000       0.000000       0.000000     159.000000
          221.6    -999.250000    -999.250000    -999.250000    -999.250000    -999.250000    -999.250000    -999.250000    -999.250000    -999.250000    -999.250000       0.000000       0.000000       0.000000       0.000000     159.000000
          221.7    -999.250000    -999.250000    -999.250000    -999.250000    -999.250000    -999.250000    -999.250000    -999.250000    -999.250000    -999.250000       0.000000       0.000000       0.000000       0.000000     159.000000
          221.8    -999.250000    -999.250000    -999.250000    -999.250000    -999.250000    -999.250000    -999.250000    -999.250000    -999.250000    -999.250000       0.000000       0.000000       0.000000       0.000000     159.000000
          221.9    -999.250000    -999.250000    -999.250000    -999.250000    -999.250000    -999.250000    -999.250000    -999.250000    -999.250000    -999.250000       0.000000       0.000000       0.000000       0.000000     159.000000
          222.0    -999.250000    -999.250000    -999.250000    -999.250000    -999.250000    -999.250000    -999.250000    -999.250000    -999.250000    -999.250000       0.000000       0.000000       0.000000       0.000000     159.000000
          222.1    -999.250000    -999.250000    -999.250000    -999.250000    -999.250000    -999.250000    -999.250000    -999.250000    -999.250000    -999.250000       0.000000       0.000000       0.000000       0.000000     159.000000
          222.2    -999.250000    -999.250000    -999.250000    -999.250000    -999.250000    -999.250000    -999.250000    -999.250000    -999.250000    -999.250000       0.000000       0.000000       0.000000       0.000000     159.000000
          222.3    -999.250000    -999.250000    -999.250000    -999.250000    -999.250000    -999.250000    -999.250000    -999.250000    -999.250000    -999.250000       0.000000       0.000000       0.000000       0.000000     159.000000
          222.4    -999.250000    -999.250000    -999.250000    -999.250000    -999.250000    -999.250000    -999.250000    -999.250000    -999.250000    -999.250000       0.000000       0.000000       0.000000       0.000000     159.000000
          222.5    -999.250000    -999.250000    -999.250000    -999.250000    -999.250000    -999.250000    -999.250000    -999.250000    -999.250000    -999.250000       0.000000       0.000000       0.000000       0.000000     159.000000
          222.6    -999.250000    -999.250000    -999.250000    -999.250000    -999.250000    -999.250000    -999.250000    -999.250000    -999.250000    -999.250000       0.000000       0.000000       0.000000       0.000000     159.000000
          222.7    -999.250000    -999.250000    -999.250000    -999.250000    -999.250000    -999.250000    -999.250000    -999.250000    -999.250000    -999.250000       0.000000       0.000000       0.000000       0.000000     159.000000
          222.8    -999.250000    -999.250000    -999.250000    -999.250000    -999.250000    -999.250000    -999.250000    -999.250000    -999.250000    -999.250000       0.000000       0.000000       0.000000       0.000000     159.000000
