~Version Information
VERS .            2.00                          : CWLS Log ASCII Standard - Version 2.00
WRAP .            NO                            : One line per depth step
#
~Well Information
#MNEM.UNIT        DATA                          : DESCRIPTION
#----.----        ----                          : -----------
STRT .M              0.0                        : Start
STOP .M            232.6                        : Stop
STEP .M              0.1                        : Step increment
NULL .            -999.250                      : Null value
COMP .            SUNCOR ENERGY INC.            : Company
WELL .            SUNCOR LEWIS 3-8-92-7         : Well
FLD  .            LEWIS                         : Field
PROV .            ALBERTA                       : Province
CTRY .            Canada                        : State / Country
LOC  .                                          : Location
LOC2 .            03-08-092-07W4                : Location 2
SRVC .            Weatherford                   : Service company
UWI  .            1AA030809207W400              : Unique Well ID
LIC  .            0486896                       : Licence Number
DATE .            25-Jan-2018                   : Logging Date
#
~Curve Information
#MNEM.UNIT        API CODES                     : CURVE DESCRIPTION
#----.----        ---------                     : -----------------
DEPT .M           00 001 00 00                  : Logged depth
GRGM .GAPI        30 310 01 00                  : MGS Gamma Ray
CGXT .DEGC        30 660 01 00                  : MCG External Temperature
IECX .MM          45 000 00 00                  : MIE Caliper X
IECY .MM          45 000 00 00                  : MIE Caliper Y
IRBR .DEG         00 000 00 00                  : Relative Bearing
ITLT .DEG         00 000 00 00                  : Borehole Tilt
IAP1 .DEG         00 000 00 00                  : Azimuth of Reference
IAZT .DEG         00 000 00 00                  : Borehole Azimuth (True)
DI26 .MM          70 280 02 00                  : Imager Diameter 2 - 6
DI48 .MM          70 280 02 00                  : Imager Diameter 4 - 8
BTM1 .MA          45 000 00 00                  : Imager Pad 1 Md. Current
BTM3 .MA          45 000 00 00                  : Imager Pad 3 Md. Current
BTM5 .MA          45 000 00 00                  : Imager Pad 5 Md. Current
BTM7 .MA          45 000 00 00                  : Imager Pad 7 Md. Current
BIT  .MM          70 282 00 00                  : Bit size
#
~Parameter Information
#MNEM.UNIT        VALUE                         : DESCRIPTION
#----.----        -----                         : -----------
RNID .            MAIN PASS                     : Run ID
SON  .            8310-204072557                : Job Number
DREF .            KB                            : Depth reference
EREF .M               478.600                   : Elevation of depth reference
GL   .M               477.400                   : Ground elevation
DDRF .            KB @1.2m                      : Drilling Depth Reference
RUN  .                  1                       : Run number
TDD  .M               230.000                   : TD (driller)
TDL  .M               230.100                   : TD (logger)
BS   .MM              159.000                   : Bit size
TIMC .            09-Jan-18 13:45:00.000        : Time circulation ended
TIML .            09-Jan-18 18:45:00.000        : Time logger at bottom
UNIT .              14265                       : Equipment ID
BASE .            LLD                           : Equipment base location
ENG  .            ELLIOT KANE                   : Recording engineer
WIT  .            CLARK HUBER                   : Witnessed by
CSGT .            SURFACE                       : Casing type
CSGS .MM              177.800                   : Casing size
CSGW .KG/M             25.299                   : Casing weight
CSGD .M                88.300                   : Casing bottom (driller)
CSGL .M                88.300                   : Casing bottom (logger)
CSUP .M                 0.000                   : Casing Stick Up GL
MUD  .            POLYMER                       : Mud type
MUDS .            N/A                           : Mud sample source
MUDD .K/M3           1050.000                   : Mud density
MUDV .SEC/L            42.000                   : Mud viscosity
PH   .                  7.000                   : Mud pH
FL   .ML/30MIN          8.000                   : Mud fluid loss rate
RM   .OHMM              4.450                   : Mud resistivity
RMT  .DEGC              9.800                   : Mud sample temperature
RMF  .OHMM        -999999.000                   : Mud filtrate resistivity
RMFT .DEGC        -999999.000                   : Mud filtrate sample temperature
RMC  .OHMM        -999999.000                   : Mud cake resistivity
RMCT .DEGC        -999999.000                   : Mud cake sample temperature
RMBT .OHMM              4.650                   : Mud Resistivity at BHT
BHT  .DEGC              9.000                   : Bottom Hole Temperature
TMAX .DEGC              9.000                   : Max recorded temperature
#
~Other Information
---------------------------------------------------------------------------------------
1)  Run 1: MCB, SHA, MCG, MIM, MIE, MFE, MDM, MRD, MTD, HFS; Run in Combination
      Run 2: MCB, SHA, MCG, MTC, MGS, ISC, MDN, MPD, SKJ, MFE, MAI ; Run in Combination
2) Hardware: MDN: One Dual Neutron Bowspring
                         MAI: Two 12.7 mm standoffs with Bottom Hole Finder Assembly
                         MCG: One 6-leaf centralizer
                         MIE: Two 6-leaf centralizers
                         MSD: Two 6-leaf centralizers                            
3) Total Hole Volume from TD to Surface Casing = 2.7 CuM
4) Hole Volume calculated with Micro Imager calipers
5) Logging requested from KB @ 478.6 m.
6) Tool zero requested from KB. 
7) Magnetic Declanation: 13.39  EAST
8) Easting: 494056.00 ; Northing: 6313159.00
.
---------------------------------------------------------------------------------------
#
#          DEPT           GRGM           CGXT           IECX           IECY           IRBR           ITLT           IAP1           IAZT           DI26           DI48           BTM1           BTM3           BTM5           BTM7            BIT
#
~ASCII Log Data
# ...
          159.8      97.907562       8.294823     159.579575     158.890244     115.744072       0.538648      82.807426     161.024353     159.251678     156.765686       0.016313       0.020998       0.014649       0.016473     159.000000
          159.9      98.979340       8.294793     160.482910     159.089706     115.932121       0.538029      82.753456     160.782318     160.655823     157.633743       0.012016       0.015161       0.014598       0.013273     159.000000
          160.0     100.307739       8.304688     161.429245     160.373444     113.304459       0.560127      82.743317     163.399857     161.601395     158.070831       0.012588       0.012518       0.011456       0.008166     159.000000
          160.1     101.036980       8.342481     161.386230     160.664963     115.933487       0.538032      82.519501     160.546997     161.312531     156.892792       0.022361       0.022060       0.021772       0.024178     159.000000
          160.2     100.937187       8.261412     158.638016     160.092148     112.113876       0.554991      82.735100     164.582153     162.140350     155.223740       0.024646       0.024300       0.021939       0.023257     159.000000
          160.3      99.541153       8.309725     155.555237     159.534668     111.325523       0.512282      82.522820     165.158081     161.141479     152.759888       0.025068       0.017324       0.019763       0.016569     159.000000
          160.4      97.426643       8.308026     151.076843     156.972321     108.590881       0.524082      82.404900     167.774750     158.523758     151.222961       0.033266       0.024722       0.025670       0.023308     159.000000
          160.5      95.799461       8.373030     150.116150     156.174469     107.417603       0.546828      82.447754     168.990906     157.845108     149.793762       0.022745       0.019756       0.021510       0.014169     159.000000
          160.6      95.583694       8.317325     150.259537     156.348358     107.221336       0.537144      82.747696     169.487076     158.092438     150.356949       0.027250       0.021011       0.016288       0.017036     159.000000
          160.7      95.840828       8.313361     150.269104     156.307449     107.156776       0.513152      83.016373     169.820236     157.482758     150.766861       0.018470       0.021183       0.019231       0.022150     159.000000
          160.8      96.332024       8.330231     150.321671     156.297211     108.155716       0.516592      83.319473     169.124435     157.387909     152.028107       0.019475       0.016441       0.024351       0.019270     159.000000
          160.9      96.540596       8.344000     152.104431     156.302322     110.322411       0.530827      83.950394     167.588776     156.148483     153.042313       0.017708       0.022527       0.022278       0.025484     159.000000
          161.0      96.161858       8.295955     152.654068     156.696136     112.117188       0.527403      84.182869     166.026520     155.518738     154.864517       0.015129       0.019603       0.016358       0.017382     159.000000
          161.1      94.455208       8.295210     154.752274     160.071686     112.978363       0.542943      84.388618     165.371185     158.643265     158.897919       0.027314       0.025830       0.031116       0.031295     159.000000
          161.2      91.993782       8.342301     159.464874     159.831299     116.674728       0.541474      83.568382     160.854691     158.797958     157.353210       0.029183       0.018054       0.021094       0.020262     159.000000
          161.3      90.224434       8.341764     158.083603     158.603836     114.988304       0.560226      83.418213     162.390945     157.645111     155.034332       0.019238       0.015084       0.017631       0.021241     159.000000
          161.4      89.259407       8.334821     159.163757     158.844208     116.295143       0.553965      83.386826     161.052734     158.353104     158.079498       0.023641       0.029388       0.021548       0.019929     159.000000
          161.5      88.615425       8.340156     160.138779     159.417038     115.782394       0.557586      83.110359     161.289032     158.920746     158.937347       0.023257       0.022284       0.029030       0.027430     159.000000
          161.6      87.599197       8.306297     160.889160     156.905838     114.318459       0.546686      83.201744     162.844269     158.319672     156.112000       0.024364       0.020684       0.020179       0.025548     159.000000
          161.7      86.291039       8.282305     157.390564     155.939194     114.444260       0.565009      82.824936     162.341721     156.467957     154.897858       0.034930       0.032293       0.038860       0.032716     159.000000
          161.8      84.597412       8.311304     157.409683     155.928970     114.482460       0.574369      82.492226     161.970856     157.328308     156.692886       0.020659       0.021075       0.023027       0.018131     159.000000
          161.9      81.821701       8.268803     158.671478     157.642319     114.586403       0.559535      82.418015     161.792633     157.406281     156.850006       0.029529       0.027724       0.025682       0.027289     159.000000
          162.0      78.699638       8.323286     158.303452     158.445282     112.731506       0.557984      82.035164     163.264633     157.557556     155.743057       0.016492       0.017222       0.023583       0.019110     159.000000
          162.1      77.502892       8.345193     157.672562     158.593597     112.250381       0.563416      81.587074     163.297668     155.631607     157.001846       0.015046       0.021663       0.022271       0.023507     159.000000
          162.2      79.367714       8.243112     156.367752     157.228043     113.538414       0.546482      81.587921     162.010452     155.165192     155.768738       0.023327       0.022860       0.012390       0.019404     159.000000
          162.3      83.274178       8.336728     157.849396     158.516891     113.494278       0.558328      81.585739     162.052460     157.865295     156.729675       0.024153       0.021100       0.022278       0.022847     159.000000
          162.4      87.822502       8.262932     158.489853     158.522003     113.182152       0.542241      81.516945     162.295731     157.945313     156.386551       0.024690       0.031986       0.023539       0.023961     159.000000
          162.5      92.855568       8.338069     159.173325     158.808411     112.926071       0.551763      81.385933     162.420807     158.640808     157.330246       0.025382       0.026943       0.023654       0.025689     159.000000
          162.6      95.880203       8.371778     159.173325     158.511780     112.147179       0.526881      81.510956     163.324615     158.273209     156.835266       0.027993       0.020831       0.018399       0.021663     159.000000
          162.7      97.405655       8.328979     157.471817     158.220245     113.491470       0.543436      81.637093     162.106567     157.772095     154.681564       0.023718       0.032370       0.032754       0.034418     159.000000
          162.8      96.256493       8.315686     157.390564     157.442856     113.635437       0.506365      81.708435     162.033829     157.442398     156.368744       0.017715       0.018598       0.023468       0.023622     159.000000
          162.9      95.176704       8.260816     157.643875     157.284302     111.683113       0.533909      81.657539     163.935272     158.599884     155.208832       0.018329       0.017203       0.016588       0.016851     159.000000
          163.0      92.383453       8.265226     158.074036     157.243393     111.669754       0.494146      82.765633     163.941940     158.375488     156.465210       0.024281       0.029874       0.024825       0.025119     159.000000
          163.1      90.672066       8.322988     156.420334     157.243393     112.232605       0.519724      81.685242     163.413467     156.899139     156.152451       0.030821       0.032882       0.032895       0.035148     159.000000
