~Version Information
VERS .            2.00                          : CWLS Log ASCII Standard - Version 2.00
WRAP .            NO                            : One line per depth step
#
~Well Information
#MNEM.UNIT        DATA                          : DESCRIPTION
#----.----        ----                          : -----------
STRT .M            171.9                        : Start
STOP .M            232.6                        : Stop
STEP .M              0.1                        : Step increment
NULL .            -999.250                      : Null value
COMP .            SUNCOR ENERGY INC.            : Company
WELL .            SUNCOR LEWIS 3-8-92-7         : Well
FLD  .            LEWIS                         : Field
PROV .            ALBERTA                       : Province
CTRY .            Canada                        : State / Country
LOC  .                                          : Location
LOC2 .            03-08-092-07W4                : Location 2
SRVC .            Weatherford                   : Service company
UWI  .            1AA140509207W400              : Unique Well ID
LIC  .            0486895                       : Licence Number
DATE .            25-Jan-2018                   : Logging Date
#
~Curve Information
#MNEM.UNIT        API CODES                     : CURVE DESCRIPTION
#----.----        ---------                     : -----------------
DEPT .M           00 001 00 00                  : Logged depth
CGXT .DEGC        30 660 01 00                  : MCG External Temperature
GRGM .GAPI        30 310 01 00                  : MGS Gamma Ray
IECX .MM          45 000 00 00                  : MIE Caliper X
IECY .MM          45 000 00 00                  : MIE Caliper Y
IRBR .DEG         00 000 00 00                  : Relative Bearing
ITLT .DEG         00 000 00 00                  : Borehole Tilt
IAP1 .DEG         00 000 00 00                  : Azimuth of Reference
IAZT .DEG         00 000 00 00                  : Borehole Azimuth (True)
DI26 .MM          70 280 02 00                  : Imager Diameter 2 - 6
DI48 .MM          70 280 02 00                  : Imager Diameter 4 - 8
BTM1 .MA          45 000 00 00                  : Imager Pad 1 Md. Current
BTM3 .MA          45 000 00 00                  : Imager Pad 3 Md. Current
BTM5 .MA          45 000 00 00                  : Imager Pad 5 Md. Current
BTM7 .MA          45 000 00 00                  : Imager Pad 7 Md. Current
BIT  .MM          70 282 00 00                  : Bit size
#
~Parameter Information
#MNEM.UNIT        VALUE                         : DESCRIPTION
#----.----        -----                         : -----------
RNID .            MAIN PASS                     : Run ID
SON  .            8310-204072557                : Job Number
DREF .            KB                            : Depth reference
EREF .M               478.600                   : Elevation of depth reference
GL   .M               477.400                   : Ground elevation
DDRF .            KB @1.2m                      : Drilling Depth Reference
RUN  .                  1                       : Run number
TDD  .M               230.000                   : TD (driller)
TDL  .M               230.100                   : TD (logger)
BS   .MM              159.000                   : Bit size
TIMC .            09-Jan-18 13:45:00.000        : Time circulation ended
TIML .            09-Jan-18 18:45:00.000        : Time logger at bottom
UNIT .              14265                       : Equipment ID
BASE .            LLD                           : Equipment base location
ENG  .            ELLIOT KANE                   : Recording engineer
WIT  .            CLARK HUBER                   : Witnessed by
CSGT .            SURFACE                       : Casing type
CSGS .MM              177.800                   : Casing size
CSGW .KG/M             25.299                   : Casing weight
CSGD .M                88.300                   : Casing bottom (driller)
CSGL .M                88.300                   : Casing bottom (logger)
CSUP .M                 0.000                   : Casing Stick Up GL
MUD  .            POLYMER                       : Mud type
MUDS .            N/A                           : Mud sample source
MUDD .K/M3           1050.000                   : Mud density
MUDV .SEC/L            42.000                   : Mud viscosity
PH   .                  7.000                   : Mud pH
FL   .ML/30MIN          8.000                   : Mud fluid loss rate
RM   .OHMM              4.450                   : Mud resistivity
RMT  .DEGC              9.800                   : Mud sample temperature
RMF  .OHMM        -999999.000                   : Mud filtrate resistivity
RMFT .DEGC        -999999.000                   : Mud filtrate sample temperature
RMC  .OHMM        -999999.000                   : Mud cake resistivity
RMCT .DEGC        -999999.000                   : Mud cake sample temperature
RMBT .OHMM              4.650                   : Mud Resistivity at BHT
BHT  .DEGC              9.000                   : Bottom Hole Temperature
TMAX .DEGC              9.000                   : Max recorded temperature
#
~Other Information
---------------------------------------------------------------------------------------
1)  Run 1: MCB, SHA, MCG, MIM, MIE, MFE, MDM, MRD, MTD, HFS; Run in Combination
      Run 2: MCB, SHA, MCG, MTC, MGS, ISC, MDN, MPD, SKJ, MFE, MAI ; Run in Combination
2) Hardware: MDN: One Dual Neutron Bowspring
                         MAI: Two 12.7 mm standoffs with Bottom Hole Finder Assembly
                         MCG: One 6-leaf centralizer
                         MIE: Two 6-leaf centralizers
                         MSD: Two 6-leaf centralizers                            
3) Total Hole Volume from TD to Surface Casing = 2.2 CuM
4) Hole Volume calculated with Micro Imager calipers
5) Logging requested from KB @ 478.6 m.
6) Tool zero requested from KB. 
7) Magnetic Declanation: 13.39  EAST
8) Easting: 494056.00 ; Northing: 6313159.00
.
---------------------------------------------------------------------------------------
#
#          DEPT           CGXT           GRGM           IECX           IECY           IRBR           ITLT           IAP1           IAZT           DI26           DI48           BTM1           BTM3           BTM5           BTM7            BIT
#
~ASCII Log Data
# ...
          185.5       8.248595      35.163380    -999.250000    -999.250000    -999.250000    -999.250000    -999.250000    -999.250000    -999.250000    -999.250000       0.000000       0.000000       0.000000       0.000000     159.000000
          185.6       8.166573      34.326260    -999.250000    -999.250000    -999.250000    -999.250000    -999.250000    -999.250000    -999.250000    -999.250000       0.000000       0.000000       0.000000       0.000000     159.000000
          185.7       8.285703      32.508102    -999.250000    -999.250000    -999.250000    -999.250000    -999.250000    -999.250000    -999.250000    -999.250000       0.000000       0.000000       0.000000       0.000000     159.000000
          185.8       8.228806      31.231779    -999.250000    -999.250000    -999.250000    -999.250000    -999.250000    -999.250000    -999.250000    -999.250000       0.000000       0.000000       0.000000       0.000000     159.000000
          185.9       8.148392      30.667253    -999.250000    -999.250000    -999.250000    -999.250000    -999.250000    -999.250000    -999.250000    -999.250000       0.000000       0.000000       0.000000       0.000000     159.000000
          186.0       8.173040      31.421026    -999.250000    -999.250000    -999.250000    -999.250000    -999.250000    -999.250000    -999.250000    -999.250000       0.000000       0.000000       0.000000       0.000000     159.000000
          186.1       8.231995      33.077557    -999.250000    -999.250000    -999.250000    -999.250000    -999.250000    -999.250000    -999.250000    -999.250000       0.000000       0.000000       0.000000       0.000000     159.000000
          186.2       8.221801      35.760246    -999.250000    -999.250000    -999.250000    -999.250000    -999.250000    -999.250000    -999.250000    -999.250000       0.000000       0.000000       0.000000       0.000000     159.000000
          186.3       8.201415      37.641369    -999.250000    -999.250000    -999.250000    -999.250000    -999.250000    -999.250000    -999.250000    -999.250000       0.000000       0.000000       0.000000       0.000000     159.000000
          186.4       8.225556      38.807846    -999.250000    -999.250000    -999.250000    -999.250000    -999.250000    -999.250000    -999.250000    -999.250000       0.000000       0.000000       0.000000       0.000000     159.000000
          186.5       8.156499      39.655102    -999.250000    -999.250000    -999.250000    -999.250000    -999.250000    -999.250000    -999.250000    -999.250000       0.000000       0.000000       0.000000       0.000000     159.000000
          186.6       8.170865      40.591412    -999.250000    -999.250000    -999.250000    -999.250000    -999.250000    -999.250000    -999.250000    -999.250000       0.000000       0.000000       0.000000       0.000000     159.000000
          186.7       8.181982      40.212605    -999.250000    -999.250000    -999.250000    -999.250000    -999.250000    -999.250000    -999.250000    -999.250000       0.000000       0.000000       0.000000       0.000000     159.000000
          186.8       8.220251      38.798782    -999.250000    -999.250000    -999.250000    -999.250000    -999.250000    -999.250000    -999.250000    -999.250000       0.000000       0.000000       0.000000       0.000000     159.000000
          186.9       8.198941      37.290348    -999.250000    -999.250000    -999.250000    -999.250000    -999.250000    -999.250000    -999.250000    -999.250000       0.000000       0.000000       0.000000       0.000000     159.000000
          187.0       8.160790      35.334106    -999.250000    -999.250000    -999.250000    -999.250000    -999.250000    -999.250000    -999.250000    -999.250000       0.000000       0.000000       0.000000       0.000000     159.000000
          187.1       8.192861      33.592896    -999.250000    -999.250000    -999.250000    -999.250000    -999.250000    -999.250000    -999.250000    -999.250000       0.000000       0.000000       0.000000       0.000000     159.000000
          187.2       8.160702      32.263165     156.477676     156.251190    -999.250000    -999.250000    -999.250000    -999.250000    -999.250000    -999.250000       0.019167       0.020076       0.022700       0.019750     159.000000
          187.3       8.216317      32.663719     156.468124     156.031265      91.152588       0.573301      68.260071     171.067535     155.051346     155.225677       0.023276       0.025433       0.021689       0.027852     159.000000
          187.4       8.171789      33.205788     156.477676     155.862488      91.222275       0.581159      68.281387     171.019180     154.273315     155.252899       0.016147       0.016128       0.017727       0.017926     159.000000
          187.5       8.223947      33.762806     156.482468     155.248749      91.860527       0.586962      68.321152     170.420731     155.468079     154.796021       0.014048       0.010601       0.005496       0.011036     159.000000
          187.6       8.207972      33.532139     156.300842     155.110657      91.544014       0.567905      68.640068     171.056137     155.405045     154.820313       0.014969       0.012160       0.012515       0.011728     159.000000
          187.7       8.152863      33.449261     156.076202     155.079971      92.561058       0.595991      68.690697     170.089767     155.473404     154.039398       0.014553       0.012771       0.013664       0.015360     159.000000
          187.8       8.214260      33.206738     155.397507     154.614563      89.815865       0.570266      68.638351     172.782471     153.166901     155.111908       0.015251       0.014720       0.016166       0.013900     159.000000
          187.9       8.221771      32.494518     155.110748     154.640121      91.458733       0.581409      68.923820     171.425171     150.980591     154.231659       0.014694       0.015193       0.022380       0.015788     159.000000
          188.0       8.197927      31.814856     156.133560     154.650360      92.805992       0.588064      69.287216     170.441376     146.944611     153.214188       0.014227       0.012598       0.020217       0.009891     159.000000
          188.1       8.197093      30.969797     156.147888     154.645248      93.476913       0.587817      69.670990     170.154251     150.709167     152.942108       0.013708       0.012867       0.019257       0.015520     159.000000
          188.2       8.181952      32.007553     156.903061     153.627472      92.169708       0.567845      70.137527     171.927933     151.382477     154.849243       0.013664       0.013260       0.016998       0.013184     159.000000
          188.3       8.246510      32.894077     156.372528     153.627472      93.406883       0.588310      70.097321     170.650604     147.608231     153.649353       0.007069       0.009305       0.023078       0.012486     159.000000
          188.4       8.210058      34.294422     155.196777     152.405106      91.863968       0.586975      70.306740     172.402878     144.690399     155.914810       0.009824       0.012633       0.016633       0.009081     159.000000
          188.5       8.224126      34.495445     155.335373     152.128937      92.539948       0.539735      70.002296     171.422455     144.580765     155.800873       0.009849       0.003829       0.012288       0.010045     159.000000
          188.6       8.188122      34.832256     156.740555     153.376862      95.911575       0.581529      71.885834     169.934555     154.051025     153.013641       0.002567       0.006382       0.012044       0.006056     159.000000
          188.7       8.163324      33.230648     155.096405     150.543442      93.450371       0.580551      73.068756     173.578568     150.972229     149.941727       0.013523       0.016985       0.013408       0.010304     159.000000
          188.8       8.114832      31.380260     153.533508     150.200775      95.922577       0.587118      73.325577     171.363312     150.071075     149.294083       0.015424       0.017363       0.020819       0.013561     159.000000
