~Version Information
VERS .            2.00                          : CWLS Log ASCII Standard - Version 2.00
WRAP .            NO                            : One line per depth step
#
~Well Information
#MNEM.UNIT        DATA                          : DESCRIPTION
#----.----        ----                          : -----------
STRT .M              0.0                        : Start
STOP .M            232.6                        : Stop
STEP .M              0.1                        : Step increment
NULL .            -999.250                      : Null value
COMP .            SUNCOR ENERGY INC.            : Company
WELL .            SUNCOR LEWIS 3-8-92-7         : Well
FLD  .            LEWIS                         : Field
PROV .            ALBERTA                       : Province
CTRY .            Canada                        : State / Country
LOC  .                                          : Location
LOC2 .            03-08-092-07W4                : Location 2
SRVC .            Weatherford                   : Service company
UWI  .            1AA030809207W400              : Unique Well ID
LIC  .            0486896                       : Licence Number
DATE .            25-Jan-2018                   : Logging Date
#
~Curve Information
#MNEM.UNIT        API CODES                     : CURVE DESCRIPTION
#----.----        ---------                     : -----------------
DEPT .M           00 001 00 00                  : Logged depth
GRGM .GAPI        30 310 01 00                  : MGS Gamma Ray
CGXT .DEGC        30 660 01 00                  : MCG External Temperature
IECX .MM          45 000 00 00                  : MIE Caliper X
IECY .MM          45 000 00 00                  : MIE Caliper Y
IRBR .DEG         00 000 00 00                  : Relative Bearing
ITLT .DEG         00 000 00 00                  : Borehole Tilt
IAP1 .DEG         00 000 00 00                  : Azimuth of Reference
IAZT .DEG         00 000 00 00                  : Borehole Azimuth (True)
DI26 .MM          70 280 02 00                  : Imager Diameter 2 - 6
DI48 .MM          70 280 02 00                  : Imager Diameter 4 - 8
BTM1 .MA          45 000 00 00                  : Imager Pad 1 Md. Current
BTM3 .MA          45 000 00 00                  : Imager Pad 3 Md. Current
BTM5 .MA          45 000 00 00                  : Imager Pad 5 Md. Current
BTM7 .MA          45 000 00 00                  : Imager Pad 7 Md. Current
BIT  .MM          70 282 00 00                  : Bit size
#
~Parameter Information
#MNEM.UNIT        VALUE                         : DESCRIPTION
#----.----        -----                         : -----------
RNID .            MAIN PASS                     : Run ID
SON  .            8310-204072557                : Job Number
DREF .            KB                            : Depth reference
EREF .M               478.600                   : Elevation of depth reference
GL   .M               477.400                   : Ground elevation
DDRF .            KB @1.2m                      : Drilling Depth Reference
RUN  .                  1                       : Run number
TDD  .M               230.000                   : TD (driller)
TDL  .M               230.100                   : TD (logger)
BS   .MM              159.000                   : Bit size
TIMC .            09-Jan-18 13:45:00.000        : Time circulation ended
TIML .            09-Jan-18 18:45:00.000        : Time logger at bottom
UNIT .              14265                       : Equipment ID
BASE .            LLD                           : Equipment base location
ENG  .            ELLIOT KANE                   : Recording engineer
WIT  .            CLARK HUBER                   : Witnessed by
CSGT .            SURFACE                       : Casing type
CSGS .MM              177.800                   : Casing size
CSGW .KG/M             25.299                   : Casing weight
CSGD .M                88.300                   : Casing bottom (driller)
CSGL .M                88.300                   : Casing bottom (logger)
CSUP .M                 0.000                   : Casing Stick Up GL
MUD  .            POLYMER                       : Mud type
MUDS .            N/A                           : Mud sample source
MUDD .K/M3           1050.000                   : Mud density
MUDV .SEC/L            42.000                   : Mud viscosity
PH   .                  7.000                   : Mud pH
FL   .ML/30MIN          8.000                   : Mud fluid loss rate
RM   .OHMM              4.450                   : Mud resistivity
RMT  .DEGC              9.800                   : Mud sample temperature
RMF  .OHMM        -999999.000                   : Mud filtrate resistivity
RMFT .DEGC        -999999.000                   : Mud filtrate sample temperature
RMC  .OHMM        -999999.000                   : Mud cake resistivity
RMCT .DEGC        -999999.000                   : Mud cake sample temperature
RMBT .OHMM              4.650                   : Mud Resistivity at BHT
BHT  .DEGC              9.000                   : Bottom Hole Temperature
TMAX .DEGC              9.000                   : Max recorded temperature
#
~Other Information
---------------------------------------------------------------------------------------
1)  Run 1: MCB, SHA, MCG, MIM, MIE, MFE, MDM, MRD, MTD, HFS; Run in Combination
      Run 2: MCB, SHA, MCG, MTC, MGS, ISC, MDN, MPD, SKJ, MFE, MAI ; Run in Combination
2) Hardware: MDN: One Dual Neutron Bowspring
                         MAI: Two 12.7 mm standoffs with Bottom Hole Finder Assembly
                         MCG: One 6-leaf centralizer
                         MIE: Two 6-leaf centralizers
                         MSD: Two 6-leaf centralizers                            
3) Total Hole Volume from TD to Surface Casing = 2.7 CuM
4) Hole Volume calculated with Micro Imager calipers
5) Logging requested from KB @ 478.6 m.
6) Tool zero requested from KB. 
7) Magnetic Declanation: 13.39  EAST
8) Easting: 494056.00 ; Northing: 6313159.00
.
---------------------------------------------------------------------------------------
#
#          DEPT           GRGM           CGXT           IECX           IECY           IRBR           ITLT           IAP1           IAZT           DI26           DI48           BTM1           BTM3           BTM5           BTM7            BIT
#
~ASCII Log Data
# ...
          207.4      24.115709       8.296164     162.538101     157.683228      80.923149       0.331863      79.429985     192.426163     158.415894     159.456909       0.000980       0.000645       0.000402       0.000712     159.000000
          207.5      24.333431       8.288296     160.893951     156.936523      81.824890       0.329556      79.531685     191.604767     158.052155     157.810608       0.000648       0.000769       0.000667       0.000613     159.000000
          207.6      24.658331       8.288116     157.940216     156.941635      82.498283       0.330447      80.113144     191.510086     157.947113     157.420120       0.001045       0.000778       0.001002       0.001026     159.000000
          207.7      24.349920       8.300873     157.256744     157.540024      82.478622       0.307955      80.467072     191.897614     155.883820     157.028534       0.000379       0.000459       0.000492       0.000544     159.000000
          207.8      23.742340       8.236763     160.530701     157.949188      84.387932       0.339517      80.976311     190.453125     156.532471     160.199677       0.000442       0.000678       0.000644       0.000565     159.000000
          207.9      22.976942       8.293959     161.252411     159.626724      85.929932       0.327071      81.657593     189.572998     159.217117     159.628174       0.001406       0.001686       0.001366       0.001086     159.000000
          208.0      22.661596       8.255450     161.763824     156.118210      80.239838       0.324315      81.815979     195.578247     154.985947     156.902130       0.000626       0.000831       0.000771       0.000714     159.000000
          208.1      22.420740       8.256166     160.004959     154.092880      70.298264       0.288797      81.994179     205.931854     154.430222     156.796707       0.000751       0.000802       0.000553       0.000689     159.000000
          208.2      21.836647       8.307788     161.037338     155.182266      74.986000       0.347933      81.917625     201.090134     155.572174     159.840485       0.000900       0.000773       0.001193       0.000726     159.000000
          208.3      21.491179       8.270889     162.662369     158.204910      69.573204       0.367251      82.119576     206.882690     163.167557     160.078461       0.000499       0.000924       0.000888       0.000738     159.000000
          208.4      20.756891       8.259087     161.816391     163.615997      74.770287       0.387141      81.442307     200.844070     162.098663     159.895294       0.000574       0.000665       0.000506       0.000725     159.000000
          208.5      20.837511       8.279145     161.209396     160.010315      75.155548       0.366667      81.360580     200.351654     159.666458     159.848312       0.000719       0.000586       0.000472       0.000662     159.000000
          208.6      20.948187       8.270204     161.978897     154.778214      74.997047       0.364159      81.207535     200.356064     159.336487     161.438263       0.001682       0.001020       0.000621       0.000432     159.000000
          208.7      22.410118       8.272588     162.213089     156.644989      73.202164       0.354145      81.039108     202.024155     157.955215     161.826019       0.001106       0.000654       0.000750       0.001308     159.000000
          208.8      23.277559       8.322928     162.165298     156.266525      73.547066       0.393675      80.897644     201.547897     155.668579     160.548889       0.001142       0.000583       0.000770       0.001139     159.000000
          208.9      25.150953       8.234379     160.263046     155.008377      67.379280       0.352637      80.745911     207.709656     152.878113     158.834503       0.000968       0.001851       0.001027       0.001022     159.000000
          209.0      26.231037       8.260786     159.694290     155.013489      68.610558       0.355440      80.733047     206.433563     151.959167     158.659119       0.001800       0.001660       0.002954       0.001524     159.000000
          209.1      27.534529       8.334493     159.708633     155.018600      67.043510       0.340976      80.596931     207.888794     151.631958     158.484894       0.000584       0.001139       0.000763       0.000840     159.000000
          209.2      27.438501       8.256494     160.224823     155.141342      69.509430       0.369013      80.469505     205.250107     152.583008     159.398834       0.001487       0.001642       0.001108       0.001817     159.000000
          209.3      27.940697       8.225080     159.961945     156.890488      69.393143       0.382615      80.229897     205.134872     153.678787     162.374771       0.000677       0.000748       0.000572       0.000563     159.000000
          209.4      27.933765       8.328531     164.316071     161.554871      70.770332       0.408098      79.963837     203.460205     163.090729     163.504745       0.000972       0.000439       0.000526       0.000646     159.000000
          209.5      27.764435       8.255630     163.613480     164.551941      74.851456       0.399208      79.684258     198.950928     163.401855     163.322327       0.001990       0.000894       0.000247       0.000886     159.000000
          209.6      26.865452       8.262365     163.431870     162.066315      75.700691       0.394133      79.567444     197.951813     161.110275     162.372559       0.000573       0.000665       0.000374       0.000341     159.000000
          209.7      25.696297       8.286448     163.125977     161.718536      74.727654       0.387779      79.860977     199.256363     161.799759     159.285645       0.000371       0.000465       0.000313       0.000305     159.000000
          209.8      24.443272       8.244810     160.784012     160.900223      77.935806       0.401535      79.848152     195.935364     161.387741     157.790924       0.003395       0.000696       0.002069       0.001978     159.000000
          209.9      23.375488       8.255391     160.162689     160.347870      76.129478       0.372994      80.082718     198.034134     160.960403     157.760147       0.000762       0.000847       0.000700       0.000488     159.000000
          210.0      22.750097       8.241681     161.309769     160.097260      79.094025       0.399344      79.845528     194.736176     162.220703     161.046799       0.001132       0.000844       0.000709       0.001324     159.000000
          210.1      23.001547       8.362002     161.978897     160.869537      75.747643       0.401270      79.785736     198.131012     161.574890     160.903503       0.000555       0.000621       0.001384       0.000707     159.000000
          210.2      24.786951       8.293541     161.376678     160.547333      76.593513       0.407723      79.827118     197.301865     160.813446     160.703583       0.000856       0.000828       0.000986       0.001219     159.000000
          210.3      27.738159       8.240251     161.491379     159.227798      73.252739       0.437931      79.933426     200.880600     158.888916     159.230042       0.000487       0.000827       0.000542       0.000926     159.000000
          210.4      30.763731       8.290649     159.006042     155.458435      76.030624       0.459447      80.037849     198.118530     156.664368     151.831421       0.000490       0.001260       0.001348       0.000686     159.000000
          210.5      32.391270       8.245764     159.173325     157.667892      73.046875       0.493792      80.160728     201.361679     157.567139     156.419434       0.001892       0.011363       0.008573       0.001923     159.000000
          210.6      32.859287       8.266090     159.546127     159.314743      72.453529       0.486611      80.074913     201.884949     160.569061     159.590363       0.008483       0.008208       0.002567       0.005989     159.000000
          210.7      31.796448       8.246330     164.908737     163.171051      70.678001       0.514115      80.582207     203.863480     164.920013     165.460068       0.000805       0.001090       0.000633       0.000861     159.000000
