~Version Information
VERS .            2.00                          : CWLS Log ASCII Standard - Version 2.00
WRAP .            NO                            : One line per depth step
#
~Well Information
#MNEM.UNIT        DATA                          : DESCRIPTION
#----.----        ----                          : -----------
STRT .M              0.0                        : Start
STOP .M            232.6                        : Stop
STEP .M              0.1                        : Step increment
NULL .            -999.250                      : Null value
COMP .            SUNCOR ENERGY INC.            : Company
WELL .            SUNCOR LEWIS 3-8-92-7         : Well
FLD  .            LEWIS                         : Field
PROV .            ALBERTA                       : Province
CTRY .            Canada                        : State / Country
LOC  .                                          : Location
LOC2 .            03-08-092-07W4                : Location 2
SRVC .            Weatherford                   : Service company
UWI  .            1AA030809207W400              : Unique Well ID
LIC  .            0486896                       : Licence Number
DATE .            25-Jan-2018                   : Logging Date
#
~Curve Information
#MNEM.UNIT        API CODES                     : CURVE DESCRIPTION
#----.----        ---------                     : -----------------
DEPT .M           00 001 00 00                  : Logged depth
GRGM .GAPI        30 310 01 00                  : MGS Gamma Ray
CGXT .DEGC        30 660 01 00                  : MCG External Temperature
IECX .MM          45 000 00 00                  : MIE Caliper X
IECY .MM          45 000 00 00                  : MIE Caliper Y
IRBR .DEG         00 000 00 00                  : Relative Bearing
ITLT .DEG         00 000 00 00                  : Borehole Tilt
IAP1 .DEG         00 000 00 00                  : Azimuth of Reference
IAZT .DEG         00 000 00 00                  : Borehole Azimuth (True)
DI26 .MM          70 280 02 00                  : Imager Diameter 2 - 6
DI48 .MM          70 280 02 00                  : Imager Diameter 4 - 8
BTM1 .MA          45 000 00 00                  : Imager Pad 1 Md. Current
BTM3 .MA          45 000 00 00                  : Imager Pad 3 Md. Current
BTM5 .MA          45 000 00 00                  : Imager Pad 5 Md. Current
BTM7 .MA          45 000 00 00                  : Imager Pad 7 Md. Current
BIT  .MM          70 282 00 00                  : Bit size
#
~Parameter Information
#MNEM.UNIT        VALUE                         : DESCRIPTION
#----.----        -----                         : -----------
RNID .            MAIN PASS                     : Run ID
SON  .            8310-204072557                : Job Number
DREF .            KB                            : Depth reference
EREF .M               478.600                   : Elevation of depth reference
GL   .M               477.400                   : Ground elevation
DDRF .            KB @1.2m                      : Drilling Depth Reference
RUN  .                  1                       : Run number
TDD  .M               230.000                   : TD (driller)
TDL  .M               230.100                   : TD (logger)
BS   .MM              159.000                   : Bit size
TIMC .            09-Jan-18 13:45:00.000        : Time circulation ended
TIML .            09-Jan-18 18:45:00.000        : Time logger at bottom
UNIT .              14265                       : Equipment ID
BASE .            LLD                           : Equipment base location
ENG  .            ELLIOT KANE                   : Recording engineer
WIT  .            CLARK HUBER                   : Witnessed by
CSGT .            SURFACE                       : Casing type
CSGS .MM              177.800                   : Casing size
CSGW .KG/M             25.299                   : Casing weight
CSGD .M                88.300                   : Casing bottom (driller)
CSGL .M                88.300                   : Casing bottom (logger)
CSUP .M                 0.000                   : Casing Stick Up GL
MUD  .            POLYMER                       : Mud type
MUDS .            N/A                           : Mud sample source
MUDD .K/M3           1050.000                   : Mud density
MUDV .SEC/L            42.000                   : Mud viscosity
PH   .                  7.000                   : Mud pH
FL   .ML/30MIN          8.000                   : Mud fluid loss rate
RM   .OHMM              4.450                   : Mud resistivity
RMT  .DEGC              9.800                   : Mud sample temperature
RMF  .OHMM        -999999.000                   : Mud filtrate resistivity
RMFT .DEGC        -999999.000                   : Mud filtrate sample temperature
RMC  .OHMM        -999999.000                   : Mud cake resistivity
RMCT .DEGC        -999999.000                   : Mud cake sample temperature
RMBT .OHMM              4.650                   : Mud Resistivity at BHT
BHT  .DEGC              9.000                   : Bottom Hole Temperature
TMAX .DEGC              9.000                   : Max recorded temperature
#
~Other Information
---------------------------------------------------------------------------------------
1)  Run 1: MCB, SHA, MCG, MIM, MIE, MFE, MDM, MRD, MTD, HFS; Run in Combination
      Run 2: MCB, SHA, MCG, MTC, MGS, ISC, MDN, MPD, SKJ, MFE, MAI ; Run in Combination
2) Hardware: MDN: One Dual Neutron Bowspring
                         MAI: Two 12.7 mm standoffs with Bottom Hole Finder Assembly
                         MCG: One 6-leaf centralizer
                         MIE: Two 6-leaf centralizers
                         MSD: Two 6-leaf centralizers                            
3) Total Hole Volume from TD to Surface Casing = 2.7 CuM
4) Hole Volume calculated with Micro Imager calipers
5) Logging requested from KB @ 478.6 m.
6) Tool zero requested from KB. 
7) Magnetic Declanation: 13.39  EAST
8) Easting: 494056.00 ; Northing: 6313159.00
.
---------------------------------------------------------------------------------------
#
#          DEPT           GRGM           CGXT           IECX           IECY           IRBR           ITLT           IAP1           IAZT           DI26           DI48           BTM1           BTM3           BTM5           BTM7            BIT
#
~ASCII Log Data
# ...
           81.6      71.721916       7.577573     165.248077     163.242645     148.660400       0.703437     146.469299     191.770813     162.796539     164.290833       0.532874       1.525715       1.052641       0.538199     251.000000
           81.7      70.984528       7.554027     164.583725     163.237534     150.214478       0.700063     128.968048     172.715408     162.141724     163.723450       0.532874       1.525715       1.052641       0.538199     251.000000
           81.8      70.212906       7.487354     164.153564     163.263107     149.282135       0.696603     240.443024     285.122772     161.998474     163.436920       0.507479       1.514656       1.123909       0.537584     251.000000
           81.9      69.765610       7.568423     164.177475     163.227310     151.595383       0.688317     277.817047     320.183380     162.124268     163.012970       0.507479       1.514656       1.123909       0.537584     251.000000
           82.0      69.629875       7.551374     164.311295     163.273331     151.467804       0.689950     255.909607     298.403534     162.310852     162.226471       0.532874       1.525715       1.052641       0.538199     251.000000
           82.1      69.825195       7.523000     164.923065     163.467682     152.450134       0.680832      59.245266     100.756790     162.823822     163.257813       0.507479       1.514656       1.123909       0.537584     251.000000
           82.2      70.653717       7.528634     165.114258     164.060959     150.007996       0.688297     100.093956     144.047760     164.362701     162.980804       0.507479       1.514656       1.123909       0.537584     251.000000
           82.3      72.267624       7.577126     164.249161     165.339569     148.190567       0.699028      86.325424     132.096771     165.574738     164.100922       0.507479       1.514656       1.123909       0.537584     251.000000
           82.4      74.049026       7.571165     163.666061     165.421402     145.843002       0.709608      89.043159     137.162201     165.973816     164.637878       0.532874       1.525715       1.052641       0.538199     251.000000
           82.5      73.917282       7.557723     163.255020     165.385605     146.342529       0.711172      68.947212     116.566719     165.489685     164.817413       0.532874       1.525715       1.052641       0.538199     251.000000
           82.6      72.204758       7.518738     162.757950     165.380493     144.474045       0.702151     240.379700     289.867706     164.954163     164.859772       0.507479       1.514656       1.123909       0.537584     251.000000
           82.7      68.908379       7.544519     161.883301     165.477661     145.103485       0.691231     229.849579     278.708038     163.535736     163.878754       0.507479       1.514656       1.123909       0.537584     251.000000
           82.8      66.851875       7.603801     161.348007     165.462326     145.474731       0.673592     143.330719     191.817825     159.928040     162.564301       0.507479       1.514656       1.123909       0.537584     251.000000
           82.9      65.249786       7.578198     160.960861     165.436752     144.957230       0.678796     137.578751     186.583420     159.659637     163.476746       0.532874       1.525715       1.052641       0.538199     251.000000
           83.0      66.965553       7.546486     160.674088     165.303772     145.101364       0.651551     108.032867     156.893234     160.086731     162.645767       0.507479       1.514656       1.123909       0.537584     251.000000
           83.1      68.904640       7.576798     160.196136     165.170792     143.068680       0.634456      94.852577     145.745575     159.634827     162.143311       0.532874       1.525715       1.052641       0.538199     251.000000
           83.2      71.884964       7.538648     159.923706     165.227051     143.736694       0.652391      89.875427     140.100494     159.212067     161.825546       0.532874       1.525715       1.052641       0.538199     251.000000
           83.3      72.626717       7.570926     159.828110     165.145218     144.092087       0.623894      89.380898     139.250427     159.080688     161.785507       0.532874       1.525715       1.052641       0.538199     251.000000
           83.4      72.555466       7.608242     159.880692     165.165680     145.024719       0.604321      84.561211     133.497986     159.010437     161.807297       0.507479       1.514656       1.123909       0.537584     251.000000
           83.5      70.367119       7.555845     159.952377     165.196365     142.991562       0.605316     121.661324     172.631302     158.602386     161.814117       0.532874       1.525715       1.052641       0.538199     251.000000
           83.6      68.590744       7.605768     160.009735     165.165680     144.289352       0.608788     127.554024     177.226212     158.532440     161.876740       0.532874       1.525715       1.052641       0.538199     251.000000
           83.7      65.347160       7.584457     160.396881     165.165680     145.430832       0.605488     355.127991      43.658649     159.840332     161.872406       0.507479       1.514656       1.123909       0.537584     251.000000
           83.8      63.006214       7.551702     160.884384     165.175919     144.547211       0.612312     175.571228     224.985550     160.937805     162.363800       0.532874       1.525715       1.052641       0.538199     251.000000
           83.9      60.863327       7.611908     161.524841     165.155457     143.437836       0.620853     233.134293     283.658051     162.860611     163.017181       0.507479       1.514656       1.123909       0.537584     251.000000
           84.0      61.103043       7.634768     161.959778     165.170792     142.810532       0.608998     304.653442     355.804504     166.269135     163.259277       0.507479       1.514656       1.123909       0.537584     251.000000
           84.1      61.396263       7.577304     162.299118     165.191254     141.838608       0.646385     271.296783     323.419983     166.524902     163.055511       0.507479       1.514656       1.123909       0.537584     251.000000
           84.2      62.212692       7.556769     162.146179     165.186142     139.518509       0.656883     249.376694     303.820038     166.443405     162.103363       0.532874       1.525715       1.052641       0.538199     251.000000
           84.3      63.062119       7.585471     162.036255     165.186142     141.548431       0.652295     263.907562     316.320923     166.324249     161.413971       0.507479       1.514656       1.123909       0.537584     251.000000
           84.4      64.518669       7.572268     161.911987     165.186142     140.846054       0.617833     275.795563     328.911163     166.027603     161.013367       0.532874       1.525715       1.052641       0.538199     251.000000
           84.5      65.158447       7.591551     161.596527     165.298660     140.841476       0.632237     267.809967     320.930206     165.957550     160.469254       0.532874       1.525715       1.052641       0.538199     251.000000
           84.6      66.380310       7.650058     161.037338     165.375381     139.604263       0.658378      46.178616     100.536217     164.952850     160.119171       0.532874       1.525715       1.052641       0.538199     251.000000
           84.7      67.940842       7.590240     160.989532     165.354919     140.334717       0.610163      68.920868     122.547752     164.530823     159.816711       0.532874       1.525715       1.052641       0.538199     251.000000
           84.8      69.953735       7.561806     161.266754     165.339569     140.294617       0.627743      65.061134     118.728210     165.313354     159.568359       0.507479       1.514656       1.123909       0.537584     251.000000
           84.9      71.585136       7.583683     161.725586     165.426514     139.570129       0.618995      62.302792     116.694321     165.125305     159.384613       0.532874       1.525715       1.052641       0.538199     251.000000
