~Version Information
VERS .            2.00                          : CWLS Log ASCII Standard - Version 2.00
WRAP .            NO                            : One line per depth step
#
~Well Information
#MNEM.UNIT        DATA                          : DESCRIPTION
#----.----        ----                          : -----------
STRT .M            171.9                        : Start
STOP .M            232.6                        : Stop
STEP .M              0.1                        : Step increment
NULL .            -999.250                      : Null value
COMP .            SUNCOR ENERGY INC.            : Company
WELL .            SUNCOR LEWIS 3-8-92-7         : Well
FLD  .            LEWIS                         : Field
PROV .            ALBERTA                       : Province
CTRY .            Canada                        : State / Country
LOC  .                                          : Location
LOC2 .            03-08-092-07W4                : Location 2
SRVC .            Weatherford                   : Service company
UWI  .            1AA140509207W400              : Unique Well ID
LIC  .            0486895                       : Licence Number
DATE .            25-Jan-2018                   : Logging Date
#
~Curve Information
#MNEM.UNIT        API CODES                     : CURVE DESCRIPTION
#----.----        ---------                     : -----------------
DEPT .M           00 001 00 00                  : Logged depth
CGXT .DEGC        30 660 01 00                  : MCG External Temperature
GRGM .GAPI        30 310 01 00                  : MGS Gamma Ray
IECX .MM          45 000 00 00                  : MIE Caliper X
IECY .MM          45 000 00 00                  : MIE Caliper Y
IRBR .DEG         00 000 00 00                  : Relative Bearing
ITLT .DEG         00 000 00 00                  : Borehole Tilt
IAP1 .DEG         00 000 00 00                  : Azimuth of Reference
IAZT .DEG         00 000 00 00                  : Borehole Azimuth (True)
DI26 .MM          70 280 02 00                  : Imager Diameter 2 - 6
DI48 .MM          70 280 02 00                  : Imager Diameter 4 - 8
BTM1 .MA          45 000 00 00                  : Imager Pad 1 Md. Current
BTM3 .MA          45 000 00 00                  : Imager Pad 3 Md. Current
BTM5 .MA          45 000 00 00                  : Imager Pad 5 Md. Current
BTM7 .MA          45 000 00 00                  : Imager Pad 7 Md. Current
BIT  .MM          70 282 00 00                  : Bit size
#
~Parameter Information
#MNEM.UNIT        VALUE                         : DESCRIPTION
#----.----        -----                         : -----------
RNID .            MAIN PASS                     : Run ID
SON  .            8310-204072557                : Job Number
DREF .            KB                            : Depth reference
EREF .M               478.600                   : Elevation of depth reference
GL   .M               477.400                   : Ground elevation
DDRF .            KB @1.2m                      : Drilling Depth Reference
RUN  .                  1                       : Run number
TDD  .M               230.000                   : TD (driller)
TDL  .M               230.100                   : TD (logger)
BS   .MM              159.000                   : Bit size
TIMC .            09-Jan-18 13:45:00.000        : Time circulation ended
TIML .            09-Jan-18 18:45:00.000        : Time logger at bottom
UNIT .              14265                       : Equipment ID
BASE .            LLD                           : Equipment base location
ENG  .            ELLIOT KANE                   : Recording engineer
WIT  .            CLARK HUBER                   : Witnessed by
CSGT .            SURFACE                       : Casing type
CSGS .MM              177.800                   : Casing size
CSGW .KG/M             25.299                   : Casing weight
CSGD .M                88.300                   : Casing bottom (driller)
CSGL .M                88.300                   : Casing bottom (logger)
CSUP .M                 0.000                   : Casing Stick Up GL
MUD  .            POLYMER                       : Mud type
MUDS .            N/A                           : Mud sample source
MUDD .K/M3           1050.000                   : Mud density
MUDV .SEC/L            42.000                   : Mud viscosity
PH   .                  7.000                   : Mud pH
FL   .ML/30MIN          8.000                   : Mud fluid loss rate
RM   .OHMM              4.450                   : Mud resistivity
RMT  .DEGC              9.800                   : Mud sample temperature
RMF  .OHMM        -999999.000                   : Mud filtrate resistivity
RMFT .DEGC        -999999.000                   : Mud filtrate sample temperature
RMC  .OHMM        -999999.000                   : Mud cake resistivity
RMCT .DEGC        -999999.000                   : Mud cake sample temperature
RMBT .OHMM              4.650                   : Mud Resistivity at BHT
BHT  .DEGC              9.000                   : Bottom Hole Temperature
TMAX .DEGC              9.000                   : Max recorded temperature
#
~Other Information
---------------------------------------------------------------------------------------
1)  Run 1: MCB, SHA, MCG, MIM, MIE, MFE, MDM, MRD, MTD, HFS; Run in Combination
      Run 2: MCB, SHA, MCG, MTC, MGS, ISC, MDN, MPD, SKJ, MFE, MAI ; Run in Combination
2) Hardware: MDN: One Dual Neutron Bowspring
                         MAI: Two 12.7 mm standoffs with Bottom Hole Finder Assembly
                         MCG: One 6-leaf centralizer
                         MIE: Two 6-leaf centralizers
                         MSD: Two 6-leaf centralizers                            
3) Total Hole Volume from TD to Surface Casing = 2.2 CuM
4) Hole Volume calculated with Micro Imager calipers
5) Logging requested from KB @ 478.6 m.
6) Tool zero requested from KB. 
7) Magnetic Declanation: 13.39  EAST
8) Easting: 494056.00 ; Northing: 6313159.00
.
---------------------------------------------------------------------------------------
#
#          DEPT           CGXT           GRGM           IECX           IECY           IRBR           ITLT           IAP1           IAZT           DI26           DI48           BTM1           BTM3           BTM5           BTM7            BIT
#
~ASCII Log Data
# ...
          216.1       7.675749      85.253944     158.093155     160.992279      58.893669       0.385468      80.828781     216.569031     160.314560     158.141693       0.008720       0.011916       0.007155       0.004574     159.000000
          216.2       7.654529      87.334854     157.452698     160.941147      57.864162       0.387421      80.844734     217.649689     158.639374     158.179474       0.001857       0.019289       0.012896       0.012524     159.000000
          216.3       7.724599      93.017647     159.068176     160.445038      55.453247       0.385494      80.758789     220.038422     158.378510     160.049377       0.004496       0.009459       0.009321       0.014572     159.000000
          216.4       7.672203      99.671982     159.340607     160.189316      58.943291       0.360138      80.789032     216.433929     159.174973     158.684082       0.004622       0.009197       0.014028       0.010688     159.000000
          216.5       7.664513     107.673721     160.119659     162.102127      54.167568       0.355588      80.743126     221.281357     160.277130     161.383423       0.015360       0.013120       0.016083       0.014489     159.000000
          216.6       7.648895     116.654045     160.382538     162.112350      61.669266       0.332582      80.863670     213.666748     159.246826     160.977631       0.012259       0.018323       0.015180       0.016780     159.000000
          216.7       7.651280     126.481918     160.344299     162.102127      60.241127       0.351561      81.012024     215.316177     158.156311     161.077972       0.013638       0.018137       0.013708       0.017247     159.000000
          216.8    -999.250000     131.447952     160.439896     162.107239      60.880512       0.337405      81.030556     214.655243     156.858521     161.151611       0.014118       0.016908       0.016768       0.017555     159.000000
          216.9    -999.250000     132.198685     160.702774     162.112350      59.154770       0.331013      81.125534     216.512070     156.194992     161.281128       0.018227       0.017849       0.015724       0.019699     159.000000
          217.0    -999.250000     131.210449     160.731445     162.112350      60.745327       0.328841      81.122780     214.875580     155.502380     161.281769       0.019180       0.018111       0.015449       0.023468     159.000000
          217.1    -999.250000     131.510101     160.731445     162.102127      56.004807       0.323296      81.027283     219.624146     160.236771     161.213745       0.021817       0.021126       0.018707       0.025804     159.000000
          217.2    -999.250000     131.136169     160.736221     162.117462      60.456795       0.346599      80.821518     214.892059     161.702911     161.320160       0.024518       0.022067       0.019660       0.027058     159.000000
          217.3    -999.250000     131.599060     160.736221     161.877090      58.706112       0.342089      80.877884     216.738464     161.581543     161.286804       0.024582       0.028722       0.024255       0.029452     159.000000
          217.4    -999.250000     133.026093     160.726669     161.012741      53.329338       0.347058      80.863152     222.248245     161.443634     161.220001       0.028313       0.031346       0.025695       0.031180     159.000000
          217.5    -999.250000     132.789764     160.731445     160.521759      55.199024       0.300621      80.848785     220.220566     161.527283     161.355865       0.029618       0.030655       0.028582       0.029964     159.000000
          217.6    -999.250000     127.140404     160.717102     159.948929      54.790310       0.330161      80.860489     220.712692     161.511597     161.645477       0.031487       0.029260       0.027161       0.034201     159.000000
          217.7    -999.250000     118.384247     160.717102     159.948929      54.172001       0.332512      80.733383     221.221024     161.911102     161.657776       0.028799       0.033740       0.026854       0.034559     159.000000
          217.8    -999.250000     107.591331     161.037338     159.923370      46.193806       0.326475      81.012802     229.654877     162.064087     161.490112       0.029465       0.030386       0.025330       0.032140     159.000000
          217.9    -999.250000      97.103760     160.975204     161.401443      47.033707       0.327777      81.168678     228.960510     161.871948     160.547455       0.031193       0.033817       0.018547       0.030860     159.000000
          218.0    -999.250000      87.359970     160.511581     161.754333      54.812759       0.304213      81.210548     220.994705     161.320435     159.131836       0.036133       0.035301       0.020083       0.033164     159.000000
          218.1    -999.250000      79.586380     159.460098     157.903152      49.572830       0.285145      81.132935     226.222717     156.292740     157.964661       0.042239       0.032959       0.015212       0.034175     159.000000
          218.2    -999.250000      75.928139     158.652359     154.767990      45.923008       0.271127      80.953690     229.722382     154.672424     157.554138       0.002340       0.025586       0.009017       0.012006     159.000000
          218.3    -999.250000      73.353584     159.288025     152.302826      38.506607       0.224399      81.336967     237.505997     156.053787     157.745789       0.013715       0.017017       0.030207       0.006729     159.000000
          218.4    -999.250000      72.583519     159.221115     153.034195      43.485245       0.269272      81.447670     232.698700     157.051941     157.891418       0.009974       0.012886       0.007712       0.006937     159.000000
          218.5    -999.250000      70.883141     156.114441     153.555862      45.046917       0.280408      81.650154     231.347488     157.016006     157.509857       0.013248       0.027468       0.012972       0.008605     159.000000
          218.6    -999.250000      69.863510     156.195694     151.586792      51.733250       0.264966      82.160187     225.018326     155.585419     156.735291       0.083428       0.047346       0.021811       0.010844     159.000000
          218.7    -999.250000      66.818550     159.914154     149.402924      48.626320       0.224644      82.144554     228.061478     158.439011     155.264374       0.042495       0.023558       0.008125       0.082455     159.000000
          218.8    -999.250000      66.098244     159.899811     149.244370      46.045605       0.217220      81.799164     230.309647     158.889832     158.764008       0.045016       0.079306       0.039602       0.082455     159.000000
          218.9    -999.250000      66.815178     160.081436     155.013489      51.767628       0.226599      81.564217     224.285416     159.755905     158.701447       0.037989       0.044210       0.029196       0.035775     159.000000
          219.0    -999.250000      70.358063     160.803131     154.205399      60.017948       0.246597      81.412888     215.777649     159.834213     158.735489       0.073803       0.030079       0.017183       0.029414     159.000000
          219.1    -999.250000      72.888298     159.469650     158.010559      59.929459       0.263481      81.547195     216.034241     158.036163     158.227325       0.022175       0.065534       0.033689       0.030220     159.000000
          219.2    -999.250000      74.492592     159.288025     156.742172      61.201015       0.268807      81.797379     215.000122     157.580566     157.700714       0.010793       0.015622       0.025650       0.020019     159.000000
          219.3    -999.250000      74.678848     158.948685     156.481339      60.106518       0.319228      81.670639     216.075546     156.584869     157.089539       0.009171       0.038514       0.014355       0.020057     159.000000
          219.4    -999.250000      73.377419     158.972580     155.821564      57.289703       0.322608      81.585411     218.878464     156.526031     156.412628       0.022886       0.030233       0.008445       0.008086     159.000000
