~Version Information
VERS .            2.00                          : CWLS Log ASCII Standard - Version 2.00
WRAP .            NO                            : One line per depth step
#
~Well Information
#MNEM.UNIT        DATA                          : DESCRIPTION
#----.----        ----                          : -----------
STRT .M              0.0                        : Start
STOP .M            232.6                        : Stop
STEP .M              0.1                        : Step increment
NULL .            -999.250                      : Null value
COMP .            SUNCOR ENERGY INC.            : Company
WELL .            SUNCOR LEWIS 3-8-92-7         : Well
FLD  .            LEWIS                         : Field
PROV .            ALBERTA                       : Province
CTRY .            Canada                        : State / Country
LOC  .                                          : Location
LOC2 .            03-08-092-07W4                : Location 2
SRVC .            Weatherford                   : Service company
UWI  .            1AA030809207W400              : Unique Well ID
LIC  .            0486896                       : Licence Number
DATE .            25-Jan-2018                   : Logging Date
#
~Curve Information
#MNEM.UNIT        API CODES                     : CURVE DESCRIPTION
#----.----        ---------                     : -----------------
DEPT .M           00 001 00 00                  : Logged depth
GRGM .GAPI        30 310 01 00                  : MGS Gamma Ray
CGXT .DEGC        30 660 01 00                  : MCG External Temperature
IECX .MM          45 000 00 00                  : MIE Caliper X
IECY .MM          45 000 00 00                  : MIE Caliper Y
IRBR .DEG         00 000 00 00                  : Relative Bearing
ITLT .DEG         00 000 00 00                  : Borehole Tilt
IAP1 .DEG         00 000 00 00                  : Azimuth of Reference
IAZT .DEG         00 000 00 00                  : Borehole Azimuth (True)
DI26 .MM          70 280 02 00                  : Imager Diameter 2 - 6
DI48 .MM          70 280 02 00                  : Imager Diameter 4 - 8
BTM1 .MA          45 000 00 00                  : Imager Pad 1 Md. Current
BTM3 .MA          45 000 00 00                  : Imager Pad 3 Md. Current
BTM5 .MA          45 000 00 00                  : Imager Pad 5 Md. Current
BTM7 .MA          45 000 00 00                  : Imager Pad 7 Md. Current
BIT  .MM          70 282 00 00                  : Bit size
#
~Parameter Information
#MNEM.UNIT        VALUE                         : DESCRIPTION
#----.----        -----                         : -----------
RNID .            MAIN PASS                     : Run ID
SON  .            8310-204072557                : Job Number
DREF .            KB                            : Depth reference
EREF .M               478.600                   : Elevation of depth reference
GL   .M               477.400                   : Ground elevation
DDRF .            KB @1.2m                      : Drilling Depth Reference
RUN  .                  1                       : Run number
TDD  .M               230.000                   : TD (driller)
TDL  .M               230.100                   : TD (logger)
BS   .MM              159.000                   : Bit size
TIMC .            09-Jan-18 13:45:00.000        : Time circulation ended
TIML .            09-Jan-18 18:45:00.000        : Time logger at bottom
UNIT .              14265                       : Equipment ID
BASE .            LLD                           : Equipment base location
ENG  .            ELLIOT KANE                   : Recording engineer
WIT  .            CLARK HUBER                   : Witnessed by
CSGT .            SURFACE                       : Casing type
CSGS .MM              177.800                   : Casing size
CSGW .KG/M             25.299                   : Casing weight
CSGD .M                88.300                   : Casing bottom (driller)
CSGL .M                88.300                   : Casing bottom (logger)
CSUP .M                 0.000                   : Casing Stick Up GL
MUD  .            POLYMER                       : Mud type
MUDS .            N/A                           : Mud sample source
MUDD .K/M3           1050.000                   : Mud density
MUDV .SEC/L            42.000                   : Mud viscosity
PH   .                  7.000                   : Mud pH
FL   .ML/30MIN          8.000                   : Mud fluid loss rate
RM   .OHMM              4.450                   : Mud resistivity
RMT  .DEGC              9.800                   : Mud sample temperature
RMF  .OHMM        -999999.000                   : Mud filtrate resistivity
RMFT .DEGC        -999999.000                   : Mud filtrate sample temperature
RMC  .OHMM        -999999.000                   : Mud cake resistivity
RMCT .DEGC        -999999.000                   : Mud cake sample temperature
RMBT .OHMM              4.650                   : Mud Resistivity at BHT
BHT  .DEGC              9.000                   : Bottom Hole Temperature
TMAX .DEGC              9.000                   : Max recorded temperature
#
~Other Information
---------------------------------------------------------------------------------------
1)  Run 1: MCB, SHA, MCG, MIM, MIE, MFE, MDM, MRD, MTD, HFS; Run in Combination
      Run 2: MCB, SHA, MCG, MTC, MGS, ISC, MDN, MPD, SKJ, MFE, MAI ; Run in Combination
2) Hardware: MDN: One Dual Neutron Bowspring
                         MAI: Two 12.7 mm standoffs with Bottom Hole Finder Assembly
                         MCG: One 6-leaf centralizer
                         MIE: Two 6-leaf centralizers
                         MSD: Two 6-leaf centralizers                            
3) Total Hole Volume from TD to Surface Casing = 2.7 CuM
4) Hole Volume calculated with Micro Imager calipers
5) Logging requested from KB @ 478.6 m.
6) Tool zero requested from KB. 
7) Magnetic Declanation: 13.39  EAST
8) Easting: 494056.00 ; Northing: 6313159.00
.
---------------------------------------------------------------------------------------
#
#          DEPT           GRGM           CGXT           IECX           IECY           IRBR           ITLT           IAP1           IAZT           DI26           DI48           BTM1           BTM3           BTM5           BTM7            BIT
#
~ASCII Log Data
# ...
          102.0      86.640053       7.798664     157.443146     161.345184     126.181679       0.270152      73.616982     140.394913     161.795242     164.566345       0.051173       0.054629       0.049509       0.044799     159.000000
          102.1      89.159996       7.825041     159.493546     160.046112     140.059357       0.312297      74.591530     127.171249     160.823334     162.229034       0.041394       0.049791       0.057266       0.045938     159.000000
          102.2      89.860497       7.840331     160.831818     159.207336     141.627182       0.382577      74.702827     125.397095     160.542358     159.363617       0.040447       0.049419       0.049919       0.038232     159.000000
          102.3      91.123657       7.815802     162.380371     158.880020     142.646164       0.425106      75.096184     124.583199     161.015869     156.705307       0.043480       0.056702       0.044312       0.040408     159.000000
          102.4      91.155502       7.843878     161.496170     158.864670     140.107437       0.497573      75.636185     127.398468     159.103546     157.453674       0.030553       0.051762       0.043724       0.042610     159.000000
          102.5      91.477104       7.809066     161.242844     158.619171     140.453934       0.549488      73.400330     126.907692     159.162582     156.883667       0.024742       0.027314       0.028594       0.040818     159.000000
          102.6      90.886932       7.797204     159.727753     160.675186     139.138824       0.582920      72.950706     127.773346     158.952850     156.948364       0.041394       0.045784       0.050751       0.039986     159.000000
          102.7      90.920952       7.819229     159.603485     163.217072     135.328049       0.624064      72.936104     131.569748     159.764130     160.678650       0.054629       0.053221       0.055730       0.050712     159.000000
          102.8      90.635323       7.820242     162.026688     163.815460     132.579422       0.651112      72.440941     133.823364     161.142807     163.895050       0.055218       0.088983       0.090135       0.073265     159.000000
          102.9      89.771904       7.821047     164.932632     163.759201     130.591202       0.631850      72.545525     135.916046     160.409149     162.841995       0.058085       0.080894       0.102935       0.079281     159.000000
          103.0      89.518311       7.847871     165.745148     162.281128     126.919769       0.628929      72.606438     139.648331     160.967865     161.251572       0.073572       0.099197       0.079998       0.055346     159.000000
          103.1      88.690910       7.854995     165.530075     163.457458     124.618294       0.622961      72.576492     141.919785     162.587845     163.911011       0.051442       0.083454       0.072267       0.060593     159.000000
          103.2      88.704926       7.860598     163.775986     167.047806     124.846214       0.591491      72.475700     141.590927     162.068298     164.962677       0.084836       0.101936       0.096560       0.096919     159.000000
          103.3      88.247017       7.864562     164.349533     165.994232     124.969894       0.574126      72.958878     141.950333     164.129700     164.736023       0.101655       0.096893       0.096842       0.109718     159.000000
          103.4      89.005363       7.801287     164.755783     165.283310     126.422951       0.514127      73.373207     140.911362     164.972809     163.663940       0.086346       0.092183       0.094871       0.104061     159.000000
          103.5      90.632896       7.809602     163.575256     165.273087     129.129517       0.470303      75.122726     138.181259     165.222076     162.010117       0.078001       0.092746       0.088420       0.085757     159.000000
          103.6      92.567284       7.833923     162.863098     165.283310     136.719406       0.469645      75.172493     130.494171     164.881607     163.612183       0.077028       0.097661       0.094052       0.054654     159.000000
          103.7      95.862480       7.809989     161.257187     165.140106     143.546188       0.477439      75.277077     123.632980     164.258026     164.873260       0.077361       0.097098       0.091543       0.105520     159.000000
          103.8      98.387772       7.879822     162.045807     164.705383     149.881378       0.506946      73.157539     117.237137     162.392731     164.114563       0.062718       0.082481       0.081994       0.082532     159.000000
          103.9      99.417000       7.863310     162.939575     163.748978     149.839249       0.542346      73.306435     117.428299     161.419037     163.620758       0.109462       0.120624       0.115094       0.125129     159.000000
          104.0      96.959824       7.868288     164.167908     163.165924     151.367661       0.559024      73.255295     115.848778     162.470367     161.150238       0.047461       0.069118       0.068094       0.064280     159.000000
          104.1      95.086281       7.821673     164.115341     163.140350     150.473206       0.572756      73.421494     116.909515     164.024628     162.161423       0.033753       0.040767       0.038040       0.064126     159.000000
          104.2      93.508591       7.800780     165.243301     163.887070     148.015930       0.569160      73.393303     119.338646     165.951233     163.703308       0.081098       0.063768       0.072190       0.091748     159.000000
          104.3      93.401100       7.882266     166.113174     163.887070     146.115677       0.569351      73.315384     121.161018     166.445313     164.773376       0.071601       0.073444       0.066532       0.076951     159.000000
          104.4      93.591042       7.884293     166.863556     163.876846     144.529541       0.560736      73.572090     123.003845     165.279572     164.583389       0.079716       0.057752       0.086909       0.087242     159.000000
          104.5      94.500877       7.847544     167.312820     163.805237     141.222443       0.541126      73.988487     126.727295     164.765518     164.738464       0.061873       0.075006       0.100477       0.065483     159.000000
          104.6      95.051727       7.792644     166.815750     163.186386     139.469025       0.506278      74.242256     128.734329     161.457108     163.805145       0.089623       0.087805       0.067300       0.064894     159.000000
          104.7      93.960167       7.852670     163.675613     163.181274     138.853333       0.503326      74.280594     129.388351     161.008911     161.791183       0.070654       0.066609       0.075927       0.088599     159.000000
          104.8      93.220634       7.844057     164.492920     164.838364     137.869949       0.475859      76.360703     130.501740     164.966278     162.948776       0.075262       0.084145       0.062769       0.059697     159.000000
          104.9      91.765717       7.838394     170.328690     164.874161     137.763077       0.444951      76.283409     130.662659     166.568817     168.108932       0.085527       0.083249       0.077617       0.081790     159.000000
          105.0      90.663170       7.912130     170.591568     163.764328     140.328583       0.433298      76.554604     128.378052     168.856750     167.441772       0.076798       0.080766       0.072420       0.082686     159.000000
          105.1      89.068161       7.875709     167.996292     162.782349     143.948532       0.383571      76.434837     124.797127     164.528641     161.226990       0.058801       0.073982       0.070475       0.063614     159.000000
          105.2      87.938820       7.883250     163.881134     162.766998     144.874619       0.362759      76.478218     123.992958     161.337418     160.394608       0.065201       0.065534       0.074187       0.094256     159.000000
          105.3      86.273415       7.861969     164.067535     162.777237     147.312210       0.306522      76.571304     121.871452     162.860352     163.218155       0.067940       0.045247       0.060337       0.060107     159.000000
