~Version Information
VERS .            2.00                          : CWLS Log ASCII Standard - Version 2.00
WRAP .            NO                            : One line per depth step
#
~Well Information
#MNEM.UNIT        DATA                          : DESCRIPTION
#----.----        ----                          : -----------
STRT .M              0.0                        : Start
STOP .M            232.6                        : Stop
STEP .M              0.1                        : Step increment
NULL .            -999.250                      : Null value
COMP .            SUNCOR ENERGY INC.            : Company
WELL .            SUNCOR LEWIS 3-8-92-7         : Well
FLD  .            LEWIS                         : Field
PROV .            ALBERTA                       : Province
CTRY .            Canada                        : State / Country
LOC  .                                          : Location
LOC2 .            03-08-092-07W4                : Location 2
SRVC .            Weatherford                   : Service company
UWI  .            1AA030809207W400              : Unique Well ID
LIC  .            0486896                       : Licence Number
DATE .            25-Jan-2018                   : Logging Date
#
~Curve Information
#MNEM.UNIT        API CODES                     : CURVE DESCRIPTION
#----.----        ---------                     : -----------------
DEPT .M           00 001 00 00                  : Logged depth
GRGM .GAPI        30 310 01 00                  : MGS Gamma Ray
CGXT .DEGC        30 660 01 00                  : MCG External Temperature
IECX .MM          45 000 00 00                  : MIE Caliper X
IECY .MM          45 000 00 00                  : MIE Caliper Y
IRBR .DEG         00 000 00 00                  : Relative Bearing
ITLT .DEG         00 000 00 00                  : Borehole Tilt
IAP1 .DEG         00 000 00 00                  : Azimuth of Reference
IAZT .DEG         00 000 00 00                  : Borehole Azimuth (True)
DI26 .MM          70 280 02 00                  : Imager Diameter 2 - 6
DI48 .MM          70 280 02 00                  : Imager Diameter 4 - 8
BTM1 .MA          45 000 00 00                  : Imager Pad 1 Md. Current
BTM3 .MA          45 000 00 00                  : Imager Pad 3 Md. Current
BTM5 .MA          45 000 00 00                  : Imager Pad 5 Md. Current
BTM7 .MA          45 000 00 00                  : Imager Pad 7 Md. Current
BIT  .MM          70 282 00 00                  : Bit size
#
~Parameter Information
#MNEM.UNIT        VALUE                         : DESCRIPTION
#----.----        -----                         : -----------
RNID .            MAIN PASS                     : Run ID
SON  .            8310-204072557                : Job Number
DREF .            KB                            : Depth reference
EREF .M               478.600                   : Elevation of depth reference
GL   .M               477.400                   : Ground elevation
DDRF .            KB @1.2m                      : Drilling Depth Reference
RUN  .                  1                       : Run number
TDD  .M               230.000                   : TD (driller)
TDL  .M               230.100                   : TD (logger)
BS   .MM              159.000                   : Bit size
TIMC .            09-Jan-18 13:45:00.000        : Time circulation ended
TIML .            09-Jan-18 18:45:00.000        : Time logger at bottom
UNIT .              14265                       : Equipment ID
BASE .            LLD                           : Equipment base location
ENG  .            ELLIOT KANE                   : Recording engineer
WIT  .            CLARK HUBER                   : Witnessed by
CSGT .            SURFACE                       : Casing type
CSGS .MM              177.800                   : Casing size
CSGW .KG/M             25.299                   : Casing weight
CSGD .M                88.300                   : Casing bottom (driller)
CSGL .M                88.300                   : Casing bottom (logger)
CSUP .M                 0.000                   : Casing Stick Up GL
MUD  .            POLYMER                       : Mud type
MUDS .            N/A                           : Mud sample source
MUDD .K/M3           1050.000                   : Mud density
MUDV .SEC/L            42.000                   : Mud viscosity
PH   .                  7.000                   : Mud pH
FL   .ML/30MIN          8.000                   : Mud fluid loss rate
RM   .OHMM              4.450                   : Mud resistivity
RMT  .DEGC              9.800                   : Mud sample temperature
RMF  .OHMM        -999999.000                   : Mud filtrate resistivity
RMFT .DEGC        -999999.000                   : Mud filtrate sample temperature
RMC  .OHMM        -999999.000                   : Mud cake resistivity
RMCT .DEGC        -999999.000                   : Mud cake sample temperature
RMBT .OHMM              4.650                   : Mud Resistivity at BHT
BHT  .DEGC              9.000                   : Bottom Hole Temperature
TMAX .DEGC              9.000                   : Max recorded temperature
#
~Other Information
---------------------------------------------------------------------------------------
1)  Run 1: MCB, SHA, MCG, MIM, MIE, MFE, MDM, MRD, MTD, HFS; Run in Combination
      Run 2: MCB, SHA, MCG, MTC, MGS, ISC, MDN, MPD, SKJ, MFE, MAI ; Run in Combination
2) Hardware: MDN: One Dual Neutron Bowspring
                         MAI: Two 12.7 mm standoffs with Bottom Hole Finder Assembly
                         MCG: One 6-leaf centralizer
                         MIE: Two 6-leaf centralizers
                         MSD: Two 6-leaf centralizers                            
3) Total Hole Volume from TD to Surface Casing = 2.7 CuM
4) Hole Volume calculated with Micro Imager calipers
5) Logging requested from KB @ 478.6 m.
6) Tool zero requested from KB. 
7) Magnetic Declanation: 13.39  EAST
8) Easting: 494056.00 ; Northing: 6313159.00
.
---------------------------------------------------------------------------------------
#
#          DEPT           GRGM           CGXT           IECX           IECY           IRBR           ITLT           IAP1           IAZT           DI26           DI48           BTM1           BTM3           BTM5           BTM7            BIT
#
~ASCII Log Data
# ...
          217.6     130.981766    -999.250000     161.610870     159.769928      58.695736       0.331881      82.845032     218.746368     162.432800     161.838928       0.030796       0.035916       0.029695       0.032281     159.000000
          217.7     126.510773    -999.250000     161.835510     159.754593      56.846558       0.328634      83.071838     220.866211     162.792068     161.842392       0.029823       0.033253       0.028646       0.032626     159.000000
          217.8     119.747780    -999.250000     161.907196     160.572906      49.214420       0.325557      83.282516     228.883804     162.724121     161.634949       0.030860       0.032677       0.025714       0.030949     159.000000
          217.9     110.047928    -999.250000     161.453156     162.189072      52.407688       0.299671      83.306648     225.579971     162.155228     160.507690       0.033407       0.034585       0.002522       0.030258     159.000000
          218.0     100.149467    -999.250000     161.252411     159.509094      55.863380       0.290841      83.230644     221.954575     161.208923     158.805984       0.037068       0.037273       0.002900       0.027698     159.000000
          218.1      89.759079    -999.250000     159.589142     155.345917      51.735199       0.275531      83.123314     226.020660     157.090149     157.904846       0.041855       0.047807       0.015206       0.012374     159.000000
          218.2      81.317612    -999.250000     159.742081     153.709305      45.229717       0.254076      83.018562     232.477341     156.645935     158.264923       0.022188       0.020524       0.013056       0.009094     159.000000
          218.3      76.132607    -999.250000     159.765976     153.044418      44.351009       0.245932      83.020561     233.347855     158.061188     158.354980       0.009200       0.016294       0.060414       0.068708     159.000000
          218.4      73.874184    -999.250000     158.915237     151.939697      47.625195       0.282379      83.299385     230.405289     158.114090     157.719803       0.016652       0.016371       0.007753       0.006864     159.000000
          218.5      73.150597    -999.250000     157.596085     152.353973      42.962952       0.252809      83.499557     235.263321     157.013977     157.800568       0.011664       0.024895       0.012323       0.008982     159.000000
          218.6      72.872124    -999.250000     157.180267     152.706863      43.595169       0.257802      83.588646     234.728424     158.957184     155.767517       0.053246       0.032498       0.011984       0.030719     159.000000
          218.7      72.386330    -999.250000     160.645416     151.729996      47.105011       0.227248      83.292656     230.773666     159.013229     157.585907       0.038130       0.012915       0.014534       0.016230     159.000000
          218.8      71.882759    -999.250000     160.688431     154.496918      49.473831       0.220296      82.931969     227.984863     160.441406     159.476196       0.037528       0.044120       0.034636       0.037836     159.000000
          218.9      71.548378    -999.250000     160.989532     155.054398      52.258484       0.236576      82.756081     225.017395     160.420502     159.188995       0.038220       0.038796       0.013843       0.072471     159.000000
          219.0    -999.250000    -999.250000     161.362335     154.118454      58.128876       0.252687      82.701950     219.023743     159.518097     158.373444       0.030860       0.037337       0.011392       0.029734     159.000000
          219.1    -999.250000    -999.250000     160.081436     157.540024      62.515179       0.264398      82.862556     214.736938     158.503571     158.512054       0.012176       0.062872       0.012009       0.048114     159.000000
          219.2    -999.250000    -999.250000     159.622604     156.757507      60.757805       0.306009      82.983109     216.726456     157.628647     157.864777       0.016448       0.020319       0.058315       0.038412     159.000000
          219.3    -999.250000    -999.250000     159.536560     156.404617      61.905888       0.332501      82.881836     215.493393     157.148346     157.190735       0.043583       0.044031       0.008477       0.012332     159.000000
          219.4    -999.250000    -999.250000     159.388397     154.824249      59.746788       0.335682      82.942368     217.774750     157.925446     157.259842       0.012704       0.118934       0.009104       0.022937     159.000000
          219.5    -999.250000    -999.250000     159.321487     155.172028      58.540848       0.349747      83.110626     219.210648     157.419662     157.690140       0.015436       0.016524       0.025554       0.014848     159.000000
          219.6    -999.250000    -999.250000     157.285416     154.062195      61.483860       0.367341      82.861877     215.965134     158.585693     156.609772       0.013369       0.000641       0.014476       0.006918     159.000000
          219.7    -999.250000    -999.250000     157.294983     153.525177      58.911201       0.383853      82.410858     218.176056     157.527771     157.271286       0.019097       0.019379       0.014003       0.015731     159.000000
          219.8    -999.250000    -999.250000     157.180267     153.243881      59.147705       0.377447      82.319191     217.826111     156.891342     157.267273       0.020198       0.014355       0.013065       0.014041     159.000000
          219.9    -999.250000    -999.250000     157.084671     153.018845      59.599632       0.396597      82.360542     217.439316     156.674622     157.063538       0.021523       0.011427       0.014496       0.016390     159.000000
          220.0    -999.250000    -999.250000     157.032104     152.962585      58.916019       0.383543      82.368912     218.126877     156.433685     156.846848       0.021689       0.011574       0.014598       0.016480     159.000000
          220.1    -999.250000    -999.250000     157.041656     152.967697      58.395061       0.398676      82.357285     218.679718     156.361618     156.791885       0.021663       0.011561       0.014604       0.016448     159.000000
          220.2    -999.250000    -999.250000     157.027328     152.952362      57.112366       0.394865      82.371925     220.007233     156.358551     156.785400       0.021657       0.011558       0.014592       0.016915     159.000000
          220.3    -999.250000    -999.250000     157.022552     152.937012      58.798401       0.387227      82.352890     218.237473     156.358887     156.780029       0.021612       0.011564       0.014566       0.016876     159.000000
          220.4    -999.250000    -999.250000     157.027328     152.957474      58.391705       0.398666      82.352661     218.678574     156.340759     156.779816       0.021651       0.011600       0.014592       0.016473     159.000000
          220.5    -999.250000    -999.250000     157.017761     152.952362      58.706497       0.389286      82.360168     218.342407     156.340866     156.773987       0.021657       0.011609       0.014604       0.016460     159.000000
          220.6    -999.250000    -999.250000     157.008209     152.931900      58.475018       0.395865      82.385300     218.618393     156.340866     156.770966       0.021644       0.011625       0.014592       0.016454     159.000000
          220.7    -999.250000    -999.250000     157.003433     152.921677      58.843090       0.385438      82.344612     218.176453     156.334869     156.759125       0.021587       0.011596       0.014585       0.016441     159.000000
          220.8    -999.250000    -999.250000     156.989090     152.901215      58.343960       0.399503      82.393608     218.766479     156.334961     156.750275       0.021625       0.011625       0.014560       0.016864     159.000000
          220.9    -999.250000    -999.250000     156.955627     152.875641      58.672165       0.390183      82.388367     218.403961     156.322845     156.730011       0.021555       0.011603       0.014528       0.016819     159.000000
