~Version Information
VERS .            2.00                          : CWLS Log ASCII Standard - Version 2.00
WRAP .            NO                            : One line per depth step
#
~Well Information
#MNEM.UNIT        DATA                          : DESCRIPTION
#----.----        ----                          : -----------
STRT .M            171.9                        : Start
STOP .M            232.6                        : Stop
STEP .M              0.1                        : Step increment
NULL .            -999.250                      : Null value
COMP .            SUNCOR ENERGY INC.            : Company
WELL .            SUNCOR LEWIS 3-8-92-7         : Well
FLD  .            LEWIS                         : Field
PROV .            ALBERTA                       : Province
CTRY .            Canada                        : State / Country
LOC  .                                          : Location
LOC2 .            03-08-092-07W4                : Location 2
SRVC .            Weatherford                   : Service company
UWI  .            1AA140509207W400              : Unique Well ID
LIC  .            0486895                       : Licence Number
DATE .            25-Jan-2018                   : Logging Date
#
~Curve Information
#MNEM.UNIT        API CODES                     : CURVE DESCRIPTION
#----.----        ---------                     : -----------------
DEPT .M           00 001 00 00                  : Logged depth
CGXT .DEGC        30 660 01 00                  : MCG External Temperature
GRGM .GAPI        30 310 01 00                  : MGS Gamma Ray
IECX .MM          45 000 00 00                  : MIE Caliper X
IECY .MM          45 000 00 00                  : MIE Caliper Y
IRBR .DEG         00 000 00 00                  : Relative Bearing
ITLT .DEG         00 000 00 00                  : Borehole Tilt
IAP1 .DEG         00 000 00 00                  : Azimuth of Reference
IAZT .DEG         00 000 00 00                  : Borehole Azimuth (True)
DI26 .MM          70 280 02 00                  : Imager Diameter 2 - 6
DI48 .MM          70 280 02 00                  : Imager Diameter 4 - 8
BTM1 .MA          45 000 00 00                  : Imager Pad 1 Md. Current
BTM3 .MA          45 000 00 00                  : Imager Pad 3 Md. Current
BTM5 .MA          45 000 00 00                  : Imager Pad 5 Md. Current
BTM7 .MA          45 000 00 00                  : Imager Pad 7 Md. Current
BIT  .MM          70 282 00 00                  : Bit size
#
~Parameter Information
#MNEM.UNIT        VALUE                         : DESCRIPTION
#----.----        -----                         : -----------
RNID .            MAIN PASS                     : Run ID
SON  .            8310-204072557                : Job Number
DREF .            KB                            : Depth reference
EREF .M               478.600                   : Elevation of depth reference
GL   .M               477.400                   : Ground elevation
DDRF .            KB @1.2m                      : Drilling Depth Reference
RUN  .                  1                       : Run number
TDD  .M               230.000                   : TD (driller)
TDL  .M               230.100                   : TD (logger)
BS   .MM              159.000                   : Bit size
TIMC .            09-Jan-18 13:45:00.000        : Time circulation ended
TIML .            09-Jan-18 18:45:00.000        : Time logger at bottom
UNIT .              14265                       : Equipment ID
BASE .            LLD                           : Equipment base location
ENG  .            ELLIOT KANE                   : Recording engineer
WIT  .            CLARK HUBER                   : Witnessed by
CSGT .            SURFACE                       : Casing type
CSGS .MM              177.800                   : Casing size
CSGW .KG/M             25.299                   : Casing weight
CSGD .M                88.300                   : Casing bottom (driller)
CSGL .M                88.300                   : Casing bottom (logger)
CSUP .M                 0.000                   : Casing Stick Up GL
MUD  .            POLYMER                       : Mud type
MUDS .            N/A                           : Mud sample source
MUDD .K/M3           1050.000                   : Mud density
MUDV .SEC/L            42.000                   : Mud viscosity
PH   .                  7.000                   : Mud pH
FL   .ML/30MIN          8.000                   : Mud fluid loss rate
RM   .OHMM              4.450                   : Mud resistivity
RMT  .DEGC              9.800                   : Mud sample temperature
RMF  .OHMM        -999999.000                   : Mud filtrate resistivity
RMFT .DEGC        -999999.000                   : Mud filtrate sample temperature
RMC  .OHMM        -999999.000                   : Mud cake resistivity
RMCT .DEGC        -999999.000                   : Mud cake sample temperature
RMBT .OHMM              4.650                   : Mud Resistivity at BHT
BHT  .DEGC              9.000                   : Bottom Hole Temperature
TMAX .DEGC              9.000                   : Max recorded temperature
#
~Other Information
---------------------------------------------------------------------------------------
1)  Run 1: MCB, SHA, MCG, MIM, MIE, MFE, MDM, MRD, MTD, HFS; Run in Combination
      Run 2: MCB, SHA, MCG, MTC, MGS, ISC, MDN, MPD, SKJ, MFE, MAI ; Run in Combination
2) Hardware: MDN: One Dual Neutron Bowspring
                         MAI: Two 12.7 mm standoffs with Bottom Hole Finder Assembly
                         MCG: One 6-leaf centralizer
                         MIE: Two 6-leaf centralizers
                         MSD: Two 6-leaf centralizers                            
3) Total Hole Volume from TD to Surface Casing = 2.2 CuM
4) Hole Volume calculated with Micro Imager calipers
5) Logging requested from KB @ 478.6 m.
6) Tool zero requested from KB. 
7) Magnetic Declanation: 13.39  EAST
8) Easting: 494056.00 ; Northing: 6313159.00
.
---------------------------------------------------------------------------------------
#
#          DEPT           CGXT           GRGM           IECX           IECY           IRBR           ITLT           IAP1           IAZT           DI26           DI48           BTM1           BTM3           BTM5           BTM7            BIT
#
~ASCII Log Data
# ...
          209.3       7.858124      23.025217     160.344299     155.417526      67.318298       0.376393      79.548569     206.563751     152.655090     159.754669       0.006937       0.002042       0.000836       0.000982     159.000000
          209.4       7.809483      22.073381     161.348007     159.340317      71.163673       0.393228      78.914291     201.958801     162.155731     163.167816       0.000858       0.000587       0.000297       0.000559     159.000000
          209.5       7.790020      21.180891     163.264587     164.168365      73.464272       0.406447      77.987289     198.633026     163.373474     163.165771       0.000623       0.000379       0.000796       0.000524     159.000000
          209.6       7.779231      21.034777     163.255020     163.201736      75.490715       0.393607      77.872093     196.417923     162.056732     162.416748       0.000618       0.000354       0.000353       0.000422     159.000000
          209.7       7.859644      21.653318     163.278915     160.879761      71.007736       0.387473      78.248428     201.429321     161.275711     160.639008       0.000590       0.000298       0.000397       0.000717     159.000000
          209.8       7.868258      22.756441     160.468567     160.603592      79.256203       0.397147      78.564034     193.245346     161.556168     157.293488       0.000346       0.000353       0.000603       0.001062     159.000000
          209.9       7.800571      23.867224     159.804214     160.352982      77.782181       0.398646      78.916351     195.131149     161.023285     156.621216       0.000663       0.000689       0.000760       0.001414     159.000000
          210.0       7.834102      24.951674     160.143570     159.815964      74.024643       0.373789      78.896667     198.980545     161.495667     160.029282       0.000872       0.000885       0.000718       0.000671     159.000000
          210.1       7.747936      26.166862     162.112717     160.930908      77.438324       0.399516      78.611420     195.171417     161.722168     161.278351       0.000899       0.000595       0.000507       0.000678     159.000000
          210.2       7.778427      27.318020     161.233292     160.900223      77.199509       0.395266      78.665421     195.473267     160.904770     160.920258       0.000538       0.000587       0.000863       0.000655     159.000000
          210.3       7.806800      29.616468     161.218948     160.061447      72.604050       0.428505      78.759590     200.330872     160.223236     159.910065       0.000872       0.000771       0.000772       0.000956     159.000000
          210.4       7.790795      32.383533     159.895035     158.123077      74.751373       0.448329      78.965103     198.328156     157.920959     153.322250       0.000629       0.000541       0.000486       0.000798     159.000000
          210.5       7.746237      34.962566     158.757507     156.292099      73.092674       0.478943      79.222908     200.329956     156.538483     156.070679       0.001197       0.001762       0.008585       0.007715     159.000000
          210.6       7.756669      35.501228     159.431412     159.094818      70.990379       0.492986      79.322487     202.626770     157.763214     157.375778       0.011084       0.014617       0.011462       0.008291     159.000000
          210.7       7.745641      35.108986     162.079269     160.659851      71.497444       0.501992      79.376083     201.837967     164.651031     164.744080       0.000898       0.001270       0.000886       0.000698     159.000000
          210.8       7.757295      33.281574     164.325638     164.894623      69.963913       0.512229      79.855919     203.851273     163.743271     164.880341       0.000491       0.000494       0.000702       0.000507     159.000000
          210.9       7.801734      31.300854     163.102081     162.700516      66.276070       0.492212      79.776459     207.998566     162.350586     162.971176       0.001269       0.001104       0.000585       0.000743     159.000000
          211.0       7.777473      29.688917     162.356476     161.657166      70.553581       0.505247      80.239784     203.645508     162.142578     161.877396       0.001354       0.001359       0.000627       0.000630     159.000000
          211.1       7.748741      29.050055     162.361252     160.859314      69.177444       0.552369      80.621399     205.403076     162.544891     161.554642       0.001312       0.001691       0.001134       0.001106     159.000000
          211.2       7.849988      28.653980     160.764893     158.215134      69.156418       0.514486      80.698814     205.501633     157.329102     157.400391       0.001294       0.002493       0.000851       0.001092     159.000000
          211.3       7.791987      27.150028     160.740997     158.256058      69.592171       0.523942      80.496216     204.863266     157.107117     157.648132       0.009491       0.011776       0.009737       0.007424     159.000000
          211.4       7.754612      25.266968     162.442505     160.685425      72.637207       0.528625      80.593407     201.915497     158.102783     163.066956       0.000534       0.000752       0.001624       0.001019     159.000000
          211.5       7.713274      23.067822     164.239609     164.920197      66.901848       0.519439      81.232758     208.290070     166.853455     164.121857       0.000460       0.000669       0.000612       0.000751     159.000000
          211.6       7.758219      21.557102     165.788162     166.521011      67.856682       0.563030      81.100204     207.202560     168.003357     165.036438       0.000460       0.000668       0.000214       0.000434     159.000000
          211.7       7.791421      20.885345     166.055817     165.789642      66.388687       0.548703      81.006714     208.577057     166.077972     165.093872       0.000521       0.000466       0.000261       0.000395     159.000000
          211.8       7.781407      22.237343     165.482269     165.329346      67.388733       0.541052      81.014061     207.584412     165.815582     162.199356       0.000418       0.000541       0.000501       0.000429     159.000000
          211.9       7.769515      24.919653     164.526367     163.355164      67.018318       0.504960      80.788284     207.729172     163.211700     160.701782       0.000209       0.000241       0.000174       0.000252     159.000000
          212.0       7.767190      27.531921     163.666061     162.695404      66.219292       0.511181      80.937950     208.677826     163.211731     160.947876       0.000282       0.000370       0.000695       0.000391     159.000000
          212.1       7.755477      30.063208     161.424469     162.628906      65.251656       0.550459      81.088387     209.795731     162.207001     159.949219       0.000485       0.000775       0.000450       0.000604     159.000000
          212.2       7.755924      31.057091     161.257187     162.628906      67.741081       0.509609      80.987740     207.205872     161.857391     160.652252       0.000319       0.000614       0.000430       0.000616     159.000000
          212.3       7.816845      32.261051     161.161606     162.541962      66.791946       0.526536      81.396172     208.563339     161.957794     161.671341       0.000269       0.000308       0.000505       0.000477     159.000000
          212.4       7.766057      31.910608     162.265671     161.759460      70.502678       0.490851      81.134590     205.014755     161.289352     160.398712       0.000671       0.000577       0.000396       0.000747     159.000000
          212.5       7.748830      31.128929     161.290649     161.692963      66.955208       0.536686      81.915207     208.919083     161.283508     160.695694       0.000555       0.000372       0.000329       0.000477     159.000000
          212.6       7.769157      28.698215     160.148346     162.235092      69.068298       0.508995      81.668297     206.559235     163.022888     162.436859       0.000143       0.001019       0.000155       0.000532     159.000000
