~Version Information
VERS .            2.00                          : CWLS Log ASCII Standard - Version 2.00
WRAP .            NO                            : One line per depth step
#
~Well Information
#MNEM.UNIT        DATA                          : DESCRIPTION
#----.----        ----                          : -----------
STRT .M            171.9                        : Start
STOP .M            232.6                        : Stop
STEP .M              0.1                        : Step increment
NULL .            -999.250                      : Null value
COMP .            SUNCOR ENERGY INC.            : Company
WELL .            SUNCOR LEWIS 3-8-92-7         : Well
FLD  .            LEWIS                         : Field
PROV .            ALBERTA                       : Province
CTRY .            Canada                        : State / Country
LOC  .                                          : Location
LOC2 .            03-08-092-07W4                : Location 2
SRVC .            Weatherford                   : Service company
UWI  .            1AA140509207W400              : Unique Well ID
LIC  .            0486895                       : Licence Number
DATE .            25-Jan-2018                   : Logging Date
#
~Curve Information
#MNEM.UNIT        API CODES                     : CURVE DESCRIPTION
#----.----        ---------                     : -----------------
DEPT .M           00 001 00 00                  : Logged depth
CGXT .DEGC        30 660 01 00                  : MCG External Temperature
GRGM .GAPI        30 310 01 00                  : MGS Gamma Ray
IECX .MM          45 000 00 00                  : MIE Caliper X
IECY .MM          45 000 00 00                  : MIE Caliper Y
IRBR .DEG         00 000 00 00                  : Relative Bearing
ITLT .DEG         00 000 00 00                  : Borehole Tilt
IAP1 .DEG         00 000 00 00                  : Azimuth of Reference
IAZT .DEG         00 000 00 00                  : Borehole Azimuth (True)
DI26 .MM          70 280 02 00                  : Imager Diameter 2 - 6
DI48 .MM          70 280 02 00                  : Imager Diameter 4 - 8
BTM1 .MA          45 000 00 00                  : Imager Pad 1 Md. Current
BTM3 .MA          45 000 00 00                  : Imager Pad 3 Md. Current
BTM5 .MA          45 000 00 00                  : Imager Pad 5 Md. Current
BTM7 .MA          45 000 00 00                  : Imager Pad 7 Md. Current
BIT  .MM          70 282 00 00                  : Bit size
#
~Parameter Information
#MNEM.UNIT        VALUE                         : DESCRIPTION
#----.----        -----                         : -----------
RNID .            MAIN PASS                     : Run ID
SON  .            8310-204072557                : Job Number
DREF .            KB                            : Depth reference
EREF .M               478.600                   : Elevation of depth reference
GL   .M               477.400                   : Ground elevation
DDRF .            KB @1.2m                      : Drilling Depth Reference
RUN  .                  1                       : Run number
TDD  .M               230.000                   : TD (driller)
TDL  .M               230.100                   : TD (logger)
BS   .MM              159.000                   : Bit size
TIMC .            09-Jan-18 13:45:00.000        : Time circulation ended
TIML .            09-Jan-18 18:45:00.000        : Time logger at bottom
UNIT .              14265                       : Equipment ID
BASE .            LLD                           : Equipment base location
ENG  .            ELLIOT KANE                   : Recording engineer
WIT  .            CLARK HUBER                   : Witnessed by
CSGT .            SURFACE                       : Casing type
CSGS .MM              177.800                   : Casing size
CSGW .KG/M             25.299                   : Casing weight
CSGD .M                88.300                   : Casing bottom (driller)
CSGL .M                88.300                   : Casing bottom (logger)
CSUP .M                 0.000                   : Casing Stick Up GL
MUD  .            POLYMER                       : Mud type
MUDS .            N/A                           : Mud sample source
MUDD .K/M3           1050.000                   : Mud density
MUDV .SEC/L            42.000                   : Mud viscosity
PH   .                  7.000                   : Mud pH
FL   .ML/30MIN          8.000                   : Mud fluid loss rate
RM   .OHMM              4.450                   : Mud resistivity
RMT  .DEGC              9.800                   : Mud sample temperature
RMF  .OHMM        -999999.000                   : Mud filtrate resistivity
RMFT .DEGC        -999999.000                   : Mud filtrate sample temperature
RMC  .OHMM        -999999.000                   : Mud cake resistivity
RMCT .DEGC        -999999.000                   : Mud cake sample temperature
RMBT .OHMM              4.650                   : Mud Resistivity at BHT
BHT  .DEGC              9.000                   : Bottom Hole Temperature
TMAX .DEGC              9.000                   : Max recorded temperature
#
~Other Information
---------------------------------------------------------------------------------------
1)  Run 1: MCB, SHA, MCG, MIM, MIE, MFE, MDM, MRD, MTD, HFS; Run in Combination
      Run 2: MCB, SHA, MCG, MTC, MGS, ISC, MDN, MPD, SKJ, MFE, MAI ; Run in Combination
2) Hardware: MDN: One Dual Neutron Bowspring
                         MAI: Two 12.7 mm standoffs with Bottom Hole Finder Assembly
                         MCG: One 6-leaf centralizer
                         MIE: Two 6-leaf centralizers
                         MSD: Two 6-leaf centralizers                            
3) Total Hole Volume from TD to Surface Casing = 2.2 CuM
4) Hole Volume calculated with Micro Imager calipers
5) Logging requested from KB @ 478.6 m.
6) Tool zero requested from KB. 
7) Magnetic Declanation: 13.39  EAST
8) Easting: 494056.00 ; Northing: 6313159.00
.
---------------------------------------------------------------------------------------
#
#          DEPT           CGXT           GRGM           IECX           IECY           IRBR           ITLT           IAP1           IAZT           DI26           DI48           BTM1           BTM3           BTM5           BTM7            BIT
#
~ASCII Log Data
# ...
          205.9       7.972157      19.667046     161.118576     158.614059      86.368240       0.287442      77.239853     184.617355     159.094254     161.313507       0.000740       0.000376       0.000443       0.000456     159.000000
          206.0       7.817232      18.821087     160.850937     158.358337      84.812035       0.295992      77.289093     186.254944     158.854584     160.717712       0.000500       0.000580       0.000522       0.000902     159.000000
          206.1       7.860508      19.101068     160.678864     158.051468      85.218178       0.315143      77.436447     185.977798     158.843750     159.545639       0.000606       0.000668       0.000424       0.000216     159.000000
          206.2       7.994063      18.944408     161.343216     157.908264      85.531639       0.317051      77.530991     185.752106     158.731247     158.300156       0.000332       0.000352       0.000219       0.000349     159.000000
          206.3       7.888942      19.249887     160.220032     157.330338      84.120453       0.330614      77.655930     187.320358     158.872696     157.363678       0.000546       0.000260       0.000237       0.000442     159.000000
          206.4       7.925840      18.890507     159.708633     157.320099      87.244041       0.303882      77.891647     184.375885     159.337982     156.598846       0.000612       0.000645       0.000410       0.000339     159.000000
          206.5       7.878779      19.428720     159.584366     152.655716      90.083862       0.321346      78.422844     181.993378     161.727417     158.595734       0.000270       0.000432       0.000616       0.000710     159.000000
          206.6       7.903278      19.878445     161.295425     152.655716      76.981033       0.324744      78.357277     195.372955     163.553131     162.394669       0.000276       0.000395       0.000245       0.000289     159.000000
          206.7       7.847335      21.076775     162.385147     164.306458      87.265076       0.313952      78.423111     184.891113     162.947571     162.540466       0.000193       0.000601       0.000190       0.000415     159.000000
          206.8       7.769992      21.842869     162.021912     162.823257      91.596222       0.355584      79.157570     181.161514     163.466019     157.553864       0.000778       0.000587       0.000492       0.000729     159.000000
          206.9       7.858810      23.138094     162.026688     163.268219      82.024048       0.342570      79.515472     191.380951     163.988312     157.016785       0.001303       0.001930       0.001280       0.001083     159.000000
          207.0       7.910700      23.280725     161.677780     160.710983      85.302544       0.381616      80.059227     188.552231     157.179794     151.128357       0.000474       0.000825       0.000558       0.000510     159.000000
          207.1       7.850554      23.982870     153.141586     156.215378      95.602715       0.316326      81.028931     179.011719     155.752197     144.539917       0.000561       0.000707       0.000669       0.000529     159.000000
          207.2       7.950489      24.074831     154.307785     156.762634      95.522583       0.281107      81.671722     179.792191     158.685196     151.988251       0.000492       0.000824       0.000529       0.000152     159.000000
          207.3       7.891535      25.667530     161.725586     158.670319      85.107697       0.295164      79.496620     188.213104     160.093323     161.560272       0.000972       0.000541       0.000606       0.000644     159.000000
          207.4       7.914485      26.250986     162.107941     158.281616      81.282570       0.320120      78.171921     190.767761     158.932022     159.739700       0.000383       0.000605       0.000489       0.000508     159.000000
          207.5       7.840510      27.162615     161.238068     157.100189      79.223885       0.356051      78.525223     193.240936     158.938675     158.457275       0.000355       0.000449       0.000368       0.000322     159.000000
          207.6       8.014837      26.232412     157.768143     156.384155      85.865738       0.314540      78.928932     186.845154     157.725342     157.179901       0.000709       0.000850       0.000478       0.000664     159.000000
          207.7       7.977790      25.798979     156.673645     156.389267      79.922218       0.324218      79.221092     193.240265     157.152466     156.816406       0.000688       0.000729       0.000711       0.000736     159.000000
          207.8       7.926615      24.143566     159.053833     157.309875      81.437920       0.319639      80.011627     192.496414     156.015030     158.334900       0.000586       0.000828       0.001071       0.000757     159.000000
          207.9       7.823670      23.364840     160.850937     157.841782      90.759048       0.365395      80.619652     183.518463     157.083679     160.548584       0.000412       0.001274       0.000795       0.000540     159.000000
          208.0       7.852551      22.170977     161.859406     157.892929      81.904434       0.337921      80.993576     193.023911     155.183228     159.133942       0.000915       0.000719       0.000748       0.000682     159.000000
          208.1       7.848050      21.686771     159.761200     153.883194      77.712273       0.300969      81.023888     197.353210     153.934387     156.297974       0.001020       0.000822       0.000838       0.000695     159.000000
          208.2       7.821584      21.241138     160.927399     153.939453      67.302605       0.283815      81.387329     208.368561     154.114502     157.956390       0.001365       0.000772       0.000582       0.000779     159.000000
          208.3       7.888108      21.656315     163.140320     155.975006      68.382614       0.368379      81.417381     207.385391     156.802612     161.061981       0.000978       0.000986       0.000559       0.000771     159.000000
          208.4       7.730173      21.905788     161.701691     163.559738      73.656166       0.381117      81.062515     201.596985     162.481995     159.056442       0.000695       0.000827       0.000652       0.000634     159.000000
          208.5       7.826114      21.767790     160.788803     160.266037      74.539581       0.386323      80.835632     200.454956     159.782745     160.150574       0.000610       0.000793       0.000721       0.000727     159.000000
          208.6       7.868764      21.350212     161.649109     158.977188      76.693626       0.382842      80.855957     198.253036     159.151169     160.810867       0.000424       0.000512       0.000518       0.000552     159.000000
          208.7       7.827991      21.045078     162.337357     156.716599      77.497566       0.380778      80.539688     197.097000     158.027359     161.447266       0.001081       0.001596       0.000830       0.001073     159.000000
          208.8       7.765372      20.688597     162.313461     156.568283      70.801521       0.377334      80.448425     203.903458     156.860352     161.180603       0.000591       0.000926       0.000693       0.000651     159.000000
          208.9       7.811778      20.642048     160.927399     154.409973      72.365540       0.369400      80.347771     202.182770     151.027496     159.099243       0.000891       0.001110       0.000785       0.001216     159.000000
          209.0       7.886945      21.410379     160.215256     154.409973      66.140015       0.365220      80.531342     208.776382     149.719833     158.382507       0.001389       0.001400       0.022719       0.001078     159.000000
          209.1       7.796041      22.649538     159.880692     154.921417      71.854935       0.364993      80.115570     202.466476     148.683411     158.476440       0.002235       0.002547       0.002552       0.001624     159.000000
          209.2       7.859912      23.257299     160.377762     154.962341      70.683731       0.373584      79.536980     203.082611     151.451172     158.726563       0.002070       0.005251       0.009625       0.002650     159.000000
