~Version Information
VERS .            2.00                          : CWLS Log ASCII Standard - Version 2.00
WRAP .            NO                            : One line per depth step
#
~Well Information
#MNEM.UNIT        DATA                          : DESCRIPTION
#----.----        ----                          : -----------
STRT .M            171.9                        : Start
STOP .M            232.6                        : Stop
STEP .M              0.1                        : Step increment
NULL .            -999.250                      : Null value
COMP .            SUNCOR ENERGY INC.            : Company
WELL .            SUNCOR LEWIS 3-8-92-7         : Well
FLD  .            LEWIS                         : Field
PROV .            ALBERTA                       : Province
CTRY .            Canada                        : State / Country
LOC  .                                          : Location
LOC2 .            03-08-092-07W4                : Location 2
SRVC .            Weatherford                   : Service company
UWI  .            1AA140509207W400              : Unique Well ID
LIC  .            0486895                       : Licence Number
DATE .            25-Jan-2018                   : Logging Date
#
~Curve Information
#MNEM.UNIT        API CODES                     : CURVE DESCRIPTION
#----.----        ---------                     : -----------------
DEPT .M           00 001 00 00                  : Logged depth
CGXT .DEGC        30 660 01 00                  : MCG External Temperature
GRGM .GAPI        30 310 01 00                  : MGS Gamma Ray
IECX .MM          45 000 00 00                  : MIE Caliper X
IECY .MM          45 000 00 00                  : MIE Caliper Y
IRBR .DEG         00 000 00 00                  : Relative Bearing
ITLT .DEG         00 000 00 00                  : Borehole Tilt
IAP1 .DEG         00 000 00 00                  : Azimuth of Reference
IAZT .DEG         00 000 00 00                  : Borehole Azimuth (True)
DI26 .MM          70 280 02 00                  : Imager Diameter 2 - 6
DI48 .MM          70 280 02 00                  : Imager Diameter 4 - 8
BTM1 .MA          45 000 00 00                  : Imager Pad 1 Md. Current
BTM3 .MA          45 000 00 00                  : Imager Pad 3 Md. Current
BTM5 .MA          45 000 00 00                  : Imager Pad 5 Md. Current
BTM7 .MA          45 000 00 00                  : Imager Pad 7 Md. Current
BIT  .MM          70 282 00 00                  : Bit size
#
~Parameter Information
#MNEM.UNIT        VALUE                         : DESCRIPTION
#----.----        -----                         : -----------
RNID .            MAIN PASS                     : Run ID
SON  .            8310-204072557                : Job Number
DREF .            KB                            : Depth reference
EREF .M               478.600                   : Elevation of depth reference
GL   .M               477.400                   : Ground elevation
DDRF .            KB @1.2m                      : Drilling Depth Reference
RUN  .                  1                       : Run number
TDD  .M               230.000                   : TD (driller)
TDL  .M               230.100                   : TD (logger)
BS   .MM              159.000                   : Bit size
TIMC .            09-Jan-18 13:45:00.000        : Time circulation ended
TIML .            09-Jan-18 18:45:00.000        : Time logger at bottom
UNIT .              14265                       : Equipment ID
BASE .            LLD                           : Equipment base location
ENG  .            ELLIOT KANE                   : Recording engineer
WIT  .            CLARK HUBER                   : Witnessed by
CSGT .            SURFACE                       : Casing type
CSGS .MM              177.800                   : Casing size
CSGW .KG/M             25.299                   : Casing weight
CSGD .M                88.300                   : Casing bottom (driller)
CSGL .M                88.300                   : Casing bottom (logger)
CSUP .M                 0.000                   : Casing Stick Up GL
MUD  .            POLYMER                       : Mud type
MUDS .            N/A                           : Mud sample source
MUDD .K/M3           1050.000                   : Mud density
MUDV .SEC/L            42.000                   : Mud viscosity
PH   .                  7.000                   : Mud pH
FL   .ML/30MIN          8.000                   : Mud fluid loss rate
RM   .OHMM              4.450                   : Mud resistivity
RMT  .DEGC              9.800                   : Mud sample temperature
RMF  .OHMM        -999999.000                   : Mud filtrate resistivity
RMFT .DEGC        -999999.000                   : Mud filtrate sample temperature
RMC  .OHMM        -999999.000                   : Mud cake resistivity
RMCT .DEGC        -999999.000                   : Mud cake sample temperature
RMBT .OHMM              4.650                   : Mud Resistivity at BHT
BHT  .DEGC              9.000                   : Bottom Hole Temperature
TMAX .DEGC              9.000                   : Max recorded temperature
#
~Other Information
---------------------------------------------------------------------------------------
1)  Run 1: MCB, SHA, MCG, MIM, MIE, MFE, MDM, MRD, MTD, HFS; Run in Combination
      Run 2: MCB, SHA, MCG, MTC, MGS, ISC, MDN, MPD, SKJ, MFE, MAI ; Run in Combination
2) Hardware: MDN: One Dual Neutron Bowspring
                         MAI: Two 12.7 mm standoffs with Bottom Hole Finder Assembly
                         MCG: One 6-leaf centralizer
                         MIE: Two 6-leaf centralizers
                         MSD: Two 6-leaf centralizers                            
3) Total Hole Volume from TD to Surface Casing = 2.2 CuM
4) Hole Volume calculated with Micro Imager calipers
5) Logging requested from KB @ 478.6 m.
6) Tool zero requested from KB. 
7) Magnetic Declanation: 13.39  EAST
8) Easting: 494056.00 ; Northing: 6313159.00
.
---------------------------------------------------------------------------------------
#
#          DEPT           CGXT           GRGM           IECX           IECY           IRBR           ITLT           IAP1           IAZT           DI26           DI48           BTM1           BTM3           BTM5           BTM7            BIT
#
~ASCII Log Data
# ...
          188.9       8.202965      29.895073     154.866989     153.417770      95.384438       0.589122      73.536316     172.112152     155.949493     151.122284       0.018182       0.014867       0.023622       0.018028     159.000000
          189.0       8.147617      30.372831     157.247177     153.428009      96.068687       0.609601      74.669617     172.561279     156.374908     156.657806       0.032703       0.032242       0.028351       0.028466     159.000000
          189.1       8.148124      31.739855     157.768143     153.428009      95.350143       0.609853      74.744865     173.355011     156.529877     156.082916       0.026060       0.026303       0.022015       0.018233     159.000000
          189.2       8.160790      32.975765     157.113358     156.184692      95.712173       0.579392      74.921265     173.169388     156.506180     151.885178       0.016000       0.021087       0.017798       0.020607     159.000000
          189.3       8.222963      33.660763     156.444229     156.650116      94.196182       0.596500      74.686798     174.450851     157.073364     156.249329       0.016057       0.016019       0.016339       0.017382     159.000000
          189.4       8.208151      33.311470     157.185043     157.780411      95.769745       0.592267      75.083862     173.274429     157.144684     156.269745       0.015782       0.021427       0.023922       0.017241     159.000000
          189.5       8.124399      32.956871     157.180267     157.780411      96.245483       0.598996      75.357376     173.072235     157.027100     156.390869       0.014784       0.017068       0.017721       0.015283     159.000000
          189.6       8.229163      33.016842     157.199387     158.005447      96.651726       0.575803      75.445015     172.753632     157.030045     156.738525       0.010905       0.012256       0.016902       0.015769     159.000000
          189.7       8.188300      34.213619     156.568497     157.862244      96.663330       0.605773      75.259003     172.556046     156.726303     156.692963       0.011708       0.012960       0.012681       0.013862     159.000000
          189.8       8.154949      35.803699     155.942383     157.688339      96.274887       0.588885      75.054787     172.740234     156.760162     156.234741       0.007600       0.006481       0.012041       0.008825     159.000000
          189.9       8.166185      37.533031     156.444229     157.688339      95.830528       0.589706      75.193550     173.323334     156.949158     156.355347       0.019468       0.020723       0.010358       0.011881     159.000000
          190.0       8.161864      38.510357     156.162231     157.831558      96.438477       0.587742      75.093735     172.615585     156.949036     155.888367       0.021625       0.023174       0.011382       0.016972     159.000000
          190.1       8.169315      38.373745     156.023621     157.836670      98.251328       0.606327      75.024094     170.733215     156.550232     154.770874       0.015283       0.018899       0.016313       0.015552     159.000000
          190.2       8.145382      38.319557     156.028412     157.836670      97.212799       0.587283      75.071678     171.819260     153.706879     154.625977       0.017087       0.023033       0.017145       0.018822     159.000000
          190.3       8.113640      38.843220     156.057083     157.836670      98.157753       0.587201      75.216446     171.019104     154.570480     155.847717       0.029247       0.043698       0.016633       0.028761     159.000000
          190.4       8.156022      38.829056     156.883942     157.626968      96.935486       0.602270      75.516541     172.541443     154.303619     156.021515       0.013478       0.019167       0.011552       0.013683     159.000000
          190.5       8.206183      37.990177     156.883942     157.309875      96.979965       0.582397      75.368706     172.349106     156.966080     156.028168       0.010889       0.016550       0.008435       0.011801     159.000000
          190.6       8.163741      35.450127     156.883942     156.854691      96.758400       0.596996      75.087273     172.289246     156.890015     156.111267       0.007715       0.014412       0.011344       0.006398     159.000000
          190.7       8.156827      32.613239     156.874374     156.578506      95.359726       0.600458      75.134796     173.735367     157.037613     156.029831       0.012128       0.008211       0.008883       0.016896     159.000000
          190.8       8.152475      29.736389     156.716660     156.578506      95.445084       0.592200      75.463287     173.978500     157.041412     155.544708       0.006472       0.013344       0.010691       0.008176     159.000000
          190.9       8.176170      29.444115     156.587616     156.588730      94.696022       0.590464      75.676941     174.941177     156.936768     155.333801       0.012300       0.015072       0.015520       0.014899     159.000000
          191.0       8.154263      30.491915     156.362976     156.430191      95.580284       0.599484      75.669960     174.049973     156.892822     155.311615       0.013952       0.013196       0.026841       0.014899     159.000000
          191.1       8.165500      33.149715     156.057083     156.281876      96.573120       0.614558      75.475365     172.862610     156.971313     155.495087       0.014790       0.015513       0.019097       0.021599     159.000000
          191.2       8.107709      34.036449     156.047531     156.281876      95.685745       0.606101      75.522881     173.797455     156.886261     153.907852       0.015443       0.011193       0.009251       0.024761     159.000000
          191.3       8.159926      34.637829     156.764450     156.501785      95.721970       0.602046      75.752220     173.990570     156.758759     153.692383       0.001380       0.015756       0.002342       0.002217     159.000000
          191.4       8.155516      33.348434     156.764450     157.923615      95.013962       0.607337      75.850975     174.797287     155.497070     156.086197       0.002494       0.003496       0.003550       0.005504     159.000000
          191.5       8.155456      32.080090     156.821808     158.680557      97.525528       0.613670      76.450638     172.885529     155.155304     156.754532       0.001737       0.002330       0.011049       0.001600     159.000000
          191.6       8.215780      30.680809     157.046448     158.721466      94.567390       0.596351      76.415321     175.808182     155.547546     156.894028       0.001751       0.007805       0.005880       0.004205     159.000000
          191.7       8.162937      31.824566     157.046448     158.767502      96.150909       0.595511      76.272255     174.081665     157.130203     157.361206       0.001511       0.009536       0.002506       0.001687     159.000000
          191.8       8.136798      32.769535     157.170715     158.757263      94.323105       0.584286      76.451317     176.088425     157.069031     157.279877       0.002175       0.002329       0.014617       0.005126     159.000000
          191.9       8.186572      33.715027     157.294983     158.762375      95.232903       0.586605      76.320732     175.048111     157.546921     157.345459       0.022860       0.011990       0.006656       0.030617     159.000000
          192.0       8.188747      32.702099     157.294983     158.823761      96.359879       0.599737      76.112831     173.713303     157.238007     156.697647       0.013593       0.006517       0.022726       0.025241     159.000000
          192.1       8.150598      32.155514     156.941299     158.813522      95.298363       0.602711      76.245445     174.907379     156.653290     156.664703       0.008278       0.006325       0.009331       0.009766     159.000000
          192.2       8.140702      30.761330     156.974747     158.813522      95.771408       0.597993      76.062752     174.251648     157.320084     156.415253       0.003824       0.002671       0.003576       0.004269     159.000000
