~Version Information
VERS .            2.00                          : CWLS Log ASCII Standard - Version 2.00
WRAP .            NO                            : One line per depth step
#
~Well Information
#MNEM.UNIT        DATA                          : DESCRIPTION
#----.----        ----                          : -----------
STRT .M              0.0                        : Start
STOP .M            232.6                        : Stop
STEP .M              0.1                        : Step increment
NULL .            -999.250                      : Null value
COMP .            SUNCOR ENERGY INC.            : Company
WELL .            SUNCOR LEWIS 3-8-92-7         : Well
FLD  .            LEWIS                         : Field
PROV .            ALBERTA                       : Province
CTRY .            Canada                        : State / Country
LOC  .                                          : Location
LOC2 .            03-08-092-07W4                : Location 2
SRVC .            Weatherford                   : Service company
UWI  .            1AA030809207W400              : Unique Well ID
LIC  .            0486896                       : Licence Number
DATE .            25-Jan-2018                   : Logging Date
#
~Curve Information
#MNEM.UNIT        API CODES                     : CURVE DESCRIPTION
#----.----        ---------                     : -----------------
DEPT .M           00 001 00 00                  : Logged depth
GRGM .GAPI        30 310 01 00                  : MGS Gamma Ray
CGXT .DEGC        30 660 01 00                  : MCG External Temperature
IECX .MM          45 000 00 00                  : MIE Caliper X
IECY .MM          45 000 00 00                  : MIE Caliper Y
IRBR .DEG         00 000 00 00                  : Relative Bearing
ITLT .DEG         00 000 00 00                  : Borehole Tilt
IAP1 .DEG         00 000 00 00                  : Azimuth of Reference
IAZT .DEG         00 000 00 00                  : Borehole Azimuth (True)
DI26 .MM          70 280 02 00                  : Imager Diameter 2 - 6
DI48 .MM          70 280 02 00                  : Imager Diameter 4 - 8
BTM1 .MA          45 000 00 00                  : Imager Pad 1 Md. Current
BTM3 .MA          45 000 00 00                  : Imager Pad 3 Md. Current
BTM5 .MA          45 000 00 00                  : Imager Pad 5 Md. Current
BTM7 .MA          45 000 00 00                  : Imager Pad 7 Md. Current
BIT  .MM          70 282 00 00                  : Bit size
#
~Parameter Information
#MNEM.UNIT        VALUE                         : DESCRIPTION
#----.----        -----                         : -----------
RNID .            MAIN PASS                     : Run ID
SON  .            8310-204072557                : Job Number
DREF .            KB                            : Depth reference
EREF .M               478.600                   : Elevation of depth reference
GL   .M               477.400                   : Ground elevation
DDRF .            KB @1.2m                      : Drilling Depth Reference
RUN  .                  1                       : Run number
TDD  .M               230.000                   : TD (driller)
TDL  .M               230.100                   : TD (logger)
BS   .MM              159.000                   : Bit size
TIMC .            09-Jan-18 13:45:00.000        : Time circulation ended
TIML .            09-Jan-18 18:45:00.000        : Time logger at bottom
UNIT .              14265                       : Equipment ID
BASE .            LLD                           : Equipment base location
ENG  .            ELLIOT KANE                   : Recording engineer
WIT  .            CLARK HUBER                   : Witnessed by
CSGT .            SURFACE                       : Casing type
CSGS .MM              177.800                   : Casing size
CSGW .KG/M             25.299                   : Casing weight
CSGD .M                88.300                   : Casing bottom (driller)
CSGL .M                88.300                   : Casing bottom (logger)
CSUP .M                 0.000                   : Casing Stick Up GL
MUD  .            POLYMER                       : Mud type
MUDS .            N/A                           : Mud sample source
MUDD .K/M3           1050.000                   : Mud density
MUDV .SEC/L            42.000                   : Mud viscosity
PH   .                  7.000                   : Mud pH
FL   .ML/30MIN          8.000                   : Mud fluid loss rate
RM   .OHMM              4.450                   : Mud resistivity
RMT  .DEGC              9.800                   : Mud sample temperature
RMF  .OHMM        -999999.000                   : Mud filtrate resistivity
RMFT .DEGC        -999999.000                   : Mud filtrate sample temperature
RMC  .OHMM        -999999.000                   : Mud cake resistivity
RMCT .DEGC        -999999.000                   : Mud cake sample temperature
RMBT .OHMM              4.650                   : Mud Resistivity at BHT
BHT  .DEGC              9.000                   : Bottom Hole Temperature
TMAX .DEGC              9.000                   : Max recorded temperature
#
~Other Information
---------------------------------------------------------------------------------------
1)  Run 1: MCB, SHA, MCG, MIM, MIE, MFE, MDM, MRD, MTD, HFS; Run in Combination
      Run 2: MCB, SHA, MCG, MTC, MGS, ISC, MDN, MPD, SKJ, MFE, MAI ; Run in Combination
2) Hardware: MDN: One Dual Neutron Bowspring
                         MAI: Two 12.7 mm standoffs with Bottom Hole Finder Assembly
                         MCG: One 6-leaf centralizer
                         MIE: Two 6-leaf centralizers
                         MSD: Two 6-leaf centralizers                            
3) Total Hole Volume from TD to Surface Casing = 2.7 CuM
4) Hole Volume calculated with Micro Imager calipers
5) Logging requested from KB @ 478.6 m.
6) Tool zero requested from KB. 
7) Magnetic Declanation: 13.39  EAST
8) Easting: 494056.00 ; Northing: 6313159.00
.
---------------------------------------------------------------------------------------
#
#          DEPT           GRGM           CGXT           IECX           IECY           IRBR           ITLT           IAP1           IAZT           DI26           DI48           BTM1           BTM3           BTM5           BTM7            BIT
#
~ASCII Log Data
# ...
           91.8      93.543877       7.673752     167.790771     167.886581     152.360870       0.668990      65.919128     107.519859     166.418228     162.808716       0.089060       0.090596       0.107978       0.084350     159.000000
           91.9      91.444473       7.709518     170.022812     169.963043     155.963638       0.673882      66.990105     104.987938     167.198410     169.706223       0.091466       0.087882       0.104035       0.086653     159.000000
           92.0      88.361420       7.712051     171.676514     175.486664     155.909714       0.644739      67.719406     105.771042     166.899017     171.871521       0.094231       0.094282       0.104291       0.105264     159.000000
           92.1      87.569412       7.659834     173.970688     171.369522     154.868805       0.607626      67.648796     106.741226     171.896591     170.599228       0.088957       0.105520       0.098531       0.104957     159.000000
           92.2      87.685204       7.724331     172.900070     169.088470     155.045639       0.609975      67.720177     106.635780     173.475067     170.684128       0.091645       0.104675       0.105059       0.119856     159.000000
           92.3      90.605675       7.702603     171.839020     168.464508     154.105011       0.554080      68.005600     107.861641     166.912689     168.688690       0.100733       0.123542       0.118422       0.122057     159.000000
           92.4      92.244179       7.630297     165.883759     165.620865     153.110138       0.611665      68.050293     108.901474     164.207062     166.679382       0.117040       0.125232       0.124310       0.129020     159.000000
           92.5      94.189621       7.735210     167.250687     164.746292     153.319427       0.635751      68.287323     108.929306     164.870651     166.260239       0.112637       0.133014       0.131939       0.129071     159.000000
           92.6      94.743752       7.680876     168.565063     164.137680     153.655670       0.611430      68.187050     108.492676     166.177887     166.305099       0.113661       0.136751       0.140028       0.132297     159.000000
           92.7      95.400932       7.659595     167.508789     163.012497     156.000290       0.606721      68.457703     106.418610     164.233063     163.363983       0.109872       0.124617       0.120675       0.131836     159.000000
           92.8      93.647499       7.684124     164.335190     162.526627     153.200592       0.579109      68.506111     109.266693     161.113342     163.549423       0.063845       0.085015       0.083530       0.084247     159.000000
           92.9      90.850258       7.693960     160.640640     162.455017     151.936554       0.589881      68.434189     110.458893     161.299866     160.913376       0.119088       0.124156       0.063614       0.065227     159.000000
           93.0      88.021919       7.649402     159.923706     162.066315     148.879944       0.598856      68.091698     113.173141     160.400055     160.610107       0.066737       0.071499       0.056779       0.064740     159.000000
           93.1      85.229950       7.715986     159.818558     161.478165     142.360031       0.596526      67.969429     119.570900     161.149597     159.803268       0.068273       0.067224       0.076004       0.074801     159.000000
           93.2      83.832802       7.726000     159.804214     160.910461     137.014374       0.571791      67.993797     124.940849     159.421906     160.872894       0.077412       0.073444       0.065304       0.068990     159.000000
           93.3      83.616280       7.663321     158.403824     160.951370     132.843002       0.588094      67.942772     129.061279     158.861023     160.199570       0.075441       0.089265       0.078641       0.080868     159.000000
           93.4      86.041100       7.652084     156.950851     161.232666     132.076996       0.564662      67.902557     129.786942     158.397583     159.636963       0.087012       0.099351       0.100707       0.089956     159.000000
           93.5      88.141289       7.674885     156.898285     161.631592     128.500504       0.567053      67.812836     133.273697     159.558823     161.203735       0.053118       0.050904       0.058622       0.074903     159.000000
           93.6      91.739098       7.706269     157.858963     162.276016     125.844307       0.562828      67.910004     136.027008     164.184845     166.525604       0.088957       0.073111       0.056088       0.120214     159.000000
           93.7      94.463943       7.703110     164.263504     168.265045     128.365280       0.571331      68.034813     133.630920     169.051651     166.132507       0.117808       0.146479       0.122211       0.137673     159.000000
           93.8      96.384262       7.664006     165.453598     170.065338     127.389595       0.640975      67.371147     133.943283     169.679962     167.038971       0.134089       0.163733       0.142844       0.141308     159.000000
           93.9      97.215813       7.693543     167.785995     170.520523     129.215454       0.614488      67.643875     132.390030     171.163330     171.458344       0.155183       0.170235       0.174740       0.157282     159.000000
           94.0      97.650269       7.732855     168.498138     168.208786     131.836761       0.613709      67.581375     129.706238     167.041916     173.703522       0.123030       0.144738       0.132911       0.143868     159.000000
           94.1      98.300850       7.728206     167.179001     166.587509     135.567581       0.617589      67.647202     126.041283     164.145370     171.156830       0.112483       0.133935       0.109565       0.134498     159.000000
           94.2      96.097252       7.743644     164.942184     165.037827     134.389877       0.629307      67.682098     127.253944     163.354797     165.197601       0.108797       0.130351       0.140745       0.135881     159.000000
           94.3      94.547020       7.713601     165.190720     163.748978     136.647034       0.672001      67.594231     124.909164     163.353882     162.668732       0.115913       0.125897       0.119856       0.099530     159.000000
           94.4      92.196999       7.767726     165.821625     162.664719     138.309891       0.646459      67.705345     123.357262     163.436844     160.652924       0.076235       0.119292       0.116016       0.108387     159.000000
           94.5      91.618538       7.748860     165.095139     164.597977     137.970139       0.684468      67.610306     123.602203     164.243195     160.147446       0.072907       0.095127       0.098864       0.096944     159.000000
           94.6      89.929688       7.747996     165.630432     164.649124     139.477066       0.681385      67.444443     121.929375     164.172684     162.710464       0.064740       0.068017       0.093232       0.092439     159.000000
           94.7      90.826759       7.739919     166.935242     164.424088     138.266510       0.664379      67.610565     123.305969     163.528351     164.868774       0.091031       0.101450       0.078897       0.088420     159.000000
           94.8      91.375885       7.680339     168.875732     163.979126     136.985367       0.641075      67.992569     124.968987     164.235794     170.809662       0.066660       0.114531       0.102423       0.098455     159.000000
           94.9      93.034935       7.728384     170.132736     162.429443     139.124802       0.621647      68.146111     122.982979     164.256958     173.651489       0.112022       0.130300       0.125743       0.126563     159.000000
           95.0      93.431816       7.772316     166.361710     160.378555     139.886002       0.539795      68.797699     122.872948     161.639954     170.870895       0.106544       0.120624       0.113200       0.121136     159.000000
           95.1      92.944695       7.764925     163.178558     159.606262     142.344818       0.493580      71.345337     120.781624     160.166077     165.729126       0.108797       0.111408       0.105213       0.116118     159.000000
