~Version Information
VERS .            2.00                          : CWLS Log ASCII Standard - Version 2.00
WRAP .            NO                            : One line per depth step
#
~Well Information
#MNEM.UNIT        DATA                          : DESCRIPTION
#----.----        ----                          : -----------
STRT .M              0.0                        : Start
STOP .M            232.6                        : Stop
STEP .M              0.1                        : Step increment
NULL .            -999.250                      : Null value
COMP .            SUNCOR ENERGY INC.            : Company
WELL .            SUNCOR LEWIS 3-8-92-7         : Well
FLD  .            LEWIS                         : Field
PROV .            ALBERTA                       : Province
CTRY .            Canada                        : State / Country
LOC  .                                          : Location
LOC2 .            03-08-092-07W4                : Location 2
SRVC .            Weatherford                   : Service company
UWI  .            1AA030809207W400              : Unique Well ID
LIC  .            0486896                       : Licence Number
DATE .            25-Jan-2018                   : Logging Date
#
~Curve Information
#MNEM.UNIT        API CODES                     : CURVE DESCRIPTION
#----.----        ---------                     : -----------------
DEPT .M           00 001 00 00                  : Logged depth
GRGM .GAPI        30 310 01 00                  : MGS Gamma Ray
CGXT .DEGC        30 660 01 00                  : MCG External Temperature
IECX .MM          45 000 00 00                  : MIE Caliper X
IECY .MM          45 000 00 00                  : MIE Caliper Y
IRBR .DEG         00 000 00 00                  : Relative Bearing
ITLT .DEG         00 000 00 00                  : Borehole Tilt
IAP1 .DEG         00 000 00 00                  : Azimuth of Reference
IAZT .DEG         00 000 00 00                  : Borehole Azimuth (True)
DI26 .MM          70 280 02 00                  : Imager Diameter 2 - 6
DI48 .MM          70 280 02 00                  : Imager Diameter 4 - 8
BTM1 .MA          45 000 00 00                  : Imager Pad 1 Md. Current
BTM3 .MA          45 000 00 00                  : Imager Pad 3 Md. Current
BTM5 .MA          45 000 00 00                  : Imager Pad 5 Md. Current
BTM7 .MA          45 000 00 00                  : Imager Pad 7 Md. Current
BIT  .MM          70 282 00 00                  : Bit size
#
~Parameter Information
#MNEM.UNIT        VALUE                         : DESCRIPTION
#----.----        -----                         : -----------
RNID .            MAIN PASS                     : Run ID
SON  .            8310-204072557                : Job Number
DREF .            KB                            : Depth reference
EREF .M               478.600                   : Elevation of depth reference
GL   .M               477.400                   : Ground elevation
DDRF .            KB @1.2m                      : Drilling Depth Reference
RUN  .                  1                       : Run number
TDD  .M               230.000                   : TD (driller)
TDL  .M               230.100                   : TD (logger)
BS   .MM              159.000                   : Bit size
TIMC .            09-Jan-18 13:45:00.000        : Time circulation ended
TIML .            09-Jan-18 18:45:00.000        : Time logger at bottom
UNIT .              14265                       : Equipment ID
BASE .            LLD                           : Equipment base location
ENG  .            ELLIOT KANE                   : Recording engineer
WIT  .            CLARK HUBER                   : Witnessed by
CSGT .            SURFACE                       : Casing type
CSGS .MM              177.800                   : Casing size
CSGW .KG/M             25.299                   : Casing weight
CSGD .M                88.300                   : Casing bottom (driller)
CSGL .M                88.300                   : Casing bottom (logger)
CSUP .M                 0.000                   : Casing Stick Up GL
MUD  .            POLYMER                       : Mud type
MUDS .            N/A                           : Mud sample source
MUDD .K/M3           1050.000                   : Mud density
MUDV .SEC/L            42.000                   : Mud viscosity
PH   .                  7.000                   : Mud pH
FL   .ML/30MIN          8.000                   : Mud fluid loss rate
RM   .OHMM              4.450                   : Mud resistivity
RMT  .DEGC              9.800                   : Mud sample temperature
RMF  .OHMM        -999999.000                   : Mud filtrate resistivity
RMFT .DEGC        -999999.000                   : Mud filtrate sample temperature
RMC  .OHMM        -999999.000                   : Mud cake resistivity
RMCT .DEGC        -999999.000                   : Mud cake sample temperature
RMBT .OHMM              4.650                   : Mud Resistivity at BHT
BHT  .DEGC              9.000                   : Bottom Hole Temperature
TMAX .DEGC              9.000                   : Max recorded temperature
#
~Other Information
---------------------------------------------------------------------------------------
1)  Run 1: MCB, SHA, MCG, MIM, MIE, MFE, MDM, MRD, MTD, HFS; Run in Combination
      Run 2: MCB, SHA, MCG, MTC, MGS, ISC, MDN, MPD, SKJ, MFE, MAI ; Run in Combination
2) Hardware: MDN: One Dual Neutron Bowspring
                         MAI: Two 12.7 mm standoffs with Bottom Hole Finder Assembly
                         MCG: One 6-leaf centralizer
                         MIE: Two 6-leaf centralizers
                         MSD: Two 6-leaf centralizers                            
3) Total Hole Volume from TD to Surface Casing = 2.7 CuM
4) Hole Volume calculated with Micro Imager calipers
5) Logging requested from KB @ 478.6 m.
6) Tool zero requested from KB. 
7) Magnetic Declanation: 13.39  EAST
8) Easting: 494056.00 ; Northing: 6313159.00
.
---------------------------------------------------------------------------------------
#
#          DEPT           GRGM           CGXT           IECX           IECY           IRBR           ITLT           IAP1           IAZT           DI26           DI48           BTM1           BTM3           BTM5           BTM7            BIT
#
~ASCII Log Data
# ...
          170.0      56.572060       8.312795     157.275864     158.823761      99.987282       0.541311      82.113098     176.086258     157.380157     156.930389       0.013078       0.012121       0.011820       0.014176     159.000000
          170.1      56.084743       8.290799     157.309311     159.007874     101.438324       0.559387      82.060760     174.582977     157.655426     157.123398       0.011068       0.012172       0.012227       0.013824     159.000000
          170.2      55.896217       8.347249     157.467041     159.560242     100.377136       0.564464      82.171989     175.755356     158.477463     157.588043       0.009257       0.008352       0.009622       0.010105     159.000000
          170.3      57.989902       8.309546     157.787262     159.278946     101.261566       0.553373      82.403435     175.102371     157.393005     157.210999       0.016249       0.016236       0.022015       0.013939     159.000000
          170.4      62.015095       8.342600     157.290192     159.161316     100.382576       0.539885      82.539536     176.117416     156.931671     156.983734       0.013184       0.009488       0.011731       0.012960     159.000000
          170.5      65.955170       8.281678     157.280640     159.171539     101.447853       0.548147      82.238098     174.750763     157.202087     156.986313       0.012947       0.014745       0.015852       0.012960     159.000000
          170.6      66.508179       8.320902     157.280640     159.171539     100.871925       0.539062      82.067024     175.155563     157.210724     157.050507       0.014816       0.011859       0.012771       0.011971     159.000000
          170.7      64.658821       8.361496     157.294983     159.166428      98.756393       0.554713      82.198601     177.402618     157.310303     156.930511       0.010585       0.010025       0.009811       0.010556     159.000000
          170.8      61.285637       8.285703     157.299759     159.166428     100.802643       0.553024      82.188919     175.346771     157.166168     156.953140       0.013523       0.012364       0.013132       0.011004     159.000000
          170.9      56.106945       8.350706     157.294983     159.161316     101.787895       0.546790      82.218559     174.391174     157.139420     156.888306       0.012179       0.013062       0.012723       0.012291     159.000000
          171.0      50.479000       8.357532     157.285416     159.176651     101.499268       0.550011      82.131042     174.592300     157.210419     157.000305       0.010464       0.011552       0.010822       0.011667     159.000000
          171.1      46.342159       8.274436     157.352325     159.171539      99.598122       0.544456      82.163673     176.525986     157.312714     157.103790       0.013001       0.013996       0.014694       0.013644     159.000000
          171.2      44.665379       8.342093     157.328430     159.411911      99.605469       0.546322      82.124207     176.479172     157.346436     157.197876       0.013286       0.012064       0.011308       0.014604     159.000000
          171.3      43.590504       8.387753     157.553070     159.616501      99.762238       0.545141      82.207573     176.405777     157.843674     157.480545       0.009347       0.010582       0.010771       0.010460     159.000000
          171.4      42.832436       8.300694     157.959335     159.821075      99.680595       0.540815      82.541000     176.820831     158.075760     157.742996       0.009238       0.007699       0.008934       0.011062     159.000000
          171.5      41.556511       8.378127     158.900894     160.209778      99.972237       0.561616      82.499428     176.487671     160.260406     159.246338       0.008925       0.007046       0.008614       0.009309     159.000000
          171.6      40.505531       8.353955     157.433578     159.759705      98.849213       0.524153      82.507111     177.618271     159.887268     156.706345       0.011667       0.010512       0.011856       0.009715     159.000000
          171.7      38.820908       8.346862     156.616287     157.289413      98.657883       0.543185      82.811966     178.114456     157.354477     155.380920       0.005453       0.007001       0.005963       0.005208     159.000000
          171.8      37.030884       8.413147     157.022552     157.350784      99.040909       0.535676      82.890907     177.810394     157.281006     157.115921       0.005697       0.004944       0.004385       0.004344     159.000000
          171.9      34.971790       8.403312     157.443146     159.534668      98.709808       0.547416      82.624931     177.875504     159.763016     158.495178       0.009965       0.009440       0.011456       0.009395     159.000000
          172.0      34.157230       8.374222     157.725128     159.688095      99.500481       0.517102      82.732613     177.192520     157.969818     157.876541       0.005606       0.007309       0.007145       0.007059     159.000000
          172.1      33.560600       8.350409     157.734695     158.706116     100.836220       0.525674      82.542549     175.666779     156.737854     157.513794       0.005531       0.004421       0.005448       0.005109     159.000000
          172.2      34.200668       8.353657     156.754898     158.588486     101.466866       0.521242      82.385941     174.879532     156.822617     156.771469       0.004048       0.002602       0.003617       0.003965     159.000000
          172.3      35.082512       8.372672     156.726212     158.363449     101.844635       0.520242      82.387833     174.503677     156.806091     156.338531       0.009446       0.007177       0.006707       0.007577     159.000000
          172.4      37.925106       8.388678     156.750107     158.363449     101.612526       0.513316      82.575317     174.923248     156.070557     156.487793       0.009446       0.010182       0.007776       0.010352     159.000000
          172.5      39.544090       8.342659     156.726212     158.358337     102.815582       0.537421      82.701805     173.846771     155.945190     156.475677       0.009549       0.007222       0.007120       0.008304     159.000000
          172.6      41.149418       8.382031     156.726212     158.772614     102.710564       0.512448      83.060799     174.310730     156.650208     157.548096       0.008966       0.008534       0.007619       0.009824     159.000000
          172.7      40.053799       8.426083     158.704926     159.534668     103.705505       0.527650      83.222496     173.477554     157.792816     158.904114       0.006382       0.005376       0.006014       0.006369     159.000000
          172.8      38.813633       8.339202     160.263046     160.644501     103.628502       0.542328      83.095581     173.427673     160.536392     159.693542       0.006238       0.006235       0.007584       0.006413     159.000000
          172.9      36.202515       8.360363     160.760117     159.775040     102.450813       0.531218      83.246284     174.755981     159.970428     158.738373       0.003592       0.003560       0.003090       0.003413     159.000000
          173.0      34.744579       8.378127     159.522232     159.509094     102.413544       0.528652      83.080925     174.627899     158.498291     159.240967       0.003234       0.003151       0.003710       0.003734     159.000000
          173.1      33.037067       8.415531     158.461182     159.319855     102.222542       0.555564      82.889145     174.627167     156.891907     157.922821       0.004304       0.005616       0.004899       0.005118     159.000000
          173.2      32.095291       8.319948     158.145737     158.808411     102.077232       0.520087      82.973434     174.856674     156.613983     157.065643       0.000946       0.001544       0.002752       0.001282     159.000000
          173.3      31.429157       8.371390     158.303452     157.473541      99.687065       0.542722      82.905281     177.178650     155.307571     156.996460       0.002986       0.001056       0.002428       0.002662     159.000000
