~Version Information
VERS .            2.00                          : CWLS Log ASCII Standard - Version 2.00
WRAP .            NO                            : One line per depth step
#
~Well Information
#MNEM.UNIT        DATA                          : DESCRIPTION
#----.----        ----                          : -----------
STRT .M              0.0                        : Start
STOP .M            232.6                        : Stop
STEP .M              0.1                        : Step increment
NULL .            -999.250                      : Null value
COMP .            SUNCOR ENERGY INC.            : Company
WELL .            SUNCOR LEWIS 3-8-92-7         : Well
FLD  .            LEWIS                         : Field
PROV .            ALBERTA                       : Province
CTRY .            Canada                        : State / Country
LOC  .                                          : Location
LOC2 .            03-08-092-07W4                : Location 2
SRVC .            Weatherford                   : Service company
UWI  .            1AA030809207W400              : Unique Well ID
LIC  .            0486896                       : Licence Number
DATE .            25-Jan-2018                   : Logging Date
#
~Curve Information
#MNEM.UNIT        API CODES                     : CURVE DESCRIPTION
#----.----        ---------                     : -----------------
DEPT .M           00 001 00 00                  : Logged depth
GRGM .GAPI        30 310 01 00                  : MGS Gamma Ray
CGXT .DEGC        30 660 01 00                  : MCG External Temperature
IECX .MM          45 000 00 00                  : MIE Caliper X
IECY .MM          45 000 00 00                  : MIE Caliper Y
IRBR .DEG         00 000 00 00                  : Relative Bearing
ITLT .DEG         00 000 00 00                  : Borehole Tilt
IAP1 .DEG         00 000 00 00                  : Azimuth of Reference
IAZT .DEG         00 000 00 00                  : Borehole Azimuth (True)
DI26 .MM          70 280 02 00                  : Imager Diameter 2 - 6
DI48 .MM          70 280 02 00                  : Imager Diameter 4 - 8
BTM1 .MA          45 000 00 00                  : Imager Pad 1 Md. Current
BTM3 .MA          45 000 00 00                  : Imager Pad 3 Md. Current
BTM5 .MA          45 000 00 00                  : Imager Pad 5 Md. Current
BTM7 .MA          45 000 00 00                  : Imager Pad 7 Md. Current
BIT  .MM          70 282 00 00                  : Bit size
#
~Parameter Information
#MNEM.UNIT        VALUE                         : DESCRIPTION
#----.----        -----                         : -----------
RNID .            MAIN PASS                     : Run ID
SON  .            8310-204072557                : Job Number
DREF .            KB                            : Depth reference
EREF .M               478.600                   : Elevation of depth reference
GL   .M               477.400                   : Ground elevation
DDRF .            KB @1.2m                      : Drilling Depth Reference
RUN  .                  1                       : Run number
TDD  .M               230.000                   : TD (driller)
TDL  .M               230.100                   : TD (logger)
BS   .MM              159.000                   : Bit size
TIMC .            09-Jan-18 13:45:00.000        : Time circulation ended
TIML .            09-Jan-18 18:45:00.000        : Time logger at bottom
UNIT .              14265                       : Equipment ID
BASE .            LLD                           : Equipment base location
ENG  .            ELLIOT KANE                   : Recording engineer
WIT  .            CLARK HUBER                   : Witnessed by
CSGT .            SURFACE                       : Casing type
CSGS .MM              177.800                   : Casing size
CSGW .KG/M             25.299                   : Casing weight
CSGD .M                88.300                   : Casing bottom (driller)
CSGL .M                88.300                   : Casing bottom (logger)
CSUP .M                 0.000                   : Casing Stick Up GL
MUD  .            POLYMER                       : Mud type
MUDS .            N/A                           : Mud sample source
MUDD .K/M3           1050.000                   : Mud density
MUDV .SEC/L            42.000                   : Mud viscosity
PH   .                  7.000                   : Mud pH
FL   .ML/30MIN          8.000                   : Mud fluid loss rate
RM   .OHMM              4.450                   : Mud resistivity
RMT  .DEGC              9.800                   : Mud sample temperature
RMF  .OHMM        -999999.000                   : Mud filtrate resistivity
RMFT .DEGC        -999999.000                   : Mud filtrate sample temperature
RMC  .OHMM        -999999.000                   : Mud cake resistivity
RMCT .DEGC        -999999.000                   : Mud cake sample temperature
RMBT .OHMM              4.650                   : Mud Resistivity at BHT
BHT  .DEGC              9.000                   : Bottom Hole Temperature
TMAX .DEGC              9.000                   : Max recorded temperature
#
~Other Information
---------------------------------------------------------------------------------------
1)  Run 1: MCB, SHA, MCG, MIM, MIE, MFE, MDM, MRD, MTD, HFS; Run in Combination
      Run 2: MCB, SHA, MCG, MTC, MGS, ISC, MDN, MPD, SKJ, MFE, MAI ; Run in Combination
2) Hardware: MDN: One Dual Neutron Bowspring
                         MAI: Two 12.7 mm standoffs with Bottom Hole Finder Assembly
                         MCG: One 6-leaf centralizer
                         MIE: Two 6-leaf centralizers
                         MSD: Two 6-leaf centralizers                            
3) Total Hole Volume from TD to Surface Casing = 2.7 CuM
4) Hole Volume calculated with Micro Imager calipers
5) Logging requested from KB @ 478.6 m.
6) Tool zero requested from KB. 
7) Magnetic Declanation: 13.39  EAST
8) Easting: 494056.00 ; Northing: 6313159.00
.
---------------------------------------------------------------------------------------
#
#          DEPT           GRGM           CGXT           IECX           IECY           IRBR           ITLT           IAP1           IAZT           DI26           DI48           BTM1           BTM3           BTM5           BTM7            BIT
#
~ASCII Log Data
# ...
          187.0      32.157837       8.445127     156.922180     156.931412      93.818604       0.587350      69.848328     169.989914     156.360107     155.814117       0.017273       0.016262       0.016320       0.015072     159.000000
          187.1      32.076885       8.396725     156.946075     156.558044      93.144112       0.585653      69.466248     170.282303     155.728271     155.534119       0.018118       0.019494       0.033612       0.022348     159.000000
          187.2      32.536880       8.351571     156.926956     156.256302      91.697449       0.581454      69.508217     171.770844     154.035217     155.481995       0.023922       0.021132       0.024422       0.024473     159.000000
          187.3      32.373257       8.383849     156.931732     156.266525      93.113083       0.579357      69.493446     170.340515     155.022095     155.412079       0.022655       0.017900       0.024825       0.026598     159.000000
          187.4      32.509144       8.422655     156.931732     156.021027      92.267662       0.584227      69.353195     171.045654     154.833527     155.459686       0.016755       0.017958       0.010166       0.017452     159.000000
          187.5      32.070293       8.428080     156.946075     155.888062      93.170029       0.582153      69.454613     170.244751     154.730042     155.298920       0.012966       0.010006       0.012064       0.013401     159.000000
          187.6      32.175724       8.425278     156.759674     155.780655      92.139328       0.582820      69.532104     171.352890     154.487610     155.072266       0.015654       0.012979       0.016896       0.021497     159.000000
          187.7      32.042030       8.364655     155.808548     155.478897      91.988281       0.581509      69.302559     171.274384     153.120743     155.498108       0.018470       0.012025       0.014080       0.014080     159.000000
          187.8      31.873816       8.398335     155.526566     155.494247      91.111755       0.589197      69.375900     172.224213     151.656891     155.455963       0.016800       0.014233       0.016505       0.017670     159.000000
          187.9      30.975319       8.413237     156.009293     155.514694      92.032822       0.588966      69.854935     171.782211     150.403870     153.410980       0.011401       0.016960       0.022073       0.010300     159.000000
          188.0      29.480450       8.400420     156.219589     155.524933      94.223091       0.579405      70.252678     169.989807     150.152161     153.262939       0.014598       0.013785       0.018073       0.014854     159.000000
          188.1      27.889841       8.405457     157.103790     154.895859      93.183426       0.577301      70.617821     171.394562     154.407959     155.618225       0.012624       0.011932       0.015955       0.013216     159.000000
          188.2      27.416952       8.420449     157.089462     154.425323      94.853905       0.601455      70.805481     169.911850     148.567902     155.049652       0.010204       0.014668       0.019673       0.011715     159.000000
          188.3      28.869987       8.379945     155.540894     154.174713      92.305519       0.586867      71.105492     172.760101     145.415543     155.772522       0.008406       0.014912       0.017945       0.012723     159.000000
          188.4      30.628201       8.422327     155.163315     154.026398      93.543144       0.578943      71.207893     171.624924     145.210938     155.427368       0.009030       0.011968       0.012969       0.008233     159.000000
          188.5      32.695431       8.398960     156.558929     154.752640      92.873192       0.577415      71.668381     172.755325     154.911514     155.980316       0.010643       0.008829       0.011440       0.007753     159.000000
          188.6      34.374416       8.393476     156.740555     154.757767      96.661087       0.590137      73.441116     170.740372     152.247498     152.973358       0.013836       0.012038       0.013913       0.010262     159.000000
          188.7      35.252338       8.406262     154.236099     151.341309      96.191093       0.581893      73.728447     171.497665     150.261780     150.243744       0.014579       0.019622       0.012860       0.010723     159.000000
          188.8      34.188271       8.386770     153.968445     151.540771      96.345848       0.588514      73.518349     171.132843     154.769562     149.503662       0.021606       0.023167       0.019084       0.018502     159.000000
          188.9      33.517025       8.412879     156.167007     155.258972      95.471924       0.588532      74.407364     172.895721     157.308044     156.716278       0.023039       0.024722       0.022547       0.021183     159.000000
          189.0      32.794182       8.387724     157.672562     155.463562      96.680138       0.607645      75.007309     172.287537     156.726044     156.253998       0.035711       0.032780       0.029132       0.035109     159.000000
          189.1      33.319462       8.449061     157.701233     155.514694      94.922958       0.593752      75.282715     174.320023     156.681488     152.888336       0.015840       0.017907       0.028927       0.024441     159.000000
          189.2      33.646584       8.364148     156.721436     157.197357      94.967941       0.588590      75.413605     174.405930     156.745758     152.774841       0.013862       0.019782       0.016108       0.015238     159.000000
          189.3      34.993790       8.336579     157.132477     158.010559      96.362686       0.579989      75.396805     172.994446     157.358337     156.507263       0.017228       0.015878       0.018342       0.016364     159.000000
          189.4      35.570004       8.395622     157.137253     158.000320      97.836067       0.592619      75.639549     171.763901     157.124863     156.623093       0.015955       0.016928       0.019622       0.014963     159.000000
          189.5      36.165020       8.394132     157.156372     158.000320      96.017487       0.579639      75.868790     173.811615     157.158569     156.853165       0.012780       0.012371       0.018348       0.015225     159.000000
          189.6      36.217075       8.346802     157.122910     157.923615      96.982117       0.588169      75.879547     172.857788     156.925415     156.882477       0.013830       0.011641       0.013606       0.016403     159.000000
          189.7      37.162285       8.342033     156.224365     157.759949      96.654289       0.595183      75.774628     173.080688     156.755280     156.443024       0.009987       0.011616       0.010332       0.010419     159.000000
          189.8      37.695366       8.405934     156.530258     157.749725      97.746521       0.599524      75.545601     171.759506     156.938507     156.463074       0.015404       0.016070       0.011545       0.011107     159.000000
          189.9      38.812634       8.405338     156.544601     157.754837      95.941513       0.586801      75.551537     173.570343     157.150787     156.258209       0.019129       0.023475       0.012032       0.010601     159.000000
          190.0      39.593155       8.374818     156.348633     157.754837      97.915276       0.594087      75.323578     171.368713     157.045197     155.653442       0.019187       0.025996       0.016985       0.014150     159.000000
          190.1      39.790516       8.358128     156.339081     157.754837      97.919640       0.602888      75.343658     171.384460     154.489258     154.948868       0.015097       0.016384       0.014694       0.015987     159.000000
          190.2      39.244041       8.389602     156.425110     157.770172      97.997971       0.595530      75.568863     171.531326     154.061707     155.815216       0.029401       0.040306       0.016659       0.032306     159.000000
          190.3      38.728188       8.411031     156.601944     157.759949      98.209236       0.589663      75.690285     171.441467     155.202423     155.998383       0.018969       0.024562       0.013984       0.015968     159.000000
