~Version Information
VERS .            2.00                          : CWLS Log ASCII Standard - Version 2.00
WRAP .            NO                            : One line per depth step
#
~Well Information
#MNEM.UNIT        DATA                          : DESCRIPTION
#----.----        ----                          : -----------
STRT .M            171.9                        : Start
STOP .M            232.6                        : Stop
STEP .M              0.1                        : Step increment
NULL .            -999.250                      : Null value
COMP .            SUNCOR ENERGY INC.            : Company
WELL .            SUNCOR LEWIS 3-8-92-7         : Well
FLD  .            LEWIS                         : Field
PROV .            ALBERTA                       : Province
CTRY .            Canada                        : State / Country
LOC  .                                          : Location
LOC2 .            03-08-092-07W4                : Location 2
SRVC .            Weatherford                   : Service company
UWI  .            1AA140509207W400              : Unique Well ID
LIC  .            0486895                       : Licence Number
DATE .            25-Jan-2018                   : Logging Date
#
~Curve Information
#MNEM.UNIT        API CODES                     : CURVE DESCRIPTION
#----.----        ---------                     : -----------------
DEPT .M           00 001 00 00                  : Logged depth
CGXT .DEGC        30 660 01 00                  : MCG External Temperature
GRGM .GAPI        30 310 01 00                  : MGS Gamma Ray
IECX .MM          45 000 00 00                  : MIE Caliper X
IECY .MM          45 000 00 00                  : MIE Caliper Y
IRBR .DEG         00 000 00 00                  : Relative Bearing
ITLT .DEG         00 000 00 00                  : Borehole Tilt
IAP1 .DEG         00 000 00 00                  : Azimuth of Reference
IAZT .DEG         00 000 00 00                  : Borehole Azimuth (True)
DI26 .MM          70 280 02 00                  : Imager Diameter 2 - 6
DI48 .MM          70 280 02 00                  : Imager Diameter 4 - 8
BTM1 .MA          45 000 00 00                  : Imager Pad 1 Md. Current
BTM3 .MA          45 000 00 00                  : Imager Pad 3 Md. Current
BTM5 .MA          45 000 00 00                  : Imager Pad 5 Md. Current
BTM7 .MA          45 000 00 00                  : Imager Pad 7 Md. Current
BIT  .MM          70 282 00 00                  : Bit size
#
~Parameter Information
#MNEM.UNIT        VALUE                         : DESCRIPTION
#----.----        -----                         : -----------
RNID .            MAIN PASS                     : Run ID
SON  .            8310-204072557                : Job Number
DREF .            KB                            : Depth reference
EREF .M               478.600                   : Elevation of depth reference
GL   .M               477.400                   : Ground elevation
DDRF .            KB @1.2m                      : Drilling Depth Reference
RUN  .                  1                       : Run number
TDD  .M               230.000                   : TD (driller)
TDL  .M               230.100                   : TD (logger)
BS   .MM              159.000                   : Bit size
TIMC .            09-Jan-18 13:45:00.000        : Time circulation ended
TIML .            09-Jan-18 18:45:00.000        : Time logger at bottom
UNIT .              14265                       : Equipment ID
BASE .            LLD                           : Equipment base location
ENG  .            ELLIOT KANE                   : Recording engineer
WIT  .            CLARK HUBER                   : Witnessed by
CSGT .            SURFACE                       : Casing type
CSGS .MM              177.800                   : Casing size
CSGW .KG/M             25.299                   : Casing weight
CSGD .M                88.300                   : Casing bottom (driller)
CSGL .M                88.300                   : Casing bottom (logger)
CSUP .M                 0.000                   : Casing Stick Up GL
MUD  .            POLYMER                       : Mud type
MUDS .            N/A                           : Mud sample source
MUDD .K/M3           1050.000                   : Mud density
MUDV .SEC/L            42.000                   : Mud viscosity
PH   .                  7.000                   : Mud pH
FL   .ML/30MIN          8.000                   : Mud fluid loss rate
RM   .OHMM              4.450                   : Mud resistivity
RMT  .DEGC              9.800                   : Mud sample temperature
RMF  .OHMM        -999999.000                   : Mud filtrate resistivity
RMFT .DEGC        -999999.000                   : Mud filtrate sample temperature
RMC  .OHMM        -999999.000                   : Mud cake resistivity
RMCT .DEGC        -999999.000                   : Mud cake sample temperature
RMBT .OHMM              4.650                   : Mud Resistivity at BHT
BHT  .DEGC              9.000                   : Bottom Hole Temperature
TMAX .DEGC              9.000                   : Max recorded temperature
#
~Other Information
---------------------------------------------------------------------------------------
1)  Run 1: MCB, SHA, MCG, MIM, MIE, MFE, MDM, MRD, MTD, HFS; Run in Combination
      Run 2: MCB, SHA, MCG, MTC, MGS, ISC, MDN, MPD, SKJ, MFE, MAI ; Run in Combination
2) Hardware: MDN: One Dual Neutron Bowspring
                         MAI: Two 12.7 mm standoffs with Bottom Hole Finder Assembly
                         MCG: One 6-leaf centralizer
                         MIE: Two 6-leaf centralizers
                         MSD: Two 6-leaf centralizers                            
3) Total Hole Volume from TD to Surface Casing = 2.2 CuM
4) Hole Volume calculated with Micro Imager calipers
5) Logging requested from KB @ 478.6 m.
6) Tool zero requested from KB. 
7) Magnetic Declanation: 13.39  EAST
8) Easting: 494056.00 ; Northing: 6313159.00
.
---------------------------------------------------------------------------------------
#
#          DEPT           CGXT           GRGM           IECX           IECY           IRBR           ITLT           IAP1           IAZT           DI26           DI48           BTM1           BTM3           BTM5           BTM7            BIT
#
~ASCII Log Data
# ...
          192.3       8.101778      29.351149     156.993866     158.808411      95.112587       0.593924      76.346001     175.193695     157.240112     156.118225       0.002899       0.002149       0.005582       0.002764     159.000000
          192.4       8.147856      28.858202     157.065567     158.808411      94.252571       0.594986      76.469566     176.177216     157.191345     156.582870       0.012240       0.012195       0.009968       0.014259     159.000000
          192.5       8.199835      29.811876     157.256744     158.225357      96.547653       0.598877      76.131271     173.543976     157.509521     156.477325       0.014886       0.015104       0.012038       0.010921     159.000000
          192.6       8.128036      31.857309     157.251968     158.220245      95.460327       0.586662      75.749336     174.249298     157.381836     156.812347       0.005902       0.006329       0.004576       0.006761     159.000000
          192.7       8.092956      33.734913     157.251968     158.215134      94.141853       0.605594      75.621437     175.439819     157.162384     156.440308       0.001298       0.001986       0.001871       0.003523     159.000000
          192.8       8.128333      35.912891     157.218506     158.220245      92.433731       0.607827      75.634766     177.161163     157.401245     156.497803       0.017273       0.002338       0.001685       0.001307     159.000000
          192.9       8.101480      37.220219     157.486160     158.465744      94.161102       0.611242      75.750023     175.549164     157.436005     156.696426       0.008413       0.001302       0.010300       0.010780     159.000000
          193.0       8.137185      37.503502     157.725128     158.465744      98.601471       0.615204      75.776154     171.135178     157.425140     156.819733       0.019737       0.007312       0.013152       0.018201     159.000000
          193.1       8.137394      36.030323     157.710800     158.506653      96.152641       0.601354      76.192497     174.000183     157.033020     157.305603       0.003817       0.003784       0.006717       0.007539     159.000000
          193.2       8.129317      34.458435     157.949768     158.614059      95.395714       0.608917      76.345863     174.910446     157.520508     157.785583       0.001107       0.001509       0.009161       0.001121     159.000000
          193.3       8.142133      32.964390     158.475510     158.056580      94.918785       0.623426      76.570992     175.612488     156.469360     157.330063       0.000947       0.000956       0.001466       0.002078     159.000000
          193.4       8.076414      32.105953     157.223282     158.041245      94.827042       0.620019      76.668236     175.801468     156.117966     156.973328       0.001428       0.001608       0.000730       0.000792     159.000000
          193.5       8.137871      31.414635     157.213730     158.046356      96.928352       0.599327      76.542633     173.574661     156.674133     156.665619       0.001136       0.000894       0.000965       0.002140     159.000000
          193.6       8.144815      31.178095     157.103790     158.046356      95.923698       0.587164      76.527702     174.564301     154.982620     156.825806       0.000942       0.000838       0.000794       0.000808     159.000000
          193.7       8.110838      30.104124     157.051224     158.036133      93.885666       0.583972      76.780045     176.854584     156.250031     156.731476       0.001004       0.001810       0.000815       0.001035     159.000000
          193.8       8.099304      29.367165     156.922180     158.015671      94.262627       0.595038      76.696983     176.394592     157.187500     156.627426       0.001801       0.004062       0.001718       0.001021     159.000000
          193.9       8.148511      28.053856     156.941299     157.734375      94.027328       0.563459      76.611763     176.544632     156.560257     156.655853       0.001313       0.001194       0.001222       0.000957     159.000000
          194.0       8.182160      28.226418     156.912613     157.729263      94.010841       0.565935      76.655235     176.604584     156.857910     156.662338       0.001067       0.001135       0.000905       0.001276     159.000000
          194.1       8.151909      27.825130     156.037964     158.235596      92.765396       0.551365      76.740074     177.934799     156.574432     156.572159       0.000757       0.000936       0.001154       0.001506     159.000000
          194.2       8.181148      28.355757     155.330597     158.828873      92.612587       0.566216      77.158142     178.505676     153.754791     156.625488       0.000779       0.000812       0.001065       0.000966     159.000000
          194.3       8.192265      28.051592     150.407700     159.821075      94.411171       0.571442      77.458374     177.007416     152.537094     157.158356       0.001031       0.001110       0.000802       0.000742     159.000000
          194.4       8.159092      28.165190     155.383179     159.340317      92.087807       0.547435      77.210274     179.082550     157.069977     157.235474       0.000860       0.001158       0.000871       0.000908     159.000000
          194.5       8.113759      27.330881     157.467041     158.465744      95.413757       0.555047      78.473701     177.020203     157.301315     157.001923       0.000850       0.000860       0.000949       0.000738     159.000000
          194.6       8.147498      27.320665     157.715576     158.475967      94.985687       0.560466      78.753777     177.728333     156.954651     156.739044       0.000902       0.000725       0.000689       0.000779     159.000000
          194.7       8.153101      27.125238     157.825500     158.465744      93.043053       0.569267      78.815376     179.732468     156.951050     157.040176       0.000673       0.000913       0.000856       0.000609     159.000000
          194.8       8.066310      27.405222     157.567413     158.465744      93.235550       0.569769      78.725639     179.450241     155.715027     157.116699       0.000781       0.000632       0.000875       0.000758     159.000000
          194.9       8.071526      27.225281     154.135727     158.475967      91.788643       0.554162      78.874466     181.045898     155.104431     157.337601       0.000755       0.000799       0.001111       0.000951     159.000000
          195.0       8.126247      27.491419     154.150055     160.041000      88.452919       0.558823      78.442680     183.949692     156.497803     159.512787       0.000426       0.000839       0.000656       0.000742     159.000000
          195.1       8.074327      27.793863     155.039047     161.186630      89.595840       0.545397      77.512695     181.876831     158.944672     159.864853       0.000855       0.000812       0.000581       0.000699     159.000000
          195.2       8.071526      28.453611     157.763367     160.414352      89.531616       0.526706      77.273216     181.701584     158.177505     158.013855       0.000677       0.000795       0.000568       0.000651     159.000000
          195.3       8.110838      28.633913     155.751190     158.547577      91.975670       0.554141      77.342796     179.327225     156.597717     157.032440       0.000830       0.000569       0.000567       0.000538     159.000000
          195.4       8.125562      28.780390     155.502655     158.562912      89.546852       0.539919      77.195587     181.608704     155.936707     157.297989       0.000983       0.000753       0.001037       0.000904     159.000000
          195.5       8.150985      28.644352     155.569580     159.125504      92.671143       0.550320      76.954880     178.243851     155.663147     156.515320       0.000906       0.000990       0.000894       0.000888     159.000000
          195.6       8.116858      28.236986     156.864822     158.276505      91.029678       0.535877      76.964005     179.894379     157.118896     156.637146       0.000587       0.000603       0.000584       0.000668     159.000000
