~Version Information
VERS .            2.00                          : CWLS Log ASCII Standard - Version 2.00
WRAP .            NO                            : One line per depth step
#
~Well Information
#MNEM.UNIT        DATA                          : DESCRIPTION
#----.----        ----                          : -----------
STRT .M              0.0                        : Start
STOP .M            232.6                        : Stop
STEP .M              0.1                        : Step increment
NULL .            -999.250                      : Null value
COMP .            SUNCOR ENERGY INC.            : Company
WELL .            SUNCOR LEWIS 3-8-92-7         : Well
FLD  .            LEWIS                         : Field
PROV .            ALBERTA                       : Province
CTRY .            Canada                        : State / Country
LOC  .                                          : Location
LOC2 .            03-08-092-07W4                : Location 2
SRVC .            Weatherford                   : Service company
UWI  .            1AA030809207W400              : Unique Well ID
LIC  .            0486896                       : Licence Number
DATE .            25-Jan-2018                   : Logging Date
#
~Curve Information
#MNEM.UNIT        API CODES                     : CURVE DESCRIPTION
#----.----        ---------                     : -----------------
DEPT .M           00 001 00 00                  : Logged depth
GRGM .GAPI        30 310 01 00                  : MGS Gamma Ray
CGXT .DEGC        30 660 01 00                  : MCG External Temperature
IECX .MM          45 000 00 00                  : MIE Caliper X
IECY .MM          45 000 00 00                  : MIE Caliper Y
IRBR .DEG         00 000 00 00                  : Relative Bearing
ITLT .DEG         00 000 00 00                  : Borehole Tilt
IAP1 .DEG         00 000 00 00                  : Azimuth of Reference
IAZT .DEG         00 000 00 00                  : Borehole Azimuth (True)
DI26 .MM          70 280 02 00                  : Imager Diameter 2 - 6
DI48 .MM          70 280 02 00                  : Imager Diameter 4 - 8
BTM1 .MA          45 000 00 00                  : Imager Pad 1 Md. Current
BTM3 .MA          45 000 00 00                  : Imager Pad 3 Md. Current
BTM5 .MA          45 000 00 00                  : Imager Pad 5 Md. Current
BTM7 .MA          45 000 00 00                  : Imager Pad 7 Md. Current
BIT  .MM          70 282 00 00                  : Bit size
#
~Parameter Information
#MNEM.UNIT        VALUE                         : DESCRIPTION
#----.----        -----                         : -----------
RNID .            MAIN PASS                     : Run ID
SON  .            8310-204072557                : Job Number
DREF .            KB                            : Depth reference
EREF .M               478.600                   : Elevation of depth reference
GL   .M               477.400                   : Ground elevation
DDRF .            KB @1.2m                      : Drilling Depth Reference
RUN  .                  1                       : Run number
TDD  .M               230.000                   : TD (driller)
TDL  .M               230.100                   : TD (logger)
BS   .MM              159.000                   : Bit size
TIMC .            09-Jan-18 13:45:00.000        : Time circulation ended
TIML .            09-Jan-18 18:45:00.000        : Time logger at bottom
UNIT .              14265                       : Equipment ID
BASE .            LLD                           : Equipment base location
ENG  .            ELLIOT KANE                   : Recording engineer
WIT  .            CLARK HUBER                   : Witnessed by
CSGT .            SURFACE                       : Casing type
CSGS .MM              177.800                   : Casing size
CSGW .KG/M             25.299                   : Casing weight
CSGD .M                88.300                   : Casing bottom (driller)
CSGL .M                88.300                   : Casing bottom (logger)
CSUP .M                 0.000                   : Casing Stick Up GL
MUD  .            POLYMER                       : Mud type
MUDS .            N/A                           : Mud sample source
MUDD .K/M3           1050.000                   : Mud density
MUDV .SEC/L            42.000                   : Mud viscosity
PH   .                  7.000                   : Mud pH
FL   .ML/30MIN          8.000                   : Mud fluid loss rate
RM   .OHMM              4.450                   : Mud resistivity
RMT  .DEGC              9.800                   : Mud sample temperature
RMF  .OHMM        -999999.000                   : Mud filtrate resistivity
RMFT .DEGC        -999999.000                   : Mud filtrate sample temperature
RMC  .OHMM        -999999.000                   : Mud cake resistivity
RMCT .DEGC        -999999.000                   : Mud cake sample temperature
RMBT .OHMM              4.650                   : Mud Resistivity at BHT
BHT  .DEGC              9.000                   : Bottom Hole Temperature
TMAX .DEGC              9.000                   : Max recorded temperature
#
~Other Information
---------------------------------------------------------------------------------------
1)  Run 1: MCB, SHA, MCG, MIM, MIE, MFE, MDM, MRD, MTD, HFS; Run in Combination
      Run 2: MCB, SHA, MCG, MTC, MGS, ISC, MDN, MPD, SKJ, MFE, MAI ; Run in Combination
2) Hardware: MDN: One Dual Neutron Bowspring
                         MAI: Two 12.7 mm standoffs with Bottom Hole Finder Assembly
                         MCG: One 6-leaf centralizer
                         MIE: Two 6-leaf centralizers
                         MSD: Two 6-leaf centralizers                            
3) Total Hole Volume from TD to Surface Casing = 2.7 CuM
4) Hole Volume calculated with Micro Imager calipers
5) Logging requested from KB @ 478.6 m.
6) Tool zero requested from KB. 
7) Magnetic Declanation: 13.39  EAST
8) Easting: 494056.00 ; Northing: 6313159.00
.
---------------------------------------------------------------------------------------
#
#          DEPT           GRGM           CGXT           IECX           IECY           IRBR           ITLT           IAP1           IAZT           DI26           DI48           BTM1           BTM3           BTM5           BTM7            BIT
#
~ASCII Log Data
# ...
           71.4      29.710958       7.366585    -999.250000    -999.250000    -999.250000    -999.250000    -999.250000    -999.250000    -999.250000    -999.250000       0.000000       0.000000       0.000000       0.000000     251.000000
           71.5      31.100374       7.412663    -999.250000    -999.250000    -999.250000    -999.250000    -999.250000    -999.250000    -999.250000    -999.250000       0.000000       0.000000       0.000000       0.000000     251.000000
           71.6      32.999226       7.376779    -999.250000    -999.250000    -999.250000    -999.250000    -999.250000    -999.250000    -999.250000    -999.250000       0.000000       0.000000       0.000000       0.000000     251.000000
           71.7      34.426918       7.414362    -999.250000    -999.250000    -999.250000    -999.250000    -999.250000    -999.250000    -999.250000    -999.250000       0.000000       0.000000       0.000000       0.000000     251.000000
           71.8      36.235325       7.335946    -999.250000    -999.250000    -999.250000    -999.250000    -999.250000    -999.250000    -999.250000    -999.250000       0.000000       0.000000       0.000000       0.000000     251.000000
           71.9      37.180771       7.375050    -999.250000    -999.250000    -999.250000    -999.250000    -999.250000    -999.250000    -999.250000    -999.250000       0.000000       0.000000       0.000000       0.000000     251.000000
           72.0      38.689102       7.406732    -999.250000    -999.250000    -999.250000    -999.250000    -999.250000    -999.250000    -999.250000    -999.250000       0.000000       0.000000       0.000000       0.000000     251.000000
           72.1      40.083271       7.409415    -999.250000    -999.250000    -999.250000    -999.250000    -999.250000    -999.250000    -999.250000    -999.250000       0.000000       0.000000       0.000000       0.000000     251.000000
           72.2      41.981689       7.368374     163.675613     164.117218    -999.250000    -999.250000    -999.250000    -999.250000    -999.250000    -999.250000       0.532874       1.525715       1.052641       0.538199     251.000000
           72.3      42.859043       7.388432     164.349533     164.127441     163.063812       0.719521     241.665451     272.562897     163.287903     158.588928       0.507479       1.514656       1.123909       0.537584     251.000000
           72.4      43.792351       7.405719     164.402100     164.106995     162.874222       0.717059     199.135773     230.222824     163.290527     158.236328       0.507479       1.514656       1.123909       0.537584     251.000000
           72.5      44.682487       7.426821     164.387772     164.101883     162.681183       0.714617     182.574585     213.854675     162.692810     158.367828       0.532874       1.525715       1.052641       0.538199     251.000000
           72.6      45.674290       7.376481     164.483353     164.127441     161.991333       0.735283     209.969604     241.939651     162.237595     158.509155       0.507479       1.514656       1.123909       0.537584     251.000000
           72.7      45.878345       7.353322     164.464233     164.112106     161.759048       0.740611     256.145966     288.348328     162.425537     158.346298       0.532874       1.525715       1.052641       0.538199     251.000000
           72.8      46.181728       7.442200     164.454681     164.096756     162.691055       0.726192     244.636734     275.906982     162.793060     159.434616       0.532874       1.525715       1.052641       0.538199     251.000000
           72.9      45.874016       7.409296     164.951752     164.311569     162.139603       0.739763     244.176422     275.998199     163.011749     162.357971       0.532874       1.525715       1.052641       0.538199     251.000000
           73.0      45.386894       7.434838     164.913513     164.766754     164.676743       0.717893     240.095398     269.379791     162.882599     162.752075       0.532874       1.525715       1.052641       0.538199     251.000000
           73.1      43.262737       7.450068     164.985199     164.792328     163.473877       0.722494     181.224945     211.712311     163.222656     162.661194       0.507479       1.514656       1.123909       0.537584     251.000000
           73.2      41.987270       7.425927     164.832260     164.771866     165.005325       0.718206     179.851181     208.806992     163.268066     162.601517       0.532874       1.525715       1.052641       0.538199     251.000000
           73.3      40.591259       7.395377     164.846603     164.771866     165.100235       0.727915     149.039078     177.899994     163.172424     162.554565       0.507479       1.514656       1.123909       0.537584     251.000000
           73.4      40.415241       7.399192     165.424927     164.756531     165.356537       0.689455     169.506607     198.111084     163.040833     162.700623       0.532874       1.525715       1.052641       0.538199     251.000000
           73.5      39.109604       7.411680     165.472717     164.863937     165.372314       0.718556     235.988129     264.576904     163.156708     162.758774       0.507479       1.514656       1.123909       0.537584     251.000000
           73.6      38.246357       7.357137     165.520508     165.155457     166.362656       0.711040     306.154449     333.752808     163.208740     163.854614       0.507479       1.514656       1.123909       0.537584     251.000000
           73.7      35.951599       7.374752     166.012802     165.283310     166.661331       0.726024      32.090221      59.389923     163.473175     165.317322       0.507479       1.514656       1.123909       0.537584     251.000000
           73.8      34.134987       7.331058     166.055817     165.267975     166.614914       0.731893      45.838581      73.184715     164.433945     165.814758       0.507479       1.514656       1.123909       0.537584     251.000000
           73.9      32.127983       7.397046     166.117950     165.288437     165.922043       0.735849      14.370843      42.409916     164.848389     165.865158       0.532874       1.525715       1.052641       0.538199     251.000000
           74.0      30.862572       7.328733     166.409500     165.283310     164.697983       0.750828       2.969273      32.232544     164.848480     166.007324       0.507479       1.514656       1.123909       0.537584     251.000000
           74.1      29.682835       7.435554     166.638916     165.170792     164.489563       0.734396     326.602112     356.073792     165.133240     166.865356       0.532874       1.525715       1.052641       0.538199     251.000000
           74.2      29.313099       7.411233     167.021271     165.165680     163.999222       0.752547     262.601807     292.563873     165.323486     166.981262       0.532874       1.525715       1.052641       0.538199     251.000000
           74.3      29.246513       7.400354     167.073853     165.073624     162.624039       0.751231     172.703186     204.040543     165.405243     167.002625       0.507479       1.514656       1.123909       0.537584     251.000000
           74.4      29.278563       7.451797     167.126419     165.094086     163.151718       0.768776      78.948860     109.758575     165.248047     167.036438       0.532874       1.525715       1.052641       0.538199     251.000000
           74.5      29.968836       7.415376     167.040390     165.012253     163.029678       0.779088      57.431564      88.363365     165.179779     167.030182       0.507479       1.514656       1.123909       0.537584     251.000000
           74.6      31.994465       7.452662     167.064285     164.879272     163.564911       0.779474      54.849705      85.246231     165.088440     167.036224       0.532874       1.525715       1.052641       0.538199     251.000000
           74.7      35.428856       7.434033     166.940018     164.863937     162.652298       0.791084      54.979267      86.288521     164.979187     166.973480       0.507479       1.514656       1.123909       0.537584     251.000000
