~Version Information
VERS .            2.00                          : CWLS Log ASCII Standard - Version 2.00
WRAP .            NO                            : One line per depth step
#
~Well Information
#MNEM.UNIT        DATA                          : DESCRIPTION
#----.----        ----                          : -----------
STRT .M              0.0                        : Start
STOP .M            232.6                        : Stop
STEP .M              0.1                        : Step increment
NULL .            -999.250                      : Null value
COMP .            SUNCOR ENERGY INC.            : Company
WELL .            SUNCOR LEWIS 3-8-92-7         : Well
FLD  .            LEWIS                         : Field
PROV .            ALBERTA                       : Province
CTRY .            Canada                        : State / Country
LOC  .                                          : Location
LOC2 .            03-08-092-07W4                : Location 2
SRVC .            Weatherford                   : Service company
UWI  .            1AA030809207W400              : Unique Well ID
LIC  .            0486896                       : Licence Number
DATE .            25-Jan-2018                   : Logging Date
#
~Curve Information
#MNEM.UNIT        API CODES                     : CURVE DESCRIPTION
#----.----        ---------                     : -----------------
DEPT .M           00 001 00 00                  : Logged depth
GRGM .GAPI        30 310 01 00                  : MGS Gamma Ray
CGXT .DEGC        30 660 01 00                  : MCG External Temperature
IECX .MM          45 000 00 00                  : MIE Caliper X
IECY .MM          45 000 00 00                  : MIE Caliper Y
IRBR .DEG         00 000 00 00                  : Relative Bearing
ITLT .DEG         00 000 00 00                  : Borehole Tilt
IAP1 .DEG         00 000 00 00                  : Azimuth of Reference
IAZT .DEG         00 000 00 00                  : Borehole Azimuth (True)
DI26 .MM          70 280 02 00                  : Imager Diameter 2 - 6
DI48 .MM          70 280 02 00                  : Imager Diameter 4 - 8
BTM1 .MA          45 000 00 00                  : Imager Pad 1 Md. Current
BTM3 .MA          45 000 00 00                  : Imager Pad 3 Md. Current
BTM5 .MA          45 000 00 00                  : Imager Pad 5 Md. Current
BTM7 .MA          45 000 00 00                  : Imager Pad 7 Md. Current
BIT  .MM          70 282 00 00                  : Bit size
#
~Parameter Information
#MNEM.UNIT        VALUE                         : DESCRIPTION
#----.----        -----                         : -----------
RNID .            MAIN PASS                     : Run ID
SON  .            8310-204072557                : Job Number
DREF .            KB                            : Depth reference
EREF .M               478.600                   : Elevation of depth reference
GL   .M               477.400                   : Ground elevation
DDRF .            KB @1.2m                      : Drilling Depth Reference
RUN  .                  1                       : Run number
TDD  .M               230.000                   : TD (driller)
TDL  .M               230.100                   : TD (logger)
BS   .MM              159.000                   : Bit size
TIMC .            09-Jan-18 13:45:00.000        : Time circulation ended
TIML .            09-Jan-18 18:45:00.000        : Time logger at bottom
UNIT .              14265                       : Equipment ID
BASE .            LLD                           : Equipment base location
ENG  .            ELLIOT KANE                   : Recording engineer
WIT  .            CLARK HUBER                   : Witnessed by
CSGT .            SURFACE                       : Casing type
CSGS .MM              177.800                   : Casing size
CSGW .KG/M             25.299                   : Casing weight
CSGD .M                88.300                   : Casing bottom (driller)
CSGL .M                88.300                   : Casing bottom (logger)
CSUP .M                 0.000                   : Casing Stick Up GL
MUD  .            POLYMER                       : Mud type
MUDS .            N/A                           : Mud sample source
MUDD .K/M3           1050.000                   : Mud density
MUDV .SEC/L            42.000                   : Mud viscosity
PH   .                  7.000                   : Mud pH
FL   .ML/30MIN          8.000                   : Mud fluid loss rate
RM   .OHMM              4.450                   : Mud resistivity
RMT  .DEGC              9.800                   : Mud sample temperature
RMF  .OHMM        -999999.000                   : Mud filtrate resistivity
RMFT .DEGC        -999999.000                   : Mud filtrate sample temperature
RMC  .OHMM        -999999.000                   : Mud cake resistivity
RMCT .DEGC        -999999.000                   : Mud cake sample temperature
RMBT .OHMM              4.650                   : Mud Resistivity at BHT
BHT  .DEGC              9.000                   : Bottom Hole Temperature
TMAX .DEGC              9.000                   : Max recorded temperature
#
~Other Information
---------------------------------------------------------------------------------------
1)  Run 1: MCB, SHA, MCG, MIM, MIE, MFE, MDM, MRD, MTD, HFS; Run in Combination
      Run 2: MCB, SHA, MCG, MTC, MGS, ISC, MDN, MPD, SKJ, MFE, MAI ; Run in Combination
2) Hardware: MDN: One Dual Neutron Bowspring
                         MAI: Two 12.7 mm standoffs with Bottom Hole Finder Assembly
                         MCG: One 6-leaf centralizer
                         MIE: Two 6-leaf centralizers
                         MSD: Two 6-leaf centralizers                            
3) Total Hole Volume from TD to Surface Casing = 2.7 CuM
4) Hole Volume calculated with Micro Imager calipers
5) Logging requested from KB @ 478.6 m.
6) Tool zero requested from KB. 
7) Magnetic Declanation: 13.39  EAST
8) Easting: 494056.00 ; Northing: 6313159.00
.
---------------------------------------------------------------------------------------
#
#          DEPT           GRGM           CGXT           IECX           IECY           IRBR           ITLT           IAP1           IAZT           DI26           DI48           BTM1           BTM3           BTM5           BTM7            BIT
#
~ASCII Log Data
# ...
          180.2      53.493164       8.383611     156.539810     157.882690      93.704308       0.550720      76.063896     176.319763     156.909119     156.957565       0.008064       0.008550       0.009277       0.008902     159.000000
          180.3      49.981869       8.414280     157.199387     157.887802      94.138351       0.543691      75.537598     175.359436     156.897415     157.116974       0.007798       0.005222       0.003022       0.002084     159.000000
          180.4      45.117916       8.384267     156.812241     157.892929      94.018951       0.559476      75.060280     175.001511     157.048981     156.915115       0.003475       0.005019       0.005245       0.002520     159.000000
          180.5      40.266521       8.394132     156.769226     157.887802      93.237556       0.548610      74.728592     175.451172     156.862213     156.772293       0.006131       0.007209       0.003042       0.006950     159.000000
          180.6      37.421642       8.395592     156.630630     157.898041      92.951012       0.541434      74.475494     175.484619     157.024445     156.808533       0.002015       0.001488       0.001996       0.002766     159.000000
          180.7      36.108154       8.353209     156.630630     157.550262      92.132286       0.563109      74.386902     176.214706     156.682800     156.599289       0.001284       0.001136       0.000960       0.001926     159.000000
          180.8      37.126682       8.402656     156.640182     157.294525      91.039413       0.544340      74.537628     177.458252     156.653641     156.335785       0.001647       0.001616       0.001485       0.001349     159.000000
          180.9      38.022961       8.409243     156.630630     157.289413      94.048546       0.555058      74.363388     174.275040     156.262146     156.139755       0.002044       0.001877       0.002617       0.003990     159.000000
          181.0      39.678387       8.414399     156.253052     157.284302      91.022545       0.558625      74.364128     177.301636     155.851257     155.990234       0.008301       0.005353       0.005315       0.003809     159.000000
          181.1      40.630783       8.371629     156.248260     157.376358      91.443871       0.549754      74.531494     177.047684     156.150269     155.665207       0.010896       0.005009       0.010812       0.013408     159.000000
          181.2      41.574780       8.413653     155.908920     157.785522      92.583015       0.550146      74.653938     176.031036     155.781738     155.220215       0.013478       0.009917       0.012204       0.011932     159.000000
          181.3      41.080723       8.376845     156.597168     157.790634      92.430420       0.555312      74.461525     175.991226     156.209717     156.269592       0.012860       0.010374       0.014124       0.017868     159.000000
          181.4      40.193810       8.347308     156.817032     157.995209      93.576881       0.562964      74.302948     174.686234     156.799332     156.066864       0.006931       0.006739       0.008854       0.012512     159.000000
          181.5      39.484463       8.410196     157.438370     157.944061      92.097961       0.556243      74.370613     176.232742     155.761566     156.725342       0.003584       0.006877       0.016595       0.003750     159.000000
          181.6      39.450142       8.398304     154.666245     157.954300      92.873192       0.563393      74.252022     175.338974     154.839539     156.155457       0.002920       0.003601       0.004750       0.005197     159.000000
          181.7      39.966923       8.397440     154.231308     157.954300      90.251259       0.551603      74.025230     177.733978     154.943787     156.004196       0.010742       0.012755       0.014073       0.012092     159.000000
          181.8      41.570843       8.413057     155.220673     157.938950      91.561317       0.551569      73.516388     175.915131     155.666290     156.022217       0.005761       0.012022       0.007465       0.005213     159.000000
          181.9      44.870667       8.427334     155.263687     157.949188      93.626183       0.554786      73.178078     173.512054     155.397644     155.893539       0.011001       0.010476       0.011353       0.007331     159.000000
          182.0      50.028278       8.332108     155.263687     157.949188      92.939621       0.555538      72.627258     173.647766     155.549774     155.924164       0.019558       0.015833       0.013491       0.012508     159.000000
          182.1      55.202614       8.385190     154.608887     157.954300      91.452805       0.558569      72.705284     175.212540     154.968719     156.161011       0.024204       0.016755       0.019449       0.014912     159.000000
          182.2      59.758595       8.396873     154.599335     157.944061      94.741264       0.567767      72.057274     171.276230     156.409485     155.610443       0.028198       0.012227       0.023379       0.021452     159.000000
          182.3      61.630749       8.427900     155.784653     157.933838      92.299210       0.564848      71.849220     173.510132     155.961380     156.333771       0.023500       0.026060       0.028390       0.024710     159.000000
          182.4      60.755169       8.360750     155.770309     157.938950      93.971542       0.567185      71.662788     171.651443     154.638519     156.383133       0.021868       0.023865       0.032037       0.016633     159.000000
          182.5      56.193027       8.384684     155.239792     157.949188      92.203941       0.560318      71.637047     173.393204     154.394424     156.347809       0.027084       0.025100       0.021651       0.024818     159.000000
          182.6      49.442936       8.409422     155.789429     157.570709      92.890800       0.559758      71.176155     172.245499     156.877350     156.122253       0.029414       0.018124       0.018739       0.029234     159.000000
          182.7      41.981236       8.426530     156.606735     157.432617      93.904701       0.577050      71.306602     171.362106     156.806091     155.999023       0.016115       0.020876       0.016576       0.019059     159.000000
          182.8      36.063156       8.368172     156.597168     157.432617      93.868752       0.582400      71.049400     171.140839     156.558044     156.022278       0.021100       0.017183       0.020025       0.019468     159.000000
          182.9      31.899868       8.386382     155.755981     157.437744      94.166817       0.590152      70.965668     170.759079     155.456238     156.053497       0.021715       0.019334       0.031218       0.018495     159.000000
          183.0      29.386417       8.382716     155.741638     157.355911      92.813194       0.580714      70.603287     171.750244     155.496063     155.720642       0.023692       0.017862       0.024684       0.019308     159.000000
          183.1      28.046772       8.389989     156.998642     157.340561      91.291908       0.583822      70.224197     172.892365     154.727371     155.566406       0.024850       0.016819       0.020479       0.019596     159.000000
          183.2      27.982988       8.364148     156.993866     157.350784      92.236778       0.581500      70.152084     171.875427     154.647934     154.794052       0.022943       0.017843       0.018867       0.020460     159.000000
          183.3      28.168486       8.404623     156.869598     157.606522      93.817741       0.590161      69.727745     169.870193     155.984482     154.986359       0.019347       0.021913       0.022598       0.027801     159.000000
          183.4      28.202658       8.384356     156.821808     157.637207      92.471756       0.581809      69.730125     171.218506     156.701630     155.385513       0.020780       0.019398       0.019801       0.016064     159.000000
          183.5      28.029453       8.386710     156.444229     157.642319      92.398384       0.590210      69.865036     171.426788     156.746338     155.865784       0.021075       0.019532       0.017849       0.024153     159.000000
