~Version Information
VERS .            2.00                          : CWLS Log ASCII Standard - Version 2.00
WRAP .            NO                            : One line per depth step
#
~Well Information
#MNEM.UNIT        DATA                          : DESCRIPTION
#----.----        ----                          : -----------
STRT .M            171.9                        : Start
STOP .M            232.6                        : Stop
STEP .M              0.1                        : Step increment
NULL .            -999.250                      : Null value
COMP .            SUNCOR ENERGY INC.            : Company
WELL .            SUNCOR LEWIS 3-8-92-7         : Well
FLD  .            LEWIS                         : Field
PROV .            ALBERTA                       : Province
CTRY .            Canada                        : State / Country
LOC  .                                          : Location
LOC2 .            03-08-092-07W4                : Location 2
SRVC .            Weatherford                   : Service company
UWI  .            1AA140509207W400              : Unique Well ID
LIC  .            0486895                       : Licence Number
DATE .            25-Jan-2018                   : Logging Date
#
~Curve Information
#MNEM.UNIT        API CODES                     : CURVE DESCRIPTION
#----.----        ---------                     : -----------------
DEPT .M           00 001 00 00                  : Logged depth
CGXT .DEGC        30 660 01 00                  : MCG External Temperature
GRGM .GAPI        30 310 01 00                  : MGS Gamma Ray
IECX .MM          45 000 00 00                  : MIE Caliper X
IECY .MM          45 000 00 00                  : MIE Caliper Y
IRBR .DEG         00 000 00 00                  : Relative Bearing
ITLT .DEG         00 000 00 00                  : Borehole Tilt
IAP1 .DEG         00 000 00 00                  : Azimuth of Reference
IAZT .DEG         00 000 00 00                  : Borehole Azimuth (True)
DI26 .MM          70 280 02 00                  : Imager Diameter 2 - 6
DI48 .MM          70 280 02 00                  : Imager Diameter 4 - 8
BTM1 .MA          45 000 00 00                  : Imager Pad 1 Md. Current
BTM3 .MA          45 000 00 00                  : Imager Pad 3 Md. Current
BTM5 .MA          45 000 00 00                  : Imager Pad 5 Md. Current
BTM7 .MA          45 000 00 00                  : Imager Pad 7 Md. Current
BIT  .MM          70 282 00 00                  : Bit size
#
~Parameter Information
#MNEM.UNIT        VALUE                         : DESCRIPTION
#----.----        -----                         : -----------
RNID .            MAIN PASS                     : Run ID
SON  .            8310-204072557                : Job Number
DREF .            KB                            : Depth reference
EREF .M               478.600                   : Elevation of depth reference
GL   .M               477.400                   : Ground elevation
DDRF .            KB @1.2m                      : Drilling Depth Reference
RUN  .                  1                       : Run number
TDD  .M               230.000                   : TD (driller)
TDL  .M               230.100                   : TD (logger)
BS   .MM              159.000                   : Bit size
TIMC .            09-Jan-18 13:45:00.000        : Time circulation ended
TIML .            09-Jan-18 18:45:00.000        : Time logger at bottom
UNIT .              14265                       : Equipment ID
BASE .            LLD                           : Equipment base location
ENG  .            ELLIOT KANE                   : Recording engineer
WIT  .            CLARK HUBER                   : Witnessed by
CSGT .            SURFACE                       : Casing type
CSGS .MM              177.800                   : Casing size
CSGW .KG/M             25.299                   : Casing weight
CSGD .M                88.300                   : Casing bottom (driller)
CSGL .M                88.300                   : Casing bottom (logger)
CSUP .M                 0.000                   : Casing Stick Up GL
MUD  .            POLYMER                       : Mud type
MUDS .            N/A                           : Mud sample source
MUDD .K/M3           1050.000                   : Mud density
MUDV .SEC/L            42.000                   : Mud viscosity
PH   .                  7.000                   : Mud pH
FL   .ML/30MIN          8.000                   : Mud fluid loss rate
RM   .OHMM              4.450                   : Mud resistivity
RMT  .DEGC              9.800                   : Mud sample temperature
RMF  .OHMM        -999999.000                   : Mud filtrate resistivity
RMFT .DEGC        -999999.000                   : Mud filtrate sample temperature
RMC  .OHMM        -999999.000                   : Mud cake resistivity
RMCT .DEGC        -999999.000                   : Mud cake sample temperature
RMBT .OHMM              4.650                   : Mud Resistivity at BHT
BHT  .DEGC              9.000                   : Bottom Hole Temperature
TMAX .DEGC              9.000                   : Max recorded temperature
#
~Other Information
---------------------------------------------------------------------------------------
1)  Run 1: MCB, SHA, MCG, MIM, MIE, MFE, MDM, MRD, MTD, HFS; Run in Combination
      Run 2: MCB, SHA, MCG, MTC, MGS, ISC, MDN, MPD, SKJ, MFE, MAI ; Run in Combination
2) Hardware: MDN: One Dual Neutron Bowspring
                         MAI: Two 12.7 mm standoffs with Bottom Hole Finder Assembly
                         MCG: One 6-leaf centralizer
                         MIE: Two 6-leaf centralizers
                         MSD: Two 6-leaf centralizers                            
3) Total Hole Volume from TD to Surface Casing = 2.2 CuM
4) Hole Volume calculated with Micro Imager calipers
5) Logging requested from KB @ 478.6 m.
6) Tool zero requested from KB. 
7) Magnetic Declanation: 13.39  EAST
8) Easting: 494056.00 ; Northing: 6313159.00
.
---------------------------------------------------------------------------------------
#
#          DEPT           CGXT           GRGM           IECX           IECY           IRBR           ITLT           IAP1           IAZT           DI26           DI48           BTM1           BTM3           BTM5           BTM7            BIT
#
~ASCII Log Data
# ...
          202.5       7.951115      44.640629     156.740555     155.872711      94.565544       0.436095      78.766975     177.605392     156.002075     154.297852       0.008950       0.002058       0.006443       0.007462     159.000000
          202.6       7.938835      41.344917     152.807022     155.678360      95.131821       0.442899      78.431152     176.663467     156.809586     152.918198       0.003206       0.002965       0.004305       0.000970     159.000000
          202.7       7.963752      37.718857     150.254761     156.333008      93.110565       0.487639      79.207024     179.506866     157.508408     154.738647       0.002740       0.002499       0.002452       0.007158     159.000000
          202.8       8.015672      33.473293     157.815948     159.099930      93.073547       0.471930      80.016190     180.402695     157.949921     158.051178       0.001279       0.002914       0.000593       0.001393     159.000000
          202.9       7.956062      31.211422     160.683655     159.401688      94.705673       0.483925      79.364052     178.017441     159.727264     159.474609       0.002740       0.000200       0.004419       0.007376     159.000000
          203.0       7.940505      29.895531     161.596527     161.217316      92.220528       0.431972      79.092224     180.372513     160.020096     158.373688       0.000451       0.000397       0.000589       0.001248     159.000000
          203.1       7.968253      29.691368     156.186127     159.555130      92.794174       0.452133      78.828682     179.482727     157.653824     156.554688       0.000464       0.000468       0.001616       0.001708     159.000000
          203.2       7.908017      28.503265     155.990173     158.025894      93.425659       0.436227      78.729088     178.744751     156.563416     156.642822       0.001166       0.000343       0.000616       0.001750     159.000000
          203.3       7.908196      27.230753     156.487244     158.153763      91.943672       0.444808      78.558197     180.091537     156.515839     156.281784       0.001784       0.000754       0.001347       0.002252     159.000000
          203.4       7.911117      25.265802     156.754898     159.069244      95.799637       0.441018      78.264725     175.803726     156.222839     158.503098       0.002039       0.001213       0.001873       0.001996     159.000000
          203.5       7.882833      23.053644     158.996475     160.199539      93.097214       0.420378      78.039093     178.390182     161.067688     161.808121       0.000634       0.000910       0.000456       0.000657     159.000000
          203.6       7.907958      21.090210     160.090988     163.636459      95.135292       0.444605      78.217621     176.435760     151.871185     161.304184       0.000694       0.000483       0.000599       0.000590     159.000000
          203.7       7.951502      20.401936     160.956085     163.713181     102.826797       0.478478      79.111084     169.341125     155.153442     163.694077       0.000590       0.000657       0.000485       0.000598     159.000000
          203.8       7.926824      20.775881     163.905045     164.490570      97.635971       0.449609      78.530205     174.164124     164.337448     162.818420       0.000669       0.000721       0.000589       0.000898     159.000000
          203.9       7.955228      21.850140     163.393631     165.109421      99.646149       0.463524      77.137802     170.624878     163.988174     162.393250       0.000356       0.000267       0.000491       0.000771     159.000000
          204.0       7.975793      23.187458     163.102081     165.068512      98.191803       0.434672      76.854393     171.886948     163.753372     162.813217       0.000396       0.000381       0.000336       0.000463     159.000000
          204.1       7.939402      24.555372     162.146179     164.966217      93.949532       0.445629      77.071846     176.474884     163.103226     161.738953       0.000509       0.000216       0.000629       0.000643     159.000000
          204.2       7.852968      25.182306     160.846146     164.117218      97.775238       0.438789      77.502808     172.974792     163.327835     160.023560       0.000384       0.000505       0.000542       0.000528     159.000000
          204.3       7.893234      25.630787     160.377762     162.751663      99.562340       0.475858      77.810730     171.379852     160.638794     158.624435       0.000457       0.000539       0.000588       0.000551     159.000000
          204.4       7.922532      25.536861     160.358643     159.841537      96.720261       0.414819      77.742310     174.349319     161.394333     158.044525       0.000271       0.000294       0.000347       0.001099     159.000000
          204.5       7.946108      26.176329     160.717102     159.892670      91.910011       0.398877      77.725914     179.316879     162.360596     158.598969       0.000381       0.000299       0.000556       0.000871     159.000000
          204.6       7.900089      26.523996     163.255020     162.766998      88.404930       0.418454      77.789642     182.981720     163.577759     160.299255       0.000701       0.000549       0.000515       0.000226     159.000000
          204.7       7.909418      27.028347     162.375595     162.414108      87.542274       0.375593      77.699677     183.816559     162.066772     160.083374       0.000572       0.000417       0.000387       0.000961     159.000000
          204.8       7.874308      26.541294     161.658661     162.567535      85.458893       0.410988      77.717705     185.958511     160.089294     160.241989       0.000664       0.000609       0.000370       0.000305     159.000000
          204.9       7.880299      26.787449     161.109024     159.769928      86.619270       0.368458      77.922874     185.002029     158.327179     159.546509       0.000631       0.000538       0.000519       0.000347     159.000000
          205.0       7.883011      26.905573     156.544601     155.407303      82.754875       0.356898      77.868027     188.930206     156.907135     154.715027       0.000347       0.000295       0.000491       0.000649     159.000000
          205.1       7.828618      27.315525     156.860046     153.970139      76.923492       0.345073      77.319275     194.366989     156.427597     155.906128       0.000475       0.000809       0.000761       0.000702     159.000000
          205.2       7.958983      26.942812     156.917389     154.476471      74.783737       0.353425      77.406128     196.658493     156.208527     155.642883       0.001394       0.013824       0.005673       0.000879     159.000000
          205.3       7.915230      26.800083     156.955627     155.780655      79.420082       0.350450      77.484848     191.969070     156.953552     156.481415       0.004518       0.008854       0.005933       0.008374     159.000000
          205.4       7.938537      26.089436     158.394257     158.465744      81.660248       0.292876      77.147026     189.338593     159.119888     158.458649       0.000778       0.000599       0.000510       0.000400     159.000000
          205.5       7.878749      25.127710     158.843536     159.836411      79.004761       0.313846      77.156868     192.064468     158.778381     161.649551       0.000456       0.000466       0.000490       0.000375     159.000000
          205.6       7.899940      23.103182     157.146805     158.752151      81.667908       0.286473      77.113922     189.299164     156.581390     159.997131       0.000427       0.001088       0.000243       0.000243     159.000000
          205.7       7.890462      21.832621     157.122910     158.695892      84.035515       0.314401      77.216515     186.965546     159.044144     160.829330       0.000422       0.000329       0.000335       0.000328     159.000000
          205.8       8.056266      20.364515     161.376678     158.695892      82.227570       0.314369      77.136040     188.737350     158.932144     161.046753       0.000593       0.000880       0.000712       0.000413     159.000000
