~Version Information
VERS .            2.00                          : CWLS Log ASCII Standard - Version 2.00
WRAP .            NO                            : One line per depth step
#
~Well Information
#MNEM.UNIT        DATA                          : DESCRIPTION
#----.----        ----                          : -----------
STRT .M              0.0                        : Start
STOP .M            232.6                        : Stop
STEP .M              0.1                        : Step increment
NULL .            -999.250                      : Null value
COMP .            SUNCOR ENERGY INC.            : Company
WELL .            SUNCOR LEWIS 3-8-92-7         : Well
FLD  .            LEWIS                         : Field
PROV .            ALBERTA                       : Province
CTRY .            Canada                        : State / Country
LOC  .                                          : Location
LOC2 .            03-08-092-07W4                : Location 2
SRVC .            Weatherford                   : Service company
UWI  .            1AA030809207W400              : Unique Well ID
LIC  .            0486896                       : Licence Number
DATE .            25-Jan-2018                   : Logging Date
#
~Curve Information
#MNEM.UNIT        API CODES                     : CURVE DESCRIPTION
#----.----        ---------                     : -----------------
DEPT .M           00 001 00 00                  : Logged depth
GRGM .GAPI        30 310 01 00                  : MGS Gamma Ray
CGXT .DEGC        30 660 01 00                  : MCG External Temperature
IECX .MM          45 000 00 00                  : MIE Caliper X
IECY .MM          45 000 00 00                  : MIE Caliper Y
IRBR .DEG         00 000 00 00                  : Relative Bearing
ITLT .DEG         00 000 00 00                  : Borehole Tilt
IAP1 .DEG         00 000 00 00                  : Azimuth of Reference
IAZT .DEG         00 000 00 00                  : Borehole Azimuth (True)
DI26 .MM          70 280 02 00                  : Imager Diameter 2 - 6
DI48 .MM          70 280 02 00                  : Imager Diameter 4 - 8
BTM1 .MA          45 000 00 00                  : Imager Pad 1 Md. Current
BTM3 .MA          45 000 00 00                  : Imager Pad 3 Md. Current
BTM5 .MA          45 000 00 00                  : Imager Pad 5 Md. Current
BTM7 .MA          45 000 00 00                  : Imager Pad 7 Md. Current
BIT  .MM          70 282 00 00                  : Bit size
#
~Parameter Information
#MNEM.UNIT        VALUE                         : DESCRIPTION
#----.----        -----                         : -----------
RNID .            MAIN PASS                     : Run ID
SON  .            8310-204072557                : Job Number
DREF .            KB                            : Depth reference
EREF .M               478.600                   : Elevation of depth reference
GL   .M               477.400                   : Ground elevation
DDRF .            KB @1.2m                      : Drilling Depth Reference
RUN  .                  1                       : Run number
TDD  .M               230.000                   : TD (driller)
TDL  .M               230.100                   : TD (logger)
BS   .MM              159.000                   : Bit size
TIMC .            09-Jan-18 13:45:00.000        : Time circulation ended
TIML .            09-Jan-18 18:45:00.000        : Time logger at bottom
UNIT .              14265                       : Equipment ID
BASE .            LLD                           : Equipment base location
ENG  .            ELLIOT KANE                   : Recording engineer
WIT  .            CLARK HUBER                   : Witnessed by
CSGT .            SURFACE                       : Casing type
CSGS .MM              177.800                   : Casing size
CSGW .KG/M             25.299                   : Casing weight
CSGD .M                88.300                   : Casing bottom (driller)
CSGL .M                88.300                   : Casing bottom (logger)
CSUP .M                 0.000                   : Casing Stick Up GL
MUD  .            POLYMER                       : Mud type
MUDS .            N/A                           : Mud sample source
MUDD .K/M3           1050.000                   : Mud density
MUDV .SEC/L            42.000                   : Mud viscosity
PH   .                  7.000                   : Mud pH
FL   .ML/30MIN          8.000                   : Mud fluid loss rate
RM   .OHMM              4.450                   : Mud resistivity
RMT  .DEGC              9.800                   : Mud sample temperature
RMF  .OHMM        -999999.000                   : Mud filtrate resistivity
RMFT .DEGC        -999999.000                   : Mud filtrate sample temperature
RMC  .OHMM        -999999.000                   : Mud cake resistivity
RMCT .DEGC        -999999.000                   : Mud cake sample temperature
RMBT .OHMM              4.650                   : Mud Resistivity at BHT
BHT  .DEGC              9.000                   : Bottom Hole Temperature
TMAX .DEGC              9.000                   : Max recorded temperature
#
~Other Information
---------------------------------------------------------------------------------------
1)  Run 1: MCB, SHA, MCG, MIM, MIE, MFE, MDM, MRD, MTD, HFS; Run in Combination
      Run 2: MCB, SHA, MCG, MTC, MGS, ISC, MDN, MPD, SKJ, MFE, MAI ; Run in Combination
2) Hardware: MDN: One Dual Neutron Bowspring
                         MAI: Two 12.7 mm standoffs with Bottom Hole Finder Assembly
                         MCG: One 6-leaf centralizer
                         MIE: Two 6-leaf centralizers
                         MSD: Two 6-leaf centralizers                            
3) Total Hole Volume from TD to Surface Casing = 2.7 CuM
4) Hole Volume calculated with Micro Imager calipers
5) Logging requested from KB @ 478.6 m.
6) Tool zero requested from KB. 
7) Magnetic Declanation: 13.39  EAST
8) Easting: 494056.00 ; Northing: 6313159.00
.
---------------------------------------------------------------------------------------
#
#          DEPT           GRGM           CGXT           IECX           IECY           IRBR           ITLT           IAP1           IAZT           DI26           DI48           BTM1           BTM3           BTM5           BTM7            BIT
#
~ASCII Log Data
# ...
          108.8      76.308434       7.892281     156.076202     159.258484     136.380493       0.350386      75.742416     131.902420     159.700974     155.571304       0.031781       0.041061       0.036863       0.062462     159.000000
          108.9      73.169876       7.901550     158.155289     160.608704     136.217270       0.360099      75.707306     131.992569     160.380753     157.611206       0.027545       0.041893       0.041151       0.028006     159.000000
          109.0      71.581825       7.891654     157.615204     160.485947     133.841583       0.357765      75.448944     134.150482     160.035614     155.930603       0.025004       0.028223       0.031935       0.027814     159.000000
          109.1      71.174316       7.882802     158.016678     160.327408     138.480225       0.383800      75.138145     129.024750     158.380585     157.813370       0.024249       0.029081       0.027596       0.025337     159.000000
          109.2      72.682854       7.955198     157.696457     160.337631     143.195343       0.400086      75.352058     124.394676     157.957382     157.215942       0.049125       0.055064       0.066174       0.037106     159.000000
          109.3      75.348518       7.930699     157.280640     160.332520     146.929718       0.412678      75.915352     121.130196     158.120041     156.965881       0.035097       0.041010       0.051646       0.038028     159.000000
          109.4      79.412804       7.928612     159.001266     160.322296     144.204300       0.415888      75.899849     123.856583     160.694717     158.003784       0.034649       0.047755       0.042456       0.033125     159.000000
          109.5      83.502586       7.904262     160.578506     161.718536     142.849350       0.443482      75.669273     124.876266     160.925079     158.945862       0.063947       0.059928       0.060491       0.069681     159.000000
          109.6      86.126724       7.932338     162.189194     162.598221     138.894974       0.454636      75.749374     128.922272     162.626709     162.831848       0.052389       0.077463       0.065176       0.087677     159.000000
          109.7      87.301643       7.939014     163.168991     164.454773     136.373871       0.454642      76.121277     131.866455     160.931488     162.890335       0.070296       0.077540       0.066046       0.074084     159.000000
          109.8      86.854828       7.838662     163.895477     165.247513     126.332878       0.473255      76.004677     141.927536     163.102310     165.809570       0.051416       0.063691       0.038450       0.045554     159.000000
          109.9      86.162445       7.945661     164.449905     163.856384     122.992485       0.473732      76.006516     145.354050     165.340317     166.765228       0.074647       0.079998       0.069886       0.073393     159.000000
          110.0      84.806572       7.923545     163.216782     163.702942     119.155670       0.465805      76.202011     149.519821     166.863251     165.883743       0.062641       0.079870       0.073879       0.088829     159.000000
          110.1      83.635750       7.925870     160.941742     162.685165     116.653267       0.457081      76.051849     151.964417     165.119827     166.883057       0.063205       0.060798       0.073111       0.053221     159.000000
          110.2      82.409950       7.952903     159.632156     160.041000     110.352707       0.415565      75.885529     158.389984     161.875885     167.372772       0.069579       0.081866       0.091722       0.079204     159.000000
          110.3      80.483421       7.917704     158.790970     159.099930     106.590172       0.364090      75.762138     162.256775     159.582260     161.964020       0.069912       0.089521       0.074135       0.057803     159.000000
          110.4      77.684349       7.987477     158.002350     159.094818     104.999023       0.335935      75.695061     163.885284     161.731293     157.751266       0.034482       0.035301       0.035673       0.044018     159.000000
          110.5      73.879631       7.949863     156.420334     159.140854     112.870087       0.334311      75.681572     155.825577     162.187714     157.002625       0.038181       0.099069       0.056421       0.042879     159.000000
          110.6      69.485100       7.880746     155.440521     159.954056     116.995522       0.355880      75.942314     151.811920     158.506470     158.899231       0.072062       0.093796       0.073854       0.073777     159.000000
          110.7      65.601776       7.987178     158.881775     158.762375     122.014053       0.328560      76.135872     146.979553     159.398300     159.055359       0.007219       0.007824       0.006368       0.011980     159.000000
          110.8      62.672184       7.944915     158.910446     157.519562     124.355240       0.361733      76.542252     144.891403     159.540405     157.596756       0.003464       0.007235       0.003186       0.005739     159.000000
          110.9      61.420246       7.956718     158.537643     158.486206     127.128914       0.375828      76.954483     142.436600     160.095459     158.812103       0.003342       0.004493       0.003376       0.003246     159.000000
          111.0      61.687973       7.915469     157.337997     160.941147     124.918251       0.353453      77.111183     144.929764     159.566666     162.699524       0.002832       0.009049       0.002859       0.002776     159.000000
          111.1      63.937866       7.903666     157.185043     160.562668     119.074089       0.396798      77.196396     150.844543     159.184418     162.647095       0.002822       0.006915       0.007053       0.003323     159.000000
          111.2      67.242928       7.940832     156.903061     160.112595     115.466591       0.376836      77.033485     154.432556     159.095734     158.257996       0.029324       0.033868       0.029759       0.037823     159.000000
          111.3      70.510956       7.966971     156.855255     159.933594     112.097191       0.376007      76.742554     157.587402     158.450684     158.808685       0.029682       0.040946       0.046859       0.035225     159.000000
          111.4      72.918793       7.922353     156.037964     159.989853     116.293938       0.313424      76.899269     153.635208     160.341293     158.198593       0.061925       0.065636       0.069195       0.077975     159.000000
          111.5      75.245155       7.944528     155.373611     159.994965     122.251724       0.283557      76.897911     147.662308     159.162109     158.811722       0.053118       0.044875       0.060773       0.060440     159.000000
          111.6      77.259308       7.926645     155.349716     159.882446     132.511017       0.291072      76.897827     137.223663     159.104309     161.474091       0.058929       0.040127       0.038437       0.048511     159.000000
          111.7      78.831131       7.950787     156.071426     159.350540     137.779709       0.314202      76.525009     131.420212     159.359283     160.825012       0.042853       0.041061       0.041253       0.039026     159.000000
          111.8      79.542892       7.990934     156.171799     159.284058     143.818054       0.413178      77.113129     125.489510     160.692810     160.779327       0.035647       0.032549       0.038066       0.031244     159.000000
          111.9      79.246483       7.927867     157.835068     158.706116     144.318832       0.438838      76.903297     124.660683     160.105957     158.355896       0.037209       0.042764       0.036965       0.032818     159.000000
          112.0      78.489632       7.942561     158.150513     158.266281     146.615875       0.518457      74.542534     121.887733     157.383820     157.457397       0.039103       0.043506       0.047346       0.041957     159.000000
          112.1      77.369400       7.978833     158.164841     156.604080     143.544235       0.543356      74.520615     124.937607     155.523438     154.472610       0.034047       0.037106       0.035071       0.036837     159.000000
