~Version Information
VERS .            2.00                          : CWLS Log ASCII Standard - Version 2.00
WRAP .            NO                            : One line per depth step
#
~Well Information
#MNEM.UNIT        DATA                          : DESCRIPTION
#----.----        ----                          : -----------
STRT .M              0.0                        : Start
STOP .M            232.6                        : Stop
STEP .M              0.1                        : Step increment
NULL .            -999.250                      : Null value
COMP .            SUNCOR ENERGY INC.            : Company
WELL .            SUNCOR LEWIS 3-8-92-7         : Well
FLD  .            LEWIS                         : Field
PROV .            ALBERTA                       : Province
CTRY .            Canada                        : State / Country
LOC  .                                          : Location
LOC2 .            03-08-092-07W4                : Location 2
SRVC .            Weatherford                   : Service company
UWI  .            1AA030809207W400              : Unique Well ID
LIC  .            0486896                       : Licence Number
DATE .            25-Jan-2018                   : Logging Date
#
~Curve Information
#MNEM.UNIT        API CODES                     : CURVE DESCRIPTION
#----.----        ---------                     : -----------------
DEPT .M           00 001 00 00                  : Logged depth
GRGM .GAPI        30 310 01 00                  : MGS Gamma Ray
CGXT .DEGC        30 660 01 00                  : MCG External Temperature
IECX .MM          45 000 00 00                  : MIE Caliper X
IECY .MM          45 000 00 00                  : MIE Caliper Y
IRBR .DEG         00 000 00 00                  : Relative Bearing
ITLT .DEG         00 000 00 00                  : Borehole Tilt
IAP1 .DEG         00 000 00 00                  : Azimuth of Reference
IAZT .DEG         00 000 00 00                  : Borehole Azimuth (True)
DI26 .MM          70 280 02 00                  : Imager Diameter 2 - 6
DI48 .MM          70 280 02 00                  : Imager Diameter 4 - 8
BTM1 .MA          45 000 00 00                  : Imager Pad 1 Md. Current
BTM3 .MA          45 000 00 00                  : Imager Pad 3 Md. Current
BTM5 .MA          45 000 00 00                  : Imager Pad 5 Md. Current
BTM7 .MA          45 000 00 00                  : Imager Pad 7 Md. Current
BIT  .MM          70 282 00 00                  : Bit size
#
~Parameter Information
#MNEM.UNIT        VALUE                         : DESCRIPTION
#----.----        -----                         : -----------
RNID .            MAIN PASS                     : Run ID
SON  .            8310-204072557                : Job Number
DREF .            KB                            : Depth reference
EREF .M               478.600                   : Elevation of depth reference
GL   .M               477.400                   : Ground elevation
DDRF .            KB @1.2m                      : Drilling Depth Reference
RUN  .                  1                       : Run number
TDD  .M               230.000                   : TD (driller)
TDL  .M               230.100                   : TD (logger)
BS   .MM              159.000                   : Bit size
TIMC .            09-Jan-18 13:45:00.000        : Time circulation ended
TIML .            09-Jan-18 18:45:00.000        : Time logger at bottom
UNIT .              14265                       : Equipment ID
BASE .            LLD                           : Equipment base location
ENG  .            ELLIOT KANE                   : Recording engineer
WIT  .            CLARK HUBER                   : Witnessed by
CSGT .            SURFACE                       : Casing type
CSGS .MM              177.800                   : Casing size
CSGW .KG/M             25.299                   : Casing weight
CSGD .M                88.300                   : Casing bottom (driller)
CSGL .M                88.300                   : Casing bottom (logger)
CSUP .M                 0.000                   : Casing Stick Up GL
MUD  .            POLYMER                       : Mud type
MUDS .            N/A                           : Mud sample source
MUDD .K/M3           1050.000                   : Mud density
MUDV .SEC/L            42.000                   : Mud viscosity
PH   .                  7.000                   : Mud pH
FL   .ML/30MIN          8.000                   : Mud fluid loss rate
RM   .OHMM              4.450                   : Mud resistivity
RMT  .DEGC              9.800                   : Mud sample temperature
RMF  .OHMM        -999999.000                   : Mud filtrate resistivity
RMFT .DEGC        -999999.000                   : Mud filtrate sample temperature
RMC  .OHMM        -999999.000                   : Mud cake resistivity
RMCT .DEGC        -999999.000                   : Mud cake sample temperature
RMBT .OHMM              4.650                   : Mud Resistivity at BHT
BHT  .DEGC              9.000                   : Bottom Hole Temperature
TMAX .DEGC              9.000                   : Max recorded temperature
#
~Other Information
---------------------------------------------------------------------------------------
1)  Run 1: MCB, SHA, MCG, MIM, MIE, MFE, MDM, MRD, MTD, HFS; Run in Combination
      Run 2: MCB, SHA, MCG, MTC, MGS, ISC, MDN, MPD, SKJ, MFE, MAI ; Run in Combination
2) Hardware: MDN: One Dual Neutron Bowspring
                         MAI: Two 12.7 mm standoffs with Bottom Hole Finder Assembly
                         MCG: One 6-leaf centralizer
                         MIE: Two 6-leaf centralizers
                         MSD: Two 6-leaf centralizers                            
3) Total Hole Volume from TD to Surface Casing = 2.7 CuM
4) Hole Volume calculated with Micro Imager calipers
5) Logging requested from KB @ 478.6 m.
6) Tool zero requested from KB. 
7) Magnetic Declanation: 13.39  EAST
8) Easting: 494056.00 ; Northing: 6313159.00
.
---------------------------------------------------------------------------------------
#
#          DEPT           GRGM           CGXT           IECX           IECY           IRBR           ITLT           IAP1           IAZT           DI26           DI48           BTM1           BTM3           BTM5           BTM7            BIT
#
~ASCII Log Data
# ...
          149.6      98.353165       8.295985     159.211563     158.583374     119.562210       0.524864      91.852058     166.250870     158.464996     157.143524       0.103447       0.103600       0.112022       0.122672     159.000000
          149.7      98.894646       8.246390     159.135086     158.767502     118.751076       0.494297      92.648048     166.833481     158.547699     157.560547       0.109002       0.124310       0.129942       0.132502     159.000000
          149.8      99.070038       8.272618     159.130310     159.560242     120.528748       0.489630      92.562897     164.913635     158.754822     158.162582       0.087498       0.108643       0.106083       0.109155     159.000000
          149.9      98.590111       8.256046     159.125534     160.168854     125.683769       0.511732      91.379906     159.657227     158.787048     158.190979       0.087831       0.115350       0.105776       0.099351     159.000000
          150.0     100.277802       8.243678     158.647583     160.184204     125.609764       0.496657      92.502350     159.574997     159.164597     158.704819       0.103293       0.119241       0.104675       0.128867     159.000000
          150.1     101.443405       8.237062     158.728836     160.506409     125.783714       0.525778      90.823723     159.001144     159.558289     159.040955       0.091492       0.104573       0.104266       0.111357     159.000000
          150.2     102.100990       8.261113     158.767059     160.690536     125.383842       0.515555      90.602028     159.179291     159.774139     159.221664       0.089802       0.108336       0.115913       0.097482     159.000000
          150.3      99.809967       8.318398     159.120743     160.690536     124.899254       0.528974      90.367882     159.429779     159.819656     159.557327       0.065483       0.087012       0.039103       0.074238     159.000000
          150.4      97.954681       8.294078     159.096848     161.304260     124.927467       0.575174      90.212883     159.246780     160.359055     159.979370       0.075876       0.034700       0.049509       0.093335     159.000000
          150.5      93.101936       8.280785     158.561554     161.406555     125.063347       0.600811      90.021706     158.919846     160.526703     159.891846       0.047730       0.077387       0.054808       0.046271     159.000000
          150.6      87.091331       8.316818     157.940216     159.064133     123.646255       0.623417      89.687248     160.002563     157.917847     158.594360       0.055781       0.038488       0.060824       0.051877     159.000000
          150.7      79.473053       8.231399     155.693848     157.540024     126.582016       0.645311      89.176071     156.555801     156.920685     154.315720       0.037452       0.049138       0.045887       0.041701     159.000000
          150.8      74.876137       8.231518     154.173965     156.803543     125.817940       0.654728      88.739288     156.883118     155.463654     154.754730       0.026047       0.031487       0.032434       0.032895     159.000000
          150.9      70.386505       8.294823     153.782043     155.381729     125.840378       0.700206      88.139709     156.261368     152.142548     156.135559       0.037055       0.045387       0.006096       0.037426     159.000000
          151.0      66.650696       8.281291     152.802246     151.888550     123.755302       0.739081      87.935547     158.142456     150.592163     157.528351       0.039653       0.048767       0.012844       0.029759     159.000000
          151.1      64.099419       8.235929     153.667328     151.576569     122.372551       0.715397      87.676315     159.265778     151.402954     154.876083       0.034687       0.035493       0.040613       0.028006     159.000000
          151.2      64.132355       8.285345     154.981689     151.591919     121.890343       0.704755      87.579971     159.651566     153.223862     154.995178       0.040690       0.066225       0.065355       0.043711     159.000000
          151.3      64.463806       8.222844     155.502655     153.658157     122.457726       0.693748      87.358398     158.862564     153.847107     155.853287       0.078666       0.148015       0.138185       0.094333     159.000000
          151.4      64.249413       8.262395     155.311478     154.118454     122.644447       0.736669      87.064018     158.381729     154.529282     155.170471       0.050111       0.035493       0.045695       0.032997     159.000000
          151.5      65.452187       8.297982     155.383179     154.082657     123.038795       0.702399      87.193108     158.116287     154.730820     153.883057       0.028582       0.033049       0.033189       0.037848     159.000000
          151.6      68.884010       8.239415     155.321045     154.092880     123.095886       0.663801      87.290627     158.156494     154.545288     153.174866       0.042341       0.032063       0.039973       0.028902     159.000000
          151.7      71.831047       8.302393     147.200653     154.404861     121.859489       0.657192      87.108826     159.211014     153.449188     154.288605       0.032140       0.037311       0.054066       0.049893     159.000000
          151.8      72.160934       8.249639     145.393997     154.537842     121.750824       0.641529      86.432182     158.642960     152.475189     152.918762       0.011664       0.037541       0.012150       0.007462     159.000000
          151.9      70.348389       8.258074     144.705750     155.611877     120.054924       0.611474      86.349197     160.255676     153.152710     153.277527       0.002407       0.004411       0.004040       0.002302     159.000000
          152.0      66.765594       8.259504     144.586258     156.931412     122.897873       0.606429      86.052597     157.116196     153.201080     152.986938       0.005038       0.008301       0.007283       0.005734     159.000000
          152.1      61.464016       8.267432     144.586258     156.931412     121.210701       0.618282      85.371376     158.122162     153.175278     152.547043       0.005342       0.003536       0.004691       0.003901     159.000000
          152.2      56.767300       8.250592     144.571930     156.921173     123.827560       0.631024      85.164955     155.299011     152.664398     152.493408       0.002746       0.002920       0.003090       0.003470     159.000000
          152.3      54.473949       8.243082     143.056824     158.210022     120.079735       0.589853      84.757004     158.638580     153.220001     150.767456       0.003069       0.005320       0.003969       0.004449     159.000000
          152.4      54.516518       8.280695     142.186951     158.972076     120.394714       0.575823      82.718536     156.285095     154.781799     149.781830       0.011337       0.014508       0.012787       0.007273     159.000000
          152.5      53.874310       8.277506     149.184158     158.414597     118.579544       0.566803      82.198730     157.580368     155.292221     149.296051       0.001846       0.001614       0.002028       0.002398     159.000000
          152.6      53.420654       8.207614     146.354675     158.409485     120.757095       0.599535      83.241508     156.445801     148.464233     149.658707       0.001950       0.001706       0.001953       0.002181     159.000000
          152.7      52.090317       8.274942     144.136993     158.399261     120.372765       0.552831      83.042503     156.630890     148.526672     151.190750       0.001851       0.001836       0.001542       0.003041     159.000000
          152.8      51.189716       8.265078     145.623413     158.409485     119.570633       0.556320      82.700043     157.090561     149.401672     152.467407       0.002817       0.002349       0.003046       0.003357     159.000000
          152.9      49.005215       8.290084     147.764633     158.414597     117.578880       0.559218      83.342224     159.724472     149.077438     154.433426       0.003209       0.003790       0.003282       0.003806     159.000000
