~Version Information
VERS .            2.00                          : CWLS Log ASCII Standard - Version 2.00
WRAP .            NO                            : One line per depth step
#
~Well Information
#MNEM.UNIT        DATA                          : DESCRIPTION
#----.----        ----                          : -----------
STRT .M            171.9                        : Start
STOP .M            232.6                        : Stop
STEP .M              0.1                        : Step increment
NULL .            -999.250                      : Null value
COMP .            SUNCOR ENERGY INC.            : Company
WELL .            SUNCOR LEWIS 3-8-92-7         : Well
FLD  .            LEWIS                         : Field
PROV .            ALBERTA                       : Province
CTRY .            Canada                        : State / Country
LOC  .                                          : Location
LOC2 .            03-08-092-07W4                : Location 2
SRVC .            Weatherford                   : Service company
UWI  .            1AA140509207W400              : Unique Well ID
LIC  .            0486895                       : Licence Number
DATE .            25-Jan-2018                   : Logging Date
#
~Curve Information
#MNEM.UNIT        API CODES                     : CURVE DESCRIPTION
#----.----        ---------                     : -----------------
DEPT .M           00 001 00 00                  : Logged depth
CGXT .DEGC        30 660 01 00                  : MCG External Temperature
GRGM .GAPI        30 310 01 00                  : MGS Gamma Ray
IECX .MM          45 000 00 00                  : MIE Caliper X
IECY .MM          45 000 00 00                  : MIE Caliper Y
IRBR .DEG         00 000 00 00                  : Relative Bearing
ITLT .DEG         00 000 00 00                  : Borehole Tilt
IAP1 .DEG         00 000 00 00                  : Azimuth of Reference
IAZT .DEG         00 000 00 00                  : Borehole Azimuth (True)
DI26 .MM          70 280 02 00                  : Imager Diameter 2 - 6
DI48 .MM          70 280 02 00                  : Imager Diameter 4 - 8
BTM1 .MA          45 000 00 00                  : Imager Pad 1 Md. Current
BTM3 .MA          45 000 00 00                  : Imager Pad 3 Md. Current
BTM5 .MA          45 000 00 00                  : Imager Pad 5 Md. Current
BTM7 .MA          45 000 00 00                  : Imager Pad 7 Md. Current
BIT  .MM          70 282 00 00                  : Bit size
#
~Parameter Information
#MNEM.UNIT        VALUE                         : DESCRIPTION
#----.----        -----                         : -----------
RNID .            MAIN PASS                     : Run ID
SON  .            8310-204072557                : Job Number
DREF .            KB                            : Depth reference
EREF .M               478.600                   : Elevation of depth reference
GL   .M               477.400                   : Ground elevation
DDRF .            KB @1.2m                      : Drilling Depth Reference
RUN  .                  1                       : Run number
TDD  .M               230.000                   : TD (driller)
TDL  .M               230.100                   : TD (logger)
BS   .MM              159.000                   : Bit size
TIMC .            09-Jan-18 13:45:00.000        : Time circulation ended
TIML .            09-Jan-18 18:45:00.000        : Time logger at bottom
UNIT .              14265                       : Equipment ID
BASE .            LLD                           : Equipment base location
ENG  .            ELLIOT KANE                   : Recording engineer
WIT  .            CLARK HUBER                   : Witnessed by
CSGT .            SURFACE                       : Casing type
CSGS .MM              177.800                   : Casing size
CSGW .KG/M             25.299                   : Casing weight
CSGD .M                88.300                   : Casing bottom (driller)
CSGL .M                88.300                   : Casing bottom (logger)
CSUP .M                 0.000                   : Casing Stick Up GL
MUD  .            POLYMER                       : Mud type
MUDS .            N/A                           : Mud sample source
MUDD .K/M3           1050.000                   : Mud density
MUDV .SEC/L            42.000                   : Mud viscosity
PH   .                  7.000                   : Mud pH
FL   .ML/30MIN          8.000                   : Mud fluid loss rate
RM   .OHMM              4.450                   : Mud resistivity
RMT  .DEGC              9.800                   : Mud sample temperature
RMF  .OHMM        -999999.000                   : Mud filtrate resistivity
RMFT .DEGC        -999999.000                   : Mud filtrate sample temperature
RMC  .OHMM        -999999.000                   : Mud cake resistivity
RMCT .DEGC        -999999.000                   : Mud cake sample temperature
RMBT .OHMM              4.650                   : Mud Resistivity at BHT
BHT  .DEGC              9.000                   : Bottom Hole Temperature
TMAX .DEGC              9.000                   : Max recorded temperature
#
~Other Information
---------------------------------------------------------------------------------------
1)  Run 1: MCB, SHA, MCG, MIM, MIE, MFE, MDM, MRD, MTD, HFS; Run in Combination
      Run 2: MCB, SHA, MCG, MTC, MGS, ISC, MDN, MPD, SKJ, MFE, MAI ; Run in Combination
2) Hardware: MDN: One Dual Neutron Bowspring
                         MAI: Two 12.7 mm standoffs with Bottom Hole Finder Assembly
                         MCG: One 6-leaf centralizer
                         MIE: Two 6-leaf centralizers
                         MSD: Two 6-leaf centralizers                            
3) Total Hole Volume from TD to Surface Casing = 2.2 CuM
4) Hole Volume calculated with Micro Imager calipers
5) Logging requested from KB @ 478.6 m.
6) Tool zero requested from KB. 
7) Magnetic Declanation: 13.39  EAST
8) Easting: 494056.00 ; Northing: 6313159.00
.
---------------------------------------------------------------------------------------
#
#          DEPT           CGXT           GRGM           IECX           IECY           IRBR           ITLT           IAP1           IAZT           DI26           DI48           BTM1           BTM3           BTM5           BTM7            BIT
#
~ASCII Log Data
# ...
          212.7       7.741379      27.208042     162.021912     164.408737      69.964882       0.547789      81.731056     205.725327     163.075623     162.182068       0.000218       0.000350       0.000518       0.000449     159.000000
          212.8       7.675839      25.082447     160.296509     161.150833      70.623184       0.536931      81.717690     205.053726     160.470886     159.594238       0.000449       0.000458       0.000612       0.000758     159.000000
          212.9       7.747459      23.664722     160.263046     159.427261      66.430443       0.503997      82.144478     209.673233     160.359253     158.920044       0.000639       0.000543       0.000698       0.000728     159.000000
          213.0       7.691635      22.476402     161.008652     157.892929      70.326927       0.504224      81.969765     205.602127     162.023621     164.223785       0.000579       0.000479       0.000298       0.000343     159.000000
          213.1       7.731156      23.855904     164.593292     167.436508      72.416992       0.493111      81.943649     203.869308     164.193817     164.170731       0.000242       0.000574       0.000235       0.000493     159.000000
          213.2       7.657032      28.054262     161.945435     165.702698      71.614876       0.526417      82.337814     204.682220     162.898224     162.142563       0.000209       0.000255       0.000200       0.000198     159.000000
          213.3       7.719741      36.333599     160.540268     159.938705      74.203178       0.518780      82.041138     201.797348     157.584366     159.894730       0.000218       0.000174       0.000163       0.000207     159.000000
          213.4       7.700279      49.510941     160.535477     158.353226      74.531647       0.512483      81.775124     201.202896     158.217270     157.483856       0.000493       0.000199       0.000268       0.000605     159.000000
          213.5       7.739412      65.387886     160.984756     158.936279      75.182327       0.531110      81.935516     200.712585     158.647278     157.453766       0.000360       0.000253       0.000741       0.000498     159.000000
          213.6       7.704123      81.373878     160.678864     158.936279      72.078300       0.535737      82.203789     204.084763     159.392410     157.587524       0.014246       0.012662       0.018707       0.013331     159.000000
          213.7       7.730113      91.936348     159.426636     157.361023      73.410774       0.547148      82.164696     202.713196     157.296448     156.650940       0.013516       0.014508       0.015302       0.012643     159.000000
          213.8       7.614083      94.860481     159.990616     154.512268      68.942688       0.541771      82.089226     207.105682     158.415268     155.867477       0.010025       0.016352       0.013836       0.010886     159.000000
          213.9       7.704809      87.382156     160.540268     154.517380      68.443497       0.563165      81.953354     207.468918     150.482834     156.728622       0.017907       0.017779       0.010220       0.008045     159.000000
          214.0       7.675272      74.195320     158.953461     150.522995      64.674957       0.547469      82.264671     211.548706     149.007324     155.378723       0.009971       0.014598       0.014483       0.014579     159.000000
          214.1       7.696166      57.736565     157.285416     152.778473      65.392471       0.540149      82.489090     211.055664     153.290955     152.156036       0.004886       0.005918       0.004659       0.005312     159.000000
          214.2       7.689817      43.848728     158.026245     157.463303      65.129822       0.573033      81.176262     210.005356     147.689087     149.827728       0.009379       0.005619       0.007312       0.004526     159.000000
          214.3       7.675630      33.350883     158.972580     159.550003      67.052063       0.602845      81.349739     208.256546     154.994141     149.391907       0.007453       0.007475       0.008749       0.010467     159.000000
          214.4       7.742989      28.732969     159.402740     159.989853      65.538246       0.603409      81.646515     210.067062     155.639557     155.414825       0.008966       0.007341       0.006832       0.008502     159.000000
          214.5       7.726149      27.217581     157.314102     155.678360      65.440132       0.560485      81.599495     210.118332     154.849167     152.072418       0.007584       0.005805       0.006944       0.006341     159.000000
          214.6       7.735925      28.702208     156.917389     155.795990      64.706993       0.585067      81.454605     210.706467     154.293610     152.753494       0.006403       0.006417       0.007328       0.005761     159.000000
          214.7       7.715330      29.929424     157.204163     155.795990      66.185829       0.582948      81.538689     209.311752     156.614258     153.019150       0.007453       0.008208       0.005368       0.009190     159.000000
          214.8       7.643471      31.346449     154.556320     155.734619      61.092171       0.577757      81.874794     214.741394     154.878448     152.583954       0.009830       0.005582       0.008342       0.007651     159.000000
          214.9       7.680697      32.094826     154.436829     155.059509      65.404434       0.570075      82.163506     210.718002     154.986023     149.998688       0.007901       0.009651       0.012041       0.008477     159.000000
          215.0       7.739740      35.343296     153.829834     155.238525      61.766090       0.546285      83.174477     215.367310     157.644089     148.464752       0.011852       0.012294       0.013401       0.011731     159.000000
          215.1       7.656674      40.392410     155.712967     156.384155      61.039295       0.516747      83.526733     216.446457     156.839417     154.036987       0.010956       0.008000       0.008169       0.012080     159.000000
          215.2       7.641504      47.806236     156.224365     158.977188      58.188622       0.490569      81.294952     217.966125     155.709259     153.236908       0.006781       0.007181       0.006813       0.008128     159.000000
          215.3       7.727431      56.755604     154.943466     158.972076      58.842922       0.465936      80.605324     216.531815     156.368881     153.205612       0.007053       0.007417       0.006241       0.006029     159.000000
          215.4       7.680578      67.147560     156.339081     160.127945      57.044533       0.416501      80.643814     218.339951     157.917480     158.359619       0.006246       0.006464       0.008048       0.006072     159.000000
          215.5       7.661920      75.876808     159.421860     160.010315      57.732552       0.394441      80.530914     217.473907     158.710144     159.579376       0.008851       0.009008       0.008560       0.004835     159.000000
          215.6       7.699891      81.881226     158.977371     160.388779      58.479439       0.382766      80.537483     216.692078     159.559158     159.701630       0.013104       0.010425       0.012640       0.013052     159.000000
          215.7       7.692827      84.374779     158.676254     162.342499      58.027786       0.365837      80.520744     217.107788     162.324524     159.721680       0.005577       0.013190       0.014502       0.002188     159.000000
          215.8       7.712916      85.476112     160.597610     161.631592      56.791710       0.364750      80.594154     218.451904     160.684174     160.372131       0.015046       0.012380       0.007795       0.015308     159.000000
          215.9       7.691069      85.560516     160.583282     160.015427      56.445522       0.350747      80.615860     218.803116     158.926620     158.248520       0.017420       0.004683       0.005208       0.013065     159.000000
          216.0       7.647167      85.327415     158.580658     160.010315      58.598488       0.367420      80.606270     216.613174     158.314301     157.489197       0.005696       0.005305       0.007241       0.008313     159.000000
