~Version Information
VERS .            2.00                          : CWLS Log ASCII Standard - Version 2.00
WRAP .            NO                            : One line per depth step
#
~Well Information
#MNEM.UNIT        DATA                          : DESCRIPTION
#----.----        ----                          : -----------
STRT .M              0.0                        : Start
STOP .M            232.6                        : Stop
STEP .M              0.1                        : Step increment
NULL .            -999.250                      : Null value
COMP .            SUNCOR ENERGY INC.            : Company
WELL .            SUNCOR LEWIS 3-8-92-7         : Well
FLD  .            LEWIS                         : Field
PROV .            ALBERTA                       : Province
CTRY .            Canada                        : State / Country
LOC  .                                          : Location
LOC2 .            03-08-092-07W4                : Location 2
SRVC .            Weatherford                   : Service company
UWI  .            1AA030809207W400              : Unique Well ID
LIC  .            0486896                       : Licence Number
DATE .            25-Jan-2018                   : Logging Date
#
~Curve Information
#MNEM.UNIT        API CODES                     : CURVE DESCRIPTION
#----.----        ---------                     : -----------------
DEPT .M           00 001 00 00                  : Logged depth
GRGM .GAPI        30 310 01 00                  : MGS Gamma Ray
CGXT .DEGC        30 660 01 00                  : MCG External Temperature
IECX .MM          45 000 00 00                  : MIE Caliper X
IECY .MM          45 000 00 00                  : MIE Caliper Y
IRBR .DEG         00 000 00 00                  : Relative Bearing
ITLT .DEG         00 000 00 00                  : Borehole Tilt
IAP1 .DEG         00 000 00 00                  : Azimuth of Reference
IAZT .DEG         00 000 00 00                  : Borehole Azimuth (True)
DI26 .MM          70 280 02 00                  : Imager Diameter 2 - 6
DI48 .MM          70 280 02 00                  : Imager Diameter 4 - 8
BTM1 .MA          45 000 00 00                  : Imager Pad 1 Md. Current
BTM3 .MA          45 000 00 00                  : Imager Pad 3 Md. Current
BTM5 .MA          45 000 00 00                  : Imager Pad 5 Md. Current
BTM7 .MA          45 000 00 00                  : Imager Pad 7 Md. Current
BIT  .MM          70 282 00 00                  : Bit size
#
~Parameter Information
#MNEM.UNIT        VALUE                         : DESCRIPTION
#----.----        -----                         : -----------
RNID .            MAIN PASS                     : Run ID
SON  .            8310-204072557                : Job Number
DREF .            KB                            : Depth reference
EREF .M               478.600                   : Elevation of depth reference
GL   .M               477.400                   : Ground elevation
DDRF .            KB @1.2m                      : Drilling Depth Reference
RUN  .                  1                       : Run number
TDD  .M               230.000                   : TD (driller)
TDL  .M               230.100                   : TD (logger)
BS   .MM              159.000                   : Bit size
TIMC .            09-Jan-18 13:45:00.000        : Time circulation ended
TIML .            09-Jan-18 18:45:00.000        : Time logger at bottom
UNIT .              14265                       : Equipment ID
BASE .            LLD                           : Equipment base location
ENG  .            ELLIOT KANE                   : Recording engineer
WIT  .            CLARK HUBER                   : Witnessed by
CSGT .            SURFACE                       : Casing type
CSGS .MM              177.800                   : Casing size
CSGW .KG/M             25.299                   : Casing weight
CSGD .M                88.300                   : Casing bottom (driller)
CSGL .M                88.300                   : Casing bottom (logger)
CSUP .M                 0.000                   : Casing Stick Up GL
MUD  .            POLYMER                       : Mud type
MUDS .            N/A                           : Mud sample source
MUDD .K/M3           1050.000                   : Mud density
MUDV .SEC/L            42.000                   : Mud viscosity
PH   .                  7.000                   : Mud pH
FL   .ML/30MIN          8.000                   : Mud fluid loss rate
RM   .OHMM              4.450                   : Mud resistivity
RMT  .DEGC              9.800                   : Mud sample temperature
RMF  .OHMM        -999999.000                   : Mud filtrate resistivity
RMFT .DEGC        -999999.000                   : Mud filtrate sample temperature
RMC  .OHMM        -999999.000                   : Mud cake resistivity
RMCT .DEGC        -999999.000                   : Mud cake sample temperature
RMBT .OHMM              4.650                   : Mud Resistivity at BHT
BHT  .DEGC              9.000                   : Bottom Hole Temperature
TMAX .DEGC              9.000                   : Max recorded temperature
#
~Other Information
---------------------------------------------------------------------------------------
1)  Run 1: MCB, SHA, MCG, MIM, MIE, MFE, MDM, MRD, MTD, HFS; Run in Combination
      Run 2: MCB, SHA, MCG, MTC, MGS, ISC, MDN, MPD, SKJ, MFE, MAI ; Run in Combination
2) Hardware: MDN: One Dual Neutron Bowspring
                         MAI: Two 12.7 mm standoffs with Bottom Hole Finder Assembly
                         MCG: One 6-leaf centralizer
                         MIE: Two 6-leaf centralizers
                         MSD: Two 6-leaf centralizers                            
3) Total Hole Volume from TD to Surface Casing = 2.7 CuM
4) Hole Volume calculated with Micro Imager calipers
5) Logging requested from KB @ 478.6 m.
6) Tool zero requested from KB. 
7) Magnetic Declanation: 13.39  EAST
8) Easting: 494056.00 ; Northing: 6313159.00
.
---------------------------------------------------------------------------------------
#
#          DEPT           GRGM           CGXT           IECX           IECY           IRBR           ITLT           IAP1           IAZT           DI26           DI48           BTM1           BTM3           BTM5           BTM7            BIT
#
~ASCII Log Data
# ...
          119.0     100.451096       8.028160     162.700607     162.183960     138.362839       0.363244      78.838188     132.975861     161.406830     158.687744       0.114787       0.152111       0.140181       0.139055     159.000000
          119.1      99.898567       8.081302     161.467484     162.189072     136.473145       0.344815      78.816574     134.941574     164.374878     156.702316       0.113200       0.153954       0.141513       0.142537     159.000000
          119.2      98.810913       8.044940     162.012344     163.365387     143.373077       0.361528      79.299706     128.368439     165.489990     158.866150       0.126819       0.133679       0.134242       0.151240     159.000000
          119.3      96.212669       8.002021     161.008652     164.736069     149.558258       0.400699      80.137978     122.784988     165.832184     162.749603       0.128355       0.139567       0.136444       0.133526     159.000000
          119.4      94.816910       8.083984     158.599777     164.730957     155.657623       0.403733      80.485992     116.968048     166.365082     163.256927       0.104317       0.042060       0.124617       0.127177     159.000000
          119.5      93.482086       8.081839     157.944992     164.459885     157.568481       0.433749      80.839241     115.263641     163.812866     163.644226       0.087191       0.107158       0.114121       0.117705     159.000000
          119.6      93.164444       8.083686     157.381012     163.263107     155.234756       0.445835      81.057281     117.780136     161.550446     164.261963       0.101040       0.109104       0.114275       0.122262     159.000000
          119.7      92.261963       8.090779     162.227432     162.501053     159.982086       0.445008      81.812180     113.757996     163.052841     161.876526       0.090801       0.126102       0.114941       0.118525     159.000000
          119.8      91.946556       8.092926     163.168991     162.506165     158.217789       0.488378      82.906006     116.439415     162.501465     162.848251       0.085988       0.109360       0.101117       0.104650     159.000000
          119.9      90.762253       8.062644     163.991074     161.641815     153.014709       0.492841      83.187698     121.970436     163.484344     163.599609       0.089009       0.095613       0.095690       0.105366     159.000000
          120.0      90.082558       8.143981     162.375595     162.899979     148.494614       0.533598      80.834953     126.301445     160.899200     163.346039       0.097712       0.119651       0.114633       0.125129     159.000000
          120.1      90.420120       8.059574     162.404266     160.946259     144.558502       0.502197      80.563759     129.966293     160.645462     163.164917       0.093642       0.116067       0.105059       0.115811     159.000000
          120.2      91.870621       8.082583     162.891785     159.734131     140.016846       0.512915      80.931602     134.875885     161.463165     159.682892       0.333814       0.664147       0.214624       0.275141     159.000000
          120.3      93.241417       8.095578     160.870056     159.734131     138.629623       0.503324      80.987656     136.319122     159.847473     157.794189       0.083889       0.062923       0.086346       0.100554     159.000000
          120.4      93.885292       8.084789     160.721878     159.790390     137.991394       0.486184      82.875473     136.977005     162.740768     158.662140       0.048600       0.054347       0.065176       0.058571     159.000000
          120.5      92.972252       8.143027     160.425552     159.585815     140.883591       0.434958      82.837669     134.189346     161.734543     156.505646       0.088932       0.100631       0.088573       0.084785     159.000000
          120.6      90.884552       8.123713     159.952377     159.836411     135.675201       0.397573      82.742203     139.542572     158.888977     156.020477       0.056549       0.068939       0.073111       0.066328     159.000000
          120.7      89.332191       8.089618     158.599777     160.133057     133.943237       0.378944      82.724274     141.359497     159.115616     155.872269       0.045451       0.045989       0.044108       0.044440     159.000000
          120.8      89.863647       8.087709     157.930649     161.222443     135.314362       0.376400      82.784882     140.033356     159.466919     156.199707       0.063896       0.071831       0.059262       0.063998     159.000000
          120.9      92.460114       8.066996     156.635406     161.841278     137.424759       0.373976      82.601906     137.707016     158.878418     156.301086       0.034482       0.047448       0.046053       0.058545     159.000000
          121.0      95.014359       8.154472     156.807465     162.634033     137.448471       0.339313      83.162476     138.383774     160.547165     162.441254       0.061361       0.067403       0.071371       0.060619     159.000000
          121.1      98.212074       8.101628     161.610870     165.375381     137.078323       0.339776      83.077599     138.672974     164.504898     166.677032       0.070756       0.084810       0.072011       0.062181     159.000000
          121.2      99.936569       8.096174     162.877441     165.124771     135.506439       0.368165      83.397552     140.489548     164.918640     166.055145       0.088548       0.089469       0.098480       0.097636     159.000000
          121.3     101.417496       8.110868     162.232208     164.521255     138.894867       0.355286      83.534378     137.232071     166.022919     166.010010       0.081764       0.092848       0.093002       0.087805     159.000000
          121.4     100.468925       8.076473     161.515289     164.224625     141.657700       0.345849      83.672531     134.603851     164.757492     165.131668       0.079102       0.087447       0.095255       0.095178     159.000000
          121.5     100.581932       8.085206     160.936966     164.193939     143.729630       0.349776      83.858292     132.673370     164.584076     166.395538       0.079690       0.097456       0.083479       0.088266     159.000000
          121.6      98.901611       8.084491     159.904587     162.674942     142.673462       0.380693      84.002533     133.763824     163.641602     165.923767       0.078206       0.093207       0.081892       0.091287     159.000000
          121.7      98.506012       8.067502     159.221115     158.849335     146.738373       0.355404      84.126122     129.869125     159.916687     161.888474       0.073777       0.066763       0.079742       0.074980     159.000000
          121.8      96.113297       8.094207     158.977371     158.358337     150.081268       0.315801      84.370766     126.901405     159.406555     160.871704       0.038437       0.049816       0.040063       0.048613     159.000000
          121.9      95.867897       8.147707     159.904587     158.358337     146.498871       0.348656      84.362946     130.378128     158.678497     158.645691       0.053374       0.054194       0.054962       0.047205     159.000000
          122.0      94.692589       8.145829     159.895035     158.363449     148.573120       0.343670      84.558304     128.496307     158.959427     158.683502       0.038565       0.044325       0.043749       0.049432     159.000000
          122.1      95.741791       8.119154     160.062317     158.087280     146.730698       0.355263      84.658394     130.413666     159.425690     159.036072       0.049023       0.059749       0.052811       0.053067     159.000000
          122.2      95.364754       8.082673     160.416000     157.974762     148.495865       0.350096      84.881554     128.865250     157.950317     158.503540       0.052683       0.066635       0.065048       0.049419     159.000000
          122.3      96.306587       8.110361     160.196136     157.059265     152.839462       0.351326      86.185028     125.806084     157.579926     157.559998       0.047320       0.051506       0.054936       0.059851     159.000000
