~Version Information
VERS .            2.00                          : CWLS Log ASCII Standard - Version 2.00
WRAP .            NO                            : One line per depth step
#
~Well Information
#MNEM.UNIT        DATA                          : DESCRIPTION
#----.----        ----                          : -----------
STRT .M            171.9                        : Start
STOP .M            232.6                        : Stop
STEP .M              0.1                        : Step increment
NULL .            -999.250                      : Null value
COMP .            SUNCOR ENERGY INC.            : Company
WELL .            SUNCOR LEWIS 3-8-92-7         : Well
FLD  .            LEWIS                         : Field
PROV .            ALBERTA                       : Province
CTRY .            Canada                        : State / Country
LOC  .                                          : Location
LOC2 .            03-08-092-07W4                : Location 2
SRVC .            Weatherford                   : Service company
UWI  .            1AA140509207W400              : Unique Well ID
LIC  .            0486895                       : Licence Number
DATE .            25-Jan-2018                   : Logging Date
#
~Curve Information
#MNEM.UNIT        API CODES                     : CURVE DESCRIPTION
#----.----        ---------                     : -----------------
DEPT .M           00 001 00 00                  : Logged depth
CGXT .DEGC        30 660 01 00                  : MCG External Temperature
GRGM .GAPI        30 310 01 00                  : MGS Gamma Ray
IECX .MM          45 000 00 00                  : MIE Caliper X
IECY .MM          45 000 00 00                  : MIE Caliper Y
IRBR .DEG         00 000 00 00                  : Relative Bearing
ITLT .DEG         00 000 00 00                  : Borehole Tilt
IAP1 .DEG         00 000 00 00                  : Azimuth of Reference
IAZT .DEG         00 000 00 00                  : Borehole Azimuth (True)
DI26 .MM          70 280 02 00                  : Imager Diameter 2 - 6
DI48 .MM          70 280 02 00                  : Imager Diameter 4 - 8
BTM1 .MA          45 000 00 00                  : Imager Pad 1 Md. Current
BTM3 .MA          45 000 00 00                  : Imager Pad 3 Md. Current
BTM5 .MA          45 000 00 00                  : Imager Pad 5 Md. Current
BTM7 .MA          45 000 00 00                  : Imager Pad 7 Md. Current
BIT  .MM          70 282 00 00                  : Bit size
#
~Parameter Information
#MNEM.UNIT        VALUE                         : DESCRIPTION
#----.----        -----                         : -----------
RNID .            MAIN PASS                     : Run ID
SON  .            8310-204072557                : Job Number
DREF .            KB                            : Depth reference
EREF .M               478.600                   : Elevation of depth reference
GL   .M               477.400                   : Ground elevation
DDRF .            KB @1.2m                      : Drilling Depth Reference
RUN  .                  1                       : Run number
TDD  .M               230.000                   : TD (driller)
TDL  .M               230.100                   : TD (logger)
BS   .MM              159.000                   : Bit size
TIMC .            09-Jan-18 13:45:00.000        : Time circulation ended
TIML .            09-Jan-18 18:45:00.000        : Time logger at bottom
UNIT .              14265                       : Equipment ID
BASE .            LLD                           : Equipment base location
ENG  .            ELLIOT KANE                   : Recording engineer
WIT  .            CLARK HUBER                   : Witnessed by
CSGT .            SURFACE                       : Casing type
CSGS .MM              177.800                   : Casing size
CSGW .KG/M             25.299                   : Casing weight
CSGD .M                88.300                   : Casing bottom (driller)
CSGL .M                88.300                   : Casing bottom (logger)
CSUP .M                 0.000                   : Casing Stick Up GL
MUD  .            POLYMER                       : Mud type
MUDS .            N/A                           : Mud sample source
MUDD .K/M3           1050.000                   : Mud density
MUDV .SEC/L            42.000                   : Mud viscosity
PH   .                  7.000                   : Mud pH
FL   .ML/30MIN          8.000                   : Mud fluid loss rate
RM   .OHMM              4.450                   : Mud resistivity
RMT  .DEGC              9.800                   : Mud sample temperature
RMF  .OHMM        -999999.000                   : Mud filtrate resistivity
RMFT .DEGC        -999999.000                   : Mud filtrate sample temperature
RMC  .OHMM        -999999.000                   : Mud cake resistivity
RMCT .DEGC        -999999.000                   : Mud cake sample temperature
RMBT .OHMM              4.650                   : Mud Resistivity at BHT
BHT  .DEGC              9.000                   : Bottom Hole Temperature
TMAX .DEGC              9.000                   : Max recorded temperature
#
~Other Information
---------------------------------------------------------------------------------------
1)  Run 1: MCB, SHA, MCG, MIM, MIE, MFE, MDM, MRD, MTD, HFS; Run in Combination
      Run 2: MCB, SHA, MCG, MTC, MGS, ISC, MDN, MPD, SKJ, MFE, MAI ; Run in Combination
2) Hardware: MDN: One Dual Neutron Bowspring
                         MAI: Two 12.7 mm standoffs with Bottom Hole Finder Assembly
                         MCG: One 6-leaf centralizer
                         MIE: Two 6-leaf centralizers
                         MSD: Two 6-leaf centralizers                            
3) Total Hole Volume from TD to Surface Casing = 2.2 CuM
4) Hole Volume calculated with Micro Imager calipers
5) Logging requested from KB @ 478.6 m.
6) Tool zero requested from KB. 
7) Magnetic Declanation: 13.39  EAST
8) Easting: 494056.00 ; Northing: 6313159.00
.
---------------------------------------------------------------------------------------
#
#          DEPT           CGXT           GRGM           IECX           IECY           IRBR           ITLT           IAP1           IAZT           DI26           DI48           BTM1           BTM3           BTM5           BTM7            BIT
#
~ASCII Log Data
# ...
          195.7       8.138824      27.776361     154.150055     159.079483      96.137535       0.531973      76.850883     174.673615     157.366440     156.785782       0.000693       0.000456       0.000673       0.000738     159.000000
          195.8       8.081391      28.174097     154.259995     159.601151      86.644058       0.542699      76.067932     183.383728     159.585632     156.979279       0.000700       0.000569       0.000548       0.000526     159.000000
          195.9       8.052301      28.304119     158.800522     158.701004      95.526749       0.502557      75.440506     173.873962     159.253784     157.189667       0.000589       0.000563       0.000505       0.000609     159.000000
          196.0       8.072748      28.817528     157.892410     160.276260      85.520493       0.525350      75.643547     184.082870     157.912018     157.183380       0.000448       0.000494       0.000466       0.000697     159.000000
          196.1       8.105026      28.683523     154.293442     155.407303      89.733055       0.526260      75.186356     179.413300     156.248810     153.510498       0.000397       0.000409       0.000711       0.000384     159.000000
          196.2       8.085892      29.782000     154.317337     156.675690      92.946877       0.525558      75.153145     176.166382     155.653198     156.073761       0.000351       0.000502       0.000393       0.000424     159.000000
          196.3       8.118677      29.452864     154.857422     159.647186      88.203949       0.529212      75.974503     181.730484     157.488403     157.672028       0.000684       0.000436       0.000403       0.000414     159.000000
          196.4       8.132864      30.019056     157.424026     158.373688      92.303040       0.529111      76.110176     177.767242     158.040985     158.479462       0.000516       0.000732       0.000430       0.000681     159.000000
          196.5       8.118587      29.750887     159.034714     158.844208      91.046738       0.525862      76.231430     179.144730     157.776123     158.134277       0.000706       0.000676       0.000882       0.000782     159.000000
          196.6       8.083716      30.417156     154.862213     157.724152      90.868645       0.526537      76.053589     179.144989     157.799622     156.489319       0.000615       0.000455       0.000353       0.000530     159.000000
          196.7       8.068635      28.970634     155.096405     159.120392      86.883301       0.527638      76.169945     183.246506     158.110474     158.951569       0.000500       0.000451       0.000479       0.000428     159.000000
          196.8       8.129407      28.388786     153.543060     158.839096      87.138603       0.507850      75.996567     182.817856     153.664871     156.160126       0.000473       0.000502       0.000578       0.000408     159.000000
          196.9       8.073940      27.437529     153.504822     158.424835      85.439072       0.515850      75.571075     184.091827     155.279007     156.623352       0.000365       0.000429       0.000514       0.000362     159.000000
          197.0       8.125830      27.010046     154.408157     157.253616      86.987297       0.510170      74.844139     181.816727     156.487793     157.522949       0.003709       0.000647       0.000491       0.000397     159.000000
          197.1       8.117306      25.721529     157.782486     159.094818      86.674866       0.513652      74.220650     181.505661     159.978241     159.107422       0.000319       0.000412       0.000443       0.000387     159.000000
          197.2       8.114058      25.480730     162.528534     158.481094      90.185211       0.533290      75.611748     179.386551     157.233643     159.253662       0.000367       0.000456       0.000321       0.000316     159.000000
          197.3       8.073403      25.350176     158.561554     160.296722      89.308517       0.528701      76.780975     181.432434     157.026169     158.276474       0.000430       0.000281       0.000380       0.001018     159.000000
          197.4       8.082673      25.034140     157.333206     161.759460      88.437737       0.523675      77.417282     182.939484     159.633011     158.568512       0.000509       0.000383       0.000380       0.000488     159.000000
          197.5       8.094893      24.446281     155.129852     162.352737      87.331314       0.529274      76.838356     183.466919     158.804199     158.576126       0.000304       0.000532       0.000438       0.000251     159.000000
          197.6       8.060409      24.406351     154.809631     162.373184      88.379410       0.533499      76.440376     182.020905     161.108429     161.137299       0.000508       0.000430       0.000409       0.000447     159.000000
          197.7       8.104102      24.545813     159.809006     162.465256      87.298790       0.495876      76.628532     182.860687     161.958008     162.063629       0.000546       0.000373       0.000518       0.000497     159.000000
          197.8       8.071078      24.137482     159.273697     162.352737      88.156540       0.512408      76.241470     182.044861     162.546097     162.351410       0.000636       0.000552       0.000514       0.000595     159.000000
          197.9       8.151045      24.186922     156.601944     162.362961      87.897598       0.523817      76.236267     182.298584     162.555267     162.286621       0.000574       0.000546       0.000534       0.000611     159.000000
          198.0       8.101003      24.429016     156.788345     162.327164      88.544167       0.529386      76.244774     181.660538     161.857666     161.005981       0.000512       0.000458       0.000441       0.000459     159.000000
          198.1       8.053941      24.951078     156.515915     161.401443      87.450668       0.525385      76.153076     182.662308     161.887573     160.618347       0.000417       0.000491       0.000385       0.000417     159.000000
          198.2       8.037817      25.329165     156.668869     161.979370      87.999443       0.524633      76.156448     182.116928     162.187714     161.164856       0.000525       0.000425       0.000545       0.000630     159.000000
          198.3       8.026610      26.469971     159.111191     162.040756      91.704163       0.521417      76.673515     178.929413     162.143768     160.833755       0.000406       0.000414       0.000372       0.000374     159.000000
          198.4       8.042377      27.537565     159.875916     162.040756      89.685280       0.533337      77.290031     181.564743     162.204773     161.131073       0.000380       0.000330       0.000414       0.000384     159.000000
          198.5       8.030872      28.755648     161.754257     162.465256      90.699783       0.531266      77.182983     180.443237     162.169830     161.336121       0.000263       0.000252       0.000289       0.000285     159.000000
          198.6       8.070333      29.688013     161.864182     162.634033      91.061562       0.526961      77.154884     180.053375     162.104279     161.949020       0.000326       0.000310       0.000442       0.000338     159.000000
          198.7       8.015523      30.688602     161.955002     162.424332      89.813896       0.524081      76.965958     181.112061     161.456390     162.002014       0.000294       0.000285       0.000269       0.000274     159.000000
          198.8       8.048129      31.047874     162.012344     162.424332      91.221779       0.523866      76.711960     179.450226     162.075119     161.959473       0.000326       0.000311       0.000284       0.000275     159.000000
          198.9       8.084044      31.000834     163.073410     162.378311      92.899025       0.533978      76.417397     177.478485     161.877396     162.083710       0.000333       0.000301       0.000283       0.000315     159.000000
          199.0       8.029024      31.200109     162.958694     162.224869      88.713356       0.514167      76.619904     181.866486     161.090607     161.411682       0.000215       0.000255       0.000215       0.000210     159.000000
