~Version Information
VERS .            2.00                          : CWLS Log ASCII Standard - Version 2.00
WRAP .            NO                            : One line per depth step
#
~Well Information
#MNEM.UNIT        DATA                          : DESCRIPTION
#----.----        ----                          : -----------
STRT .M            171.9                        : Start
STOP .M            232.6                        : Stop
STEP .M              0.1                        : Step increment
NULL .            -999.250                      : Null value
COMP .            SUNCOR ENERGY INC.            : Company
WELL .            SUNCOR LEWIS 3-8-92-7         : Well
FLD  .            LEWIS                         : Field
PROV .            ALBERTA                       : Province
CTRY .            Canada                        : State / Country
LOC  .                                          : Location
LOC2 .            03-08-092-07W4                : Location 2
SRVC .            Weatherford                   : Service company
UWI  .            1AA140509207W400              : Unique Well ID
LIC  .            0486895                       : Licence Number
DATE .            25-Jan-2018                   : Logging Date
#
~Curve Information
#MNEM.UNIT        API CODES                     : CURVE DESCRIPTION
#----.----        ---------                     : -----------------
DEPT .M           00 001 00 00                  : Logged depth
CGXT .DEGC        30 660 01 00                  : MCG External Temperature
GRGM .GAPI        30 310 01 00                  : MGS Gamma Ray
IECX .MM          45 000 00 00                  : MIE Caliper X
IECY .MM          45 000 00 00                  : MIE Caliper Y
IRBR .DEG         00 000 00 00                  : Relative Bearing
ITLT .DEG         00 000 00 00                  : Borehole Tilt
IAP1 .DEG         00 000 00 00                  : Azimuth of Reference
IAZT .DEG         00 000 00 00                  : Borehole Azimuth (True)
DI26 .MM          70 280 02 00                  : Imager Diameter 2 - 6
DI48 .MM          70 280 02 00                  : Imager Diameter 4 - 8
BTM1 .MA          45 000 00 00                  : Imager Pad 1 Md. Current
BTM3 .MA          45 000 00 00                  : Imager Pad 3 Md. Current
BTM5 .MA          45 000 00 00                  : Imager Pad 5 Md. Current
BTM7 .MA          45 000 00 00                  : Imager Pad 7 Md. Current
BIT  .MM          70 282 00 00                  : Bit size
#
~Parameter Information
#MNEM.UNIT        VALUE                         : DESCRIPTION
#----.----        -----                         : -----------
RNID .            MAIN PASS                     : Run ID
SON  .            8310-204072557                : Job Number
DREF .            KB                            : Depth reference
EREF .M               478.600                   : Elevation of depth reference
GL   .M               477.400                   : Ground elevation
DDRF .            KB @1.2m                      : Drilling Depth Reference
RUN  .                  1                       : Run number
TDD  .M               230.000                   : TD (driller)
TDL  .M               230.100                   : TD (logger)
BS   .MM              159.000                   : Bit size
TIMC .            09-Jan-18 13:45:00.000        : Time circulation ended
TIML .            09-Jan-18 18:45:00.000        : Time logger at bottom
UNIT .              14265                       : Equipment ID
BASE .            LLD                           : Equipment base location
ENG  .            ELLIOT KANE                   : Recording engineer
WIT  .            CLARK HUBER                   : Witnessed by
CSGT .            SURFACE                       : Casing type
CSGS .MM              177.800                   : Casing size
CSGW .KG/M             25.299                   : Casing weight
CSGD .M                88.300                   : Casing bottom (driller)
CSGL .M                88.300                   : Casing bottom (logger)
CSUP .M                 0.000                   : Casing Stick Up GL
MUD  .            POLYMER                       : Mud type
MUDS .            N/A                           : Mud sample source
MUDD .K/M3           1050.000                   : Mud density
MUDV .SEC/L            42.000                   : Mud viscosity
PH   .                  7.000                   : Mud pH
FL   .ML/30MIN          8.000                   : Mud fluid loss rate
RM   .OHMM              4.450                   : Mud resistivity
RMT  .DEGC              9.800                   : Mud sample temperature
RMF  .OHMM        -999999.000                   : Mud filtrate resistivity
RMFT .DEGC        -999999.000                   : Mud filtrate sample temperature
RMC  .OHMM        -999999.000                   : Mud cake resistivity
RMCT .DEGC        -999999.000                   : Mud cake sample temperature
RMBT .OHMM              4.650                   : Mud Resistivity at BHT
BHT  .DEGC              9.000                   : Bottom Hole Temperature
TMAX .DEGC              9.000                   : Max recorded temperature
#
~Other Information
---------------------------------------------------------------------------------------
1)  Run 1: MCB, SHA, MCG, MIM, MIE, MFE, MDM, MRD, MTD, HFS; Run in Combination
      Run 2: MCB, SHA, MCG, MTC, MGS, ISC, MDN, MPD, SKJ, MFE, MAI ; Run in Combination
2) Hardware: MDN: One Dual Neutron Bowspring
                         MAI: Two 12.7 mm standoffs with Bottom Hole Finder Assembly
                         MCG: One 6-leaf centralizer
                         MIE: Two 6-leaf centralizers
                         MSD: Two 6-leaf centralizers                            
3) Total Hole Volume from TD to Surface Casing = 2.2 CuM
4) Hole Volume calculated with Micro Imager calipers
5) Logging requested from KB @ 478.6 m.
6) Tool zero requested from KB. 
7) Magnetic Declanation: 13.39  EAST
8) Easting: 494056.00 ; Northing: 6313159.00
.
---------------------------------------------------------------------------------------
#
#          DEPT           CGXT           GRGM           IECX           IECY           IRBR           ITLT           IAP1           IAZT           DI26           DI48           BTM1           BTM3           BTM5           BTM7            BIT
#
~ASCII Log Data
# ...
          199.1       8.109318      32.427166     161.950211     161.386093      90.502846       0.522293      76.593475     180.050659     159.082062     159.508636       0.000276       0.000259       0.000252       0.000169     159.000000
          199.2       8.102732      34.634514     146.354675     158.941391      84.143631       0.509276      76.713486     186.529633     156.546997     155.842438       0.000381       0.000422       0.000352       0.000232     159.000000
          199.3       8.002051      38.527607     144.634064     154.384399      83.545479       0.505002      76.447357     186.861633     155.500519     154.790222       0.000382       0.002933       0.000655       0.000289     159.000000
          199.4       8.044791      43.747005     143.912354     152.998383      87.223579       0.483165      76.367012     182.678757     154.993652     154.674438       0.002374       0.007619       0.005355       0.001705     159.000000
          199.5       8.073255      51.071617     143.754623     153.264343      87.569984       0.494572      75.830444     181.750961     154.495789     153.454468       0.004593       0.005805       0.003397       0.003219     159.000000
          199.6       8.077815      59.773968     143.754623     152.241455      85.969063       0.499318      75.738403     183.315170     154.244400     151.676849       0.006691       0.006096       0.006536       0.006621     159.000000
          199.7       8.026819      69.401978     143.778534     152.241455      84.667343       0.520794      75.484703     184.777130     154.488525     150.275681       0.008784       0.010771       0.007334       0.010918     159.000000
          199.8       8.051140      77.872734     143.826324     154.430435      86.481194       0.496717      75.708824     182.753891     154.598389     148.202408       0.008781       0.011056       0.011872       0.011296     159.000000
          199.9       8.014450      83.999184     146.220856     154.415100      84.208893       0.480863      75.734299     185.154739     153.174225     148.433960       0.007904       0.010675       0.010236       0.008915     159.000000
          200.0       8.036744      87.474709     146.340347     154.425323      86.402084       0.487884      75.929619     183.073212     151.178650     148.127975       0.008160       0.007926       0.009504       0.006347     159.000000
          200.1       8.075103      87.215385     146.326004     152.098236      85.365837       0.480617      76.046227     184.276520     150.488602     146.935638       0.007613       0.009462       0.005357       0.004893     159.000000
          200.2       8.056504      84.834335     149.360992     152.082901      92.466240       0.473141      76.012695     176.880493     150.498215     146.831207       0.013497       0.008425       0.008438       0.010342     159.000000
          200.3       8.035701      81.315987     149.475708     152.763123      92.650986       0.491545      76.189522     176.846558     150.346924     147.407196       0.011104       0.008054       0.008950       0.011740     159.000000
          200.4       8.066220      78.820580     150.178284     152.026642      90.753799       0.489581      76.654388     179.304260     150.081802     146.804108       0.009129       0.007965       0.007257       0.009664     159.000000
          200.5       8.082583      76.976822     151.268021     150.471848      89.352150       0.494670      77.047043     181.163116     149.125153     145.910706       0.005360       0.006797       0.005392       0.006136     159.000000
          200.6       8.064342      75.953110     155.378387     150.129181      92.662003       0.538814      76.988350     178.286453     148.560196     145.148987       0.003779       0.004217       0.004907       0.003617     159.000000
          200.7       7.982022      75.801018     155.340164     150.093369      95.200470       0.535465      77.309189     176.068954     148.017975     147.344818       0.006198       0.006979       0.005325       0.006213     159.000000
          200.8       8.064104      76.174049     155.335373     149.883682      94.834427       0.518729      77.307007     176.432770     150.152039     151.968399       0.004824       0.005128       0.009811       0.009718     159.000000
          200.9       8.011023      76.160072     155.344940     149.893906      93.280014       0.540793      76.780785     177.460922     149.479828     151.483917       0.004813       0.009277       0.005870       0.007449     159.000000
          201.0       8.035193      74.488091     154.986481     149.883682      95.081451       0.554517      76.906685     175.785477     149.128876     152.018555       0.007705       0.006160       0.006179       0.008365     159.000000
          201.1       7.992543      73.002304     154.852646     149.914368      92.707634       0.538670      76.874779     178.127274     149.535980     152.154816       0.006406       0.004600       0.006126       0.006102     159.000000
          201.2       8.022855      70.535927     155.717743     150.354218      90.594978       0.535461      77.163589     180.528625     151.965698     153.555267       0.005467       0.006545       0.006230       0.006745     159.000000
          201.3       8.007029      68.231590     155.712967     151.371994      93.318016       0.544301      77.619804     178.261948     154.167542     153.484863       0.003659       0.003323       0.003417       0.005573     159.000000
          201.4       7.972515      64.942154     156.606735     152.369308      94.913521       0.565839      77.916077     176.962799     155.591705     153.063614       0.005301       0.004542       0.004921       0.007241     159.000000
          201.5       8.008310      61.011501     157.486160     152.440918      92.642693       0.543771      77.607780     178.925217     156.908569     154.905548       0.005072       0.006931       0.006989       0.008195     159.000000
          201.6       8.027594      56.417690     158.198303     152.461365      92.308792       0.535984      77.822762     179.474075     156.945480     156.076141       0.006024       0.006841       0.006707       0.011366     159.000000
          201.7       8.028160      50.910976     158.203079     152.292587      92.107872       0.514883      78.239471     180.091690     156.433075     156.238388       0.009206       0.007366       0.005449       0.007782     159.000000
          201.8       7.953917      46.252823     152.324295     150.880997      89.096794       0.502881      77.725067     182.588242     153.195770     156.672241       0.006406       0.008723       0.005681       0.011424     159.000000
          201.9       8.017878      42.857372     152.075760     153.924103      85.392433       0.479379      77.450302     185.707581     155.866150     157.427948       0.007318       0.001374       0.000661       0.010073     159.000000
          202.0       8.042466      41.884178     154.881332     156.962097      98.086685       0.477952      77.951820     173.054749     155.520615     157.117279       0.007133       0.001015       0.000760       0.010396     159.000000
          202.1       8.051140      42.398113     154.623230     153.422882      96.528442       0.451005      78.794525     175.582748     155.201782     155.855713       0.006184       0.002451       0.001871       0.006144     159.000000
          202.2       7.996627      44.645351     154.881332     149.714905      99.740311       0.454436      78.460823     171.907150     155.568787     155.630981       0.005243       0.004907       0.009568       0.011571     159.000000
          202.3       7.962202      46.388508     156.305618     153.924103      94.007439       0.433427      78.423599     177.830246     156.626312     156.707825       0.002951       0.003902       0.006203       0.007536     159.000000
          202.4       7.955616      46.442154     157.051224     157.146210      97.346359       0.463130      78.769272     174.691040     156.284576     156.101196       0.007974       0.006643       0.006861       0.007936     159.000000
